index_log, time_stamp, mode, thrust, roll, pitch, yaw, ae[0], ae[1], ae[2], ae[3], phi, theta, psi, sp, sq, sr, esp, esq, esr, sax, say, saz, bat_volt, P, P1, P2, temperature, pressure
0, 62362667, 2, 2978, 0, 0, 0, 372, 372, 372, 372, -2365, -889, 1277, -5, -7, -18, -32, -7, -14, -16264, -14968, 10352, 1162, 0, 0, 0, 0, 0
1, 62366568, 2, 2978, 0, 0, 0, 372, 372, 372, 372, -2390, -462, 1277, 47, 113, 147, 20, 113, -10, 12624, -5764, 9924, 1162, 0, 0, 0, 0, 0
2, 62370459, 2, 2978, 0, 0, 0, 372, 372, 372, 372, -2300, -654, 1277, -48, -253, -128, -75, -253, -6, -6288, 9376, 11584, 1162, 0, 0, 0, 0, 0
3, 62374347, 2, 2978, 0, 0, 0, 372, 372, 372, 372, -2334, -696, 1277, 31, 165, 8, 4, 165, -4, -2236, -6944, 18512, 1162, 0, 0, 0, 0, 0
4, 62378229, 2, 2978, 0, 0, 0, 372, 372, 372, 372, -2362, -1138, 1277, 51, -888, -104, 24, -888, -5, -13652, -6272, 21172, 1162, 0, 0, 0, 0, 0
5, 62382116, 2, 2978, 0, 0, 0, 372, 372, 372, 372, -2249, -1575, 1277, -5, -207, 76, -32, -207, -7, -14840, 12060, 22556, 1162, 0, 0, 0, 0, 0
6, 62386066, 2, 2978, 0, 0, 0, 372, 372, 372, 372, -2123, -1158, 1277, 93, -579, 59, 66, -579, -6, 12556, 13400, 14584, 1162, 0, 0, 0, 0, 0
7, 62389894, 2, 2978, 0, 0, 0, 372, 372, 372, 372, -2054, -1615, 1277, 17, 532, 94, -10, 532, -2, -16480, 6572, 26980, 1162, 0, 0, 0, 0, 0
8, 62393794, 2, 2978, 0, 0, 0, 372, 372, 372, 372, -2150, -1340, 1277, 114, 290, -28, 87, 290, 4, 6812, -14984, 25324, 1162, 0, 0, 0, 0, 0
9, 62397684, 2, 2978, 0, 0, 0, 372, 372, 372, 372, -2297, -2052, 1277, 29, 375, -77, 2, 375, 7, -24628, -21164, 30824, 1162, 0, 0, 0, 0, 0
10, 62401601, 2, 2978, 0, 0, 0, 372, 372, 372, 372, -2358, -1762, 1277, 88, 12, 101, 61, 12, 8, 7228, -10648, 18192, 1162, 0, 0, 0, 0, 0
11, 62405471, 2, 2978, 0, 0, 0, 372, 372, 372, 372, -2194, -1775, 1277, -9, -802, -75, -36, -802, 9, -1120, 18612, 9172, 1162, 0, 0, 0, 0, 0
12, 62409352, 2, 2978, 0, 0, 0, 372, 372, 372, 372, -2221, -1517, 1277, 124, -325, 44, 97, -325, 9, 6928, -6408, 3780, 1162, 0, 0, 0, 0, 0
13, 62413251, 2, 2978, 0, 0, 0, 372, 372, 372, 372, -2218, -1542, 1277, 17, -1122, -61, -10, -1122, 8, -808, -2028, 4924, 1162, 0, 0, 0, 0, 0
14, 62417191, 2, 2978, 0, 0, 0, 372, 372, 372, 372, -2089, -1774, 1277, -24, 201, 81, -51, 201, 7, -9228, 14424, 13056, 1162, 0, 0, 0, 0, 0
15, 62421030, 2, 2978, 0, 0, 0, 372, 372, 372, 372, -2144, -1374, 1277, 20, 9, 23, -7, 9, 7, 11000, -9304, 23596, 1162, 0, 0, 0, 0, 0
16, 62424907, 2, 2978, 0, 0, 0, 372, 372, 372, 372, -2100, -2002, 1277, -70, 726, 1, -97, 726, 9, -22444, 3876, 32767, 1162, 0, 0, 0, 0, 0
17, 62428798, 2, 2978, 0, 0, 0, 372, 372, 372, 372, -2169, -1861, 1277, 5, 445, -49, -22, 445, 9, 1900, -11076, 32767, 1162, 0, 0, 0, 0, 0
18, 62432689, 2, 2978, 0, 0, 0, 372, 372, 372, 372, -2344, -2523, 1277, 19, 218, -63, -8, 218, 7, -23324, -24644, 32767, 1162, 0, 0, 0, 0, 0
19, 62436589, 2, 2978, 0, 0, 0, 372, 372, 372, 372, -2349, -2176, 1277, -35, -149, 15, -62, -149, 3, 8800, -2840, 18656, 1162, 0, 0, 0, 0, 0
20, 62440479, 2, 2978, 0, 0, 0, 372, 372, 372, 372, -2167, -2268, 1277, -56, -715, -11, -83, -715, -1, -4160, 21256, 11508, 1162, 0, 0, 0, 0, 0
21, 62444373, 2, 2978, 0, 0, 0, 372, 372, 372, 372, -2205, -1782, 1277, 29, -110, 36, 2, -110, -3, 13440, -7344, -1336, 1162, 0, 0, 0, 0, 0
22, 62448304, 2, 2978, 0, 0, 0, 372, 372, 372, 372, -2268, -1834, 1277, -29, -718, -100, -56, -718, -5, -2476, -10172, 7936, 1162, 0, 0, 0, 0, 0
23, 62452158, 2, 2978, 0, 0, 0, 372, 372, 372, 372, -2294, -1935, 1277, -99, 60, 25, -126, 60, -8, -5156, -5104, 9140, 1141, 0, 0, 0, 0, 0
24, 62456044, 2, 2978, 0, 0, 0, 372, 372, 372, 372, -2355, -1665, 1277, -34, -380, -29, -61, -380, -11, 7212, -9952, 18312, 1141, 0, 0, 0, 0, 0
25, 62459923, 2, 2978, 0, 0, 0, 372, 372, 372, 372, -2231, -2101, 1277, -99, 165, 40, -126, 165, -12, -15844, 14000, 21952, 1141, 0, 0, 0, 0, 0
26, 62463821, 2, 2978, 0, 0, 0, 372, 372, 372, 372, -2263, -1917, 1277, 23, -66, -44, -4, -66, -12, 3860, -6508, 23868, 1141, 0, 0, 0, 0, 0
27, 62467705, 2, 2978, 0, 0, 0, 372, 372, 372, 372, -2401, -2414, 1277, 19, 771, 41, -8, 771, -12, -18872, -19996, 32767, 1141, 0, 0, 0, 0, 0
28, 62471600, 2, 2978, 0, 0, 0, 372, 372, 372, 372, -2360, -2255, 1277, -46, 435, -43, -73, 435, -11, 2108, 3124, 31764, 1141, 0, 0, 0, 0, 0
29, 62475483, 2, 2978, 0, 0, 0, 372, 372, 372, 372, -2189, -2670, 1277, -4, -13, 8, -31, -13, -10, -15528, 19496, 29244, 1141, 0, 0, 0, 0, 0
30, 62479423, 2, 2978, 0, 0, 0, 372, 372, 372, 372, -2309, -2385, 1277, 59, -340, 1, 32, -340, -10, 6908, -17948, 16700, 1141, 0, 0, 0, 0, 0
31, 62483274, 2, 2978, 0, 0, 0, 372, 372, 372, 372, -2295, -2360, 1277, 56, -1024, -105, 29, -1024, -10, -212, -928, -6456, 1141, 0, 0, 0, 0, 0
32, 62487167, 2, 2978, 0, 0, 0, 372, 372, 372, 372, -2327, -1963, 1277, 38, -729, 48, 11, -729, -12, 11336, -6608, -7036, 1141, 0, 0, 0, 0, 0
33, 62491049, 2, 2978, 0, 0, 0, 372, 372, 372, 372, -2354, -1535, 1277, 140, -694, -2, 113, -694, -13, 12656, -6596, -3572, 1141, 0, 0, 0, 0, 0
34, 62494937, 2, 2978, 0, 0, 0, 372, 372, 372, 372, -2130, -1583, 1277, -7, 81, 105, -34, 81, -11, -3164, 26324, 5316, 1141, 0, 0, 0, 0, 0
35, 62498829, 2, 2978, 0, 0, 0, 372, 372, 372, 372, -2105, -1467, 1277, 212, 266, -28, 185, 266, -6, 1784, -108, 17424, 1141, 0, 0, 0, 0, 0
36, 62502713, 2, 2978, 0, 0, 0, 372, 372, 372, 372, -2236, -1715, 1277, 87, 1062, 111, 60, 1062, -1, -10820, -19388, 32767, 1141, 0, 0, 0, 0, 0
37, 62506645, 2, 2978, 0, 0, 0, 372, 372, 372, 372, -2183, -1964, 1277, 72, 358, -122, 45, 358, 4, -10172, 4188, 32767, 1141, 0, 0, 0, 0, 0
38, 62510541, 2, 2978, 0, 0, 0, 372, 372, 372, 372, -2025, -2365, 1277, 57, -220, 11, 30, -220, 5, -14484, 17716, 30716, 1141, 0, 0, 0, 0, 0
39, 62514392, 2, 2978, 0, 0, 0, 372, 372, 372, 372, -2125, -2509, 1277, 193, -570, -29, 166, -570, 4, -6212, -15940, 2960, 1141, 0, 0, 0, 0, 0
40, 62518277, 2, 2978, 0, 0, 0, 372, 372, 372, 372, -2045, -2396, 1277, 159, -1291, -79, 132, -1291, 2, 2832, 7192, -15104, 1141, 0, 0, 0, 0, 0
41, 62522174, 2, 2978, 0, 0, 0, 372, 372, 372, 372, -2084, -1760, 1277, 180, -539, 72, 153, -539, -1, 18684, -8008, -8352, 1141, 0, 0, 0, 0, 0
42, 62526062, 2, 2978, 0, 0, 0, 372, 372, 372, 372, -2051, -1299, 1277, 204, 91, 4, 177, 91, -3, 12888, 968, 1032, 1141, 0, 0, 0, 0, 0
43, 62529941, 2, 2978, 0, 0, 0, 372, 372, 372, 372, -2306, -1463, 1277, 28, 435, 35, 1, 435, -2, -7120, 30600, 13668, 1141, 0, 0, 0, 0, 0
44, 62533831, 2, 2978, 0, 0, 0, 372, 372, 372, 372, -2304, -1484, 1277, 222, 770, -42, 195, 770, -1, -3180, -3384, 27172, 1141, 0, 0, 0, 0, 0
45, 62537722, 2, 2978, 0, 0, 0, 372, 372, 372, 372, -2462, -1859, 1277, 109, 860, 12, 82, 860, -1, -14640, -23100, 32767, 1141, 0, 0, 0, 0, 0
46, 62541662, 2, 2978, 0, 0, 0, 372, 372, 372, 372, -2449, -2020, 1277, 60, -113, -149, 33, -113, -3, -6872, -1212, 32767, 1141, 0, 0, 0, 0, 0
47, 62545504, 2, 2978, 0, 0, 0, 372, 372, 372, 372, -2438, -2248, 1277, 69, -536, -60, 42, -536, -9, -8596, -1436, 2312, 1141, 0, 0, 0, 0, 0
48, 62549410, 2, 2978, 0, 0, 0, 372, 372, 372, 372, -2534, -2152, 1277, 111, -894, -59, 84, -894, -16, 2028, -15384, -8368, 1141, 0, 0, 0, 0, 0
49, 62553317, 2, 2978, 0, 0, 0, 372, 372, 372, 372, -2413, -2046, 1277, 139, -1101, -129, 112, -1101, -25, 2704, 12216, -16576, 1134, 0, 0, 0, 0, 0
50, 62557181, 2, 2978, 0, 0, 0, 372, 372, 372, 372, -2513, -1256, 1277, 121, 68, 52, 94, 68, -33, 23160, -15992, -1792, 1134, 0, 0, 0, 0, 0
51, 62561071, 2, 2978, 0, 0, 0, 372, 372, 372, 372, -2488, -967, 1277, 70, 344, -183, 43, 344, -40, 7540, 248, 6932, 1134, 0, 0, 0, 0, 0
52, 62564952, 2, 2978, 0, 0, 0, 372, 372, 372, 372, -2242, -953, 1277, -35, 861, -53, -62, 861, -47, -1672, 29148, 16036, 1134, 0, 0, 0, 0, 0
53, 62568869, 2, 2978, 0, 0, 0, 372, 372, 372, 372, -2285, -1184, 1277, 136, 676, -205, 109, 676, -57, -9244, -8528, 30036, 1134, 0, 0, 0, 0, 0
54, 62572779, 2, 2978, 0, 0, 0, 372, 372, 372, 372, -2429, -1475, 1277, 81, 897, -38, 54, 897, -67, -11680, -21264, 32767, 1134, 0, 0, 0, 0, 0
55, 62576627, 2, 2978, 0, 0, 0, 372, 372, 372, 372, -2386, -1161, 1277, 0, -169, -213, -27, -169, -77, 8804, 3084, 24580, 1134, 0, 0, 0, 0, 0
56, 62580508, 2, 2978, 0, 0, 0, 372, 372, 372, 372, -2391, -1565, 1277, 19, -186, -104, -8, -186, -87, -13820, -3096, 12260, 1134, 0, 0, 0, 0, 0
57, 62584400, 2, 2978, 0, 0, 0, 372, 372, 372, 372, -2478, -1469, 1277, -3, -688, -148, -30, -688, -97, 2424, -13548, 1448, 1134, 0, 0, 0, 0, 0
58, 62588287, 2, 2978, 0, 0, 0, 372, 372, 372, 372, -2429, -1733, 1277, 39, -909, -208, 12, -909, -107, -8680, 3516, -1892, 1134, 0, 0, 0, 0, 0
59, 62592187, 2, 2978, 0, 0, 0, 372, 372, 372, 372, -2638, -1011, 1277, 49, -354, -82, 22, -354, -117, 21860, -29404, 900, 1134, 0, 0, 0, 0, 0
60, 62596069, 2, 2978, 0, 0, 0, 372, 372, 372, 372, -2661, -691, 1277, 21, -414, -280, -6, -414, -127, 9788, -5692, -5212, 1134, 0, 0, 0, 0, 0
61, 62599961, 2, 2978, 0, 0, 0, 372, 372, 372, 372, -2452, -442, 1277, -76, 737, -57, -103, 737, -136, 6316, 24528, -1944, 1141, 0, 0, 0, 0, 0
62, 62603902, 2, 2978, 0, 0, 0, 372, 372, 372, 372, -2487, -502, 1277, 110, 581, -313, 83, 581, -144, -3136, -7616, 10324, 1141, 0, 0, 0, 0, 0
63, 62607744, 2, 2978, 0, 0, 0, 372, 372, 372, 372, -2460, -1025, 1277, 54, 1120, -74, 27, 1120, -153, -18752, 648, 32767, 1141, 0, 0, 0, 0, 0
64, 62611673, 2, 2978, 0, 0, 0, 372, 372, 372, 372, -2406, -706, 1277, -17, 273, -209, -44, 273, -159, 8824, 4492, 32767, 1141, 0, 0, 0, 0, 0
65, 62615526, 2, 2978, 0, 0, 0, 372, 372, 372, 372, -2416, -1380, 1277, -13, 299, -220, -40, 299, -165, -22660, -3736, 24444, 1141, 0, 0, 0, 0, 0
66, 62619407, 2, 2978, 0, 0, 0, 372, 372, 372, 372, -2474, -1282, 1277, -26, -617, -186, -53, -617, -171, 2576, -9724, 7884, 1141, 0, 0, 0, 0, 0
67, 62623299, 2, 2978, 0, 0, 0, 372, 372, 372, 372, -2461, -1586, 1277, 105, -803, -190, 78, -803, -177, -9924, -1420, 5120, 1141, 0, 0, 0, 0, 0
68, 62627190, 2, 2978, 0, 0, 0, 372, 372, 372, 372, -2676, -1077, 1277, 56, -480, -178, 29, -480, -181, 15344, -30396, 4892, 1141, 0, 0, 0, 0, 0
69, 62631080, 2, 2978, 0, 0, 0, 372, 372, 372, 372, -2715, -780, 1277, 123, -693, -240, 96, -693, -185, 9348, -8476, -6016, 1141, 0, 0, 0, 0, 0
70, 62635015, 2, 2978, 0, 0, 0, 372, 372, 372, 372, -2519, -394, 1277, -13, 1031, -36, -40, 1031, -188, 10192, 22356, -6544, 1141, 0, 0, 0, 0, 0
71, 62638858, 2, 2978, 0, 0, 0, 372, 372, 372, 372, -2634, -785, 1277, 156, 707, -355, 129, 707, -188, -13860, -18108, 32767, 1141, 0, 0, 0, 0, 0
72, 62642748, 2, 2978, 0, 0, 0, 372, 372, 372, 372, -2575, -1266, 1277, 101, 1094, -71, 74, 1094, -189, -17636, 4280, 32767, 1141, 0, 0, 0, 0, 0
73, 62646648, 2, 2978, 0, 0, 0, 372, 372, 372, 372, -2561, -939, 1277, 75, 616, -216, 48, 616, -190, 8372, -1240, 32767, 1141, 0, 0, 0, 0, 0
74, 62650571, 2, 2978, 0, 0, 0, 372, 372, 372, 372, -2553, -1763, 1277, 22, 93, -286, -5, 93, -190, -27452, -1652, 27028, 1190, 0, 0, 0, 0, 0
75, 62654418, 2, 2978, 0, 0, 0, 372, 372, 372, 372, -2576, -1527, 1277, 44, -834, -126, 17, -834, -193, 6912, -5788, 4228, 1190, 0, 0, 0, 0, 0
76, 62658308, 2, 2978, 0, 0, 0, 372, 372, 372, 372, -2540, -1633, 1277, 196, -630, -117, 169, -630, -193, -4052, 872, 8180, 1190, 0, 0, 0, 0, 0
77, 62662199, 2, 2978, 0, 0, 0, 372, 372, 372, 372, -2706, -1577, 1277, 81, -556, -217, 54, -556, -191, 928, -24328, 15860, 1190, 0, 0, 0, 0, 0
78, 62666129, 2, 2978, 0, 0, 0, 372, 372, 372, 372, -2720, -1057, 1277, 184, -724, -130, 157, -724, -188, 16044, -5516, -6788, 1190, 0, 0, 0, 0, 0
79, 62669979, 2, 2978, 0, 0, 0, 372, 372, 372, 372, -2474, -1657, 1277, 8, 1393, -122, -19, 1393, -184, -22132, 28676, 24484, 1190, 0, 0, 0, 0, 0
80, 62673896, 2, 2978, 0, 0, 0, 372, 372, 372, 372, -2597, -2098, 1277, 155, 502, -374, 128, 502, -182, -16432, -19064, 32767, 1190, 0, 0, 0, 0, 0
81, 62677751, 2, 2978, 0, 0, 0, 372, 372, 372, 372, -2568, -2398, 1277, 92, 891, -9, 65, 891, -182, -12888, 572, 32767, 1190, 0, 0, 0, 0, 0
82, 62681650, 2, 2978, 0, 0, 0, 372, 372, 372, 372, -2627, -2123, 1277, 121, 886, -221, 94, 886, -180, 5196, -10840, 32767, 1190, 0, 0, 0, 0, 0
83, 62685532, 2, 2978, 0, 0, 0, 372, 372, 372, 372, -2593, -3063, 1277, -18, -745, -301, -45, -745, -180, -31192, 1700, 26740, 1190, 0, 0, 0, 0, 0
84, 62689423, 2, 2978, 0, 0, 0, 372, 372, 372, 372, -2581, -2473, 1277, 75, -1069, 1, 48, -1069, -181, 17260, -1592, -8696, 1190, 0, 0, 0, 0, 0
85, 62693315, 2, 2978, 0, 0, 0, 372, 372, 372, 372, -2502, -2496, 1277, 119, 28, -110, 92, 28, -178, -3248, 6956, 13076, 1190, 0, 0, 0, 0, 0
86, 62697257, 2, 3021, 0, 0, 0, 372, 372, 372, 372, -2624, -2588, 1277, 102, -427, -264, 75, -427, -172, -4868, -18736, 27220, 1190, 0, 0, 0, 0, 0
87, 62701102, 2, 3021, 0, 0, 0, 377, 377, 377, 377, -2529, -1692, 1277, 122, -707, -40, 95, -707, -169, 27048, 8744, 1660, 1155, 0, 0, 0, 0, 0
88, 62704983, 2, 3021, 0, 0, 0, 377, 377, 377, 377, -2419, -2201, 1277, -17, 1143, -161, -44, 1143, -164, -19520, 11580, 19556, 1155, 0, 0, 0, 0, 0
89, 62708874, 2, 3021, 0, 0, 0, 377, 377, 377, 377, -2480, -2703, 1277, 147, 78, -373, 120, 78, -161, -18356, -11080, 21840, 1155, 0, 0, 0, 0, 0
90, 62712765, 2, 3021, 0, 0, 0, 377, 377, 377, 377, -2514, -2438, 1277, 172, 241, 131, 145, 241, -161, 5452, -7808, 17168, 1155, 0, 0, 0, 0, 0
91, 62716696, 2, 3021, 0, 0, 0, 377, 377, 377, 377, -2528, -2237, 1277, 147, 897, -233, 120, 897, -157, 2808, -5244, 32767, 1155, 0, 0, 0, 0, 0
92, 62720541, 2, 2978, 0, 0, 0, 377, 377, 377, 377, -2458, -2963, 1277, 59, -128, -184, 32, -128, -153, -25284, 6080, 25960, 1155, 0, 0, 0, 0, 0
93, 62724433, 2, 2978, 0, 0, 0, 372, 372, 372, 372, -2366, -2533, 1277, 147, -575, 2, 120, -575, -150, 11568, 8404, 4464, 1155, 0, 0, 0, 0, 0
94, 62728371, 2, 2978, 0, 0, 0, 372, 372, 372, 372, -2298, -2825, 1277, 107, 156, -110, 80, 156, -144, -12064, 5716, 25760, 1155, 0, 0, 0, 0, 0
95, 62732213, 2, 2978, 0, 0, 0, 372, 372, 372, 372, -2432, -2469, 1277, 191, -613, -173, 164, -613, -137, 9392, -20612, 4256, 1155, 0, 0, 0, 0, 0
96, 62736104, 2, 2978, 0, 0, 0, 372, 372, 372, 372, -2408, -1783, 1277, 169, -108, 58, 142, -108, -131, 19616, -412, 7388, 1155, 0, 0, 0, 0, 0
97, 62740000, 2, 3021, 0, 0, 0, 372, 372, 372, 372, -2337, -2282, 1277, 78, 811, -244, 51, 811, -123, -18836, 6184, 16608, 1155, 0, 0, 0, 0, 0
98, 62743881, 2, 3021, 0, 0, 0, 377, 377, 377, 377, -2366, -2878, 1277, 181, 105, -193, 154, 105, -120, -21492, -7024, 21164, 1155, 0, 0, 0, 0, 0
99, 62747772, 2, 3021, 0, 0, 0, 377, 377, 377, 377, -2438, -2658, 1277, 300, 102, 149, 273, 102, -117, 4024, -13216, 17600, 1155, 0, 0, 0, 0, 0
100, 62751697, 2, 3021, 0, 0, 0, 377, 377, 377, 377, -2421, -2435, 1277, 174, 417, -229, 147, 417, -111, 3920, -1276, 20300, 1169, 0, 0, 0, 0, 0
101, 62755561, 2, 3021, 0, 0, 0, 377, 377, 377, 377, -2322, -2402, 1277, 165, -428, -59, 138, -428, -106, -788, 9352, 3092, 1169, 0, 0, 0, 0, 0
102, 62759536, 2, 2978, 0, 0, 0, 377, 377, 377, 377, -2201, -1884, 1277, 164, 44, -31, 137, 44, -101, 14124, 12320, -7408, 1169, 0, 0, 0, 0, 0
103, 62763334, 2, 2978, 0, 0, 0, 372, 372, 372, 372, -2190, -2308, 1277, 231, 522, -72, 204, 522, -96, -16132, -2100, 21320, 1169, 0, 0, 0, 0, 0
104, 62767225, 2, 2978, 0, 0, 0, 372, 372, 372, 372, -2333, -2077, 1277, 211, -40, -21, 184, -40, -89, 5132, -21652, 23272, 1169, 0, 0, 0, 0, 0
105, 62771114, 2, 2978, 0, 0, 0, 372, 372, 372, 372, -2391, -1789, 1277, 235, 194, 9, 208, 194, -81, 6892, -11060, 21908, 1169, 0, 0, 0, 0, 0
106, 62775005, 2, 2978, 0, 0, 0, 372, 372, 372, 372, -2350, -2232, 1277, 50, 496, -139, 23, 496, -74, -16620, 2548, 19728, 1169, 0, 0, 0, 0, 0
107, 62778902, 2, 2978, 0, 0, 0, 372, 372, 372, 372, -2411, -2863, 1277, 216, -266, -145, 189, -266, -70, -22072, -11368, 14320, 1169, 0, 0, 0, 0, 0
108, 62782780, 2, 2978, 0, 0, 0, 372, 372, 372, 372, -2520, -2537, 1277, 215, 26, 153, 188, 26, -67, 7540, -17624, 8284, 1169, 0, 0, 0, 0, 0
109, 62786677, 2, 2978, 0, 0, 0, 372, 372, 372, 372, -2456, -2104, 1277, 203, 80, -205, 176, 80, -62, 11200, 4588, 9380, 1169, 0, 0, 0, 0, 0
110, 62790609, 2, 2978, 0, 0, 0, 372, 372, 372, 372, -2307, -1845, 1277, 96, -26, 96, 69, -26, -58, 6240, 16136, -3024, 1169, 0, 0, 0, 0, 0
111, 62794451, 2, 2978, 0, 0, 0, 372, 372, 372, 372, -2255, -1726, 1277, 161, 342, -85, 134, 342, -53, 1508, 3412, 16052, 1169, 0, 0, 0, 0, 0
112, 62798338, 2, 2978, 0, 0, 0, 372, 372, 372, 372, -2171, -2450, 1277, 92, 924, 22, 65, 924, -47, -26100, 7936, 32767, 1169, 0, 0, 0, 0, 0
113, 62802237, 2, 2978, 0, 0, 0, 372, 372, 372, 372, -2316, -2182, 1277, 175, -432, -43, 148, -432, -42, 6716, -21704, 32244, 1155, 0, 0, 0, 0, 0
114, 62806127, 2, 2978, 0, 0, 0, 372, 372, 372, 372, -2322, -2164, 1277, 93, -286, 47, 66, -286, -36, -1224, -3540, 22320, 1155, 0, 0, 0, 0, 0
115, 62810017, 2, 2978, 0, 0, 0, 372, 372, 372, 372, -2290, -2133, 1277, -20, -472, -85, -47, -472, -31, -532, 1864, 10696, 1155, 0, 0, 0, 0, 0
116, 62813908, 2, 2978, 0, 0, 0, 372, 372, 372, 372, -2286, -2398, 1277, 96, -721, -41, 69, -721, -28, -9644, -2304, -3084, 1155, 0, 0, 0, 0, 0
117, 62817798, 2, 2978, 0, 0, 0, 372, 372, 372, 372, -2469, -1688, 1277, 18, 110, 98, -9, 110, -25, 20180, -25856, -3580, 1155, 0, 0, 0, 0, 0
118, 62821737, 2, 2978, 0, 0, 0, 372, 372, 372, 372, -2434, -1536, 1277, 84, 265, -132, 57, 265, -21, 2832, 1468, 12184, 1155, 0, 0, 0, 0, 0
119, 62825582, 2, 3021, 0, 0, 0, 372, 372, 372, 372, -2346, -1637, 1277, -116, 287, 72, -143, 287, -19, -5164, 9472, 21996, 1155, 0, 0, 0, 0, 0
120, 62829461, 2, 3021, 0, 0, 0, 377, 377, 377, 377, -2311, -1591, 1277, 34, 56, -165, 7, 56, -18, -228, 1936, 21528, 1155, 0, 0, 0, 0, 0
121, 62833348, 2, 3021, 0, 0, 0, 377, 377, 377, 377, -2163, -2203, 1277, -130, 696, 33, -157, 696, -20, -22112, 17308, 32767, 1155, 0, 0, 0, 0, 0
122, 62837249, 2, 3021, 0, 0, 0, 377, 377, 377, 377, -2264, -1946, 1277, 79, -298, -89, 52, -298, -22, 6424, -15552, 32767, 1155, 0, 0, 0, 0, 0
123, 62841130, 2, 3021, 0, 0, 0, 377, 377, 377, 377, -2176, -2117, 1277, -139, 168, 28, -166, 168, -24, -7640, 9772, 30380, 1155, 0, 0, 0, 0, 0
124, 62845022, 2, 2978, 0, 0, 0, 377, 377, 377, 377, -2142, -2242, 1277, -102, -217, -139, -129, -217, -27, -5832, 2716, 24868, 1155, 0, 0, 0, 0, 0
125, 62848910, 2, 2978, 0, 0, 0, 372, 372, 372, 372, -2094, -2736, 1277, -82, -502, 79, -109, -502, -29, -17392, 4400, 14520, 1155, 0, 0, 0, 0, 0
126, 62852868, 2, 2978, 0, 0, 0, 372, 372, 372, 372, -2336, -2398, 1277, -73, -599, 16, -100, -599, -29, 8872, -32692, 16444, 1134, 0, 0, 0, 0, 0
127, 62856697, 2, 2978, 0, 0, 0, 372, 372, 372, 372, -2353, -2393, 1277, -14, -432, -83, -41, -432, -27, -1664, -4508, 9824, 1134, 0, 0, 0, 0, 0
128, 62860581, 2, 2978, 0, 0, 0, 372, 372, 372, 372, -2319, -2168, 1277, -168, -546, 16, -195, -546, -26, 5528, 2936, -1196, 1134, 0, 0, 0, 0, 0
129, 62864504, 2, 2978, 0, 0, 0, 372, 372, 372, 372, -2273, -2059, 1277, -5, -465, -167, -32, -465, -27, 1948, 3608, -1088, 1134, 0, 0, 0, 0, 0
130, 62868364, 2, 2978, 0, 0, 0, 372, 372, 372, 372, -2177, -2131, 1277, -85, -22, 44, -112, -22, -30, -4360, 10388, 10048, 1134, 0, 0, 0, 0, 0
131, 62872254, 2, 2978, 0, 0, 0, 372, 372, 372, 372, -2246, -1940, 1277, 133, -174, -11, 106, -174, -31, 4224, -11780, 18820, 1134, 0, 0, 0, 0, 0
132, 62876143, 2, 2978, 0, 0, 0, 372, 372, 372, 372, -2166, -2004, 1277, -111, 414, 63, -138, 414, -30, -4532, 8532, 19800, 1134, 0, 0, 0, 0, 0
133, 62880034, 2, 2978, 0, 0, 0, 372, 372, 372, 372, -2100, -2287, 1277, 19, 251, -110, -8, 251, -27, -11384, 6148, 19392, 1134, 0, 0, 0, 0, 0
134, 62883964, 2, 2978, 0, 0, 0, 372, 372, 372, 372, -2020, -2766, 1277, -13, -225, 92, -40, -225, -25, -17316, 8184, 18280, 1134, 0, 0, 0, 0, 0
135, 62887806, 2, 2978, 0, 0, 0, 372, 372, 372, 372, -2187, -2660, 1277, 33, -550, -45, 6, -550, -21, 1364, -23664, 5152, 1134, 0, 0, 0, 0, 0
136, 62891703, 2, 2978, 0, 0, 0, 372, 372, 372, 372, -2172, -2448, 1277, 98, -530, 85, 71, -530, -17, 4824, -896, 7940, 1134, 0, 0, 0, 0, 0
137, 62895602, 2, 2978, 0, 0, 0, 372, 372, 372, 372, -2142, -2272, 1277, -5, -502, -1, -32, -502, -11, 3852, 1616, -3736, 1134, 0, 0, 0, 0, 0
138, 62899482, 2, 2978, 0, 0, 0, 372, 372, 372, 372, -2096, -2049, 1277, 110, -317, -25, 83, -317, -6, 5288, 3064, 2872, 1134, 0, 0, 0, 0, 0
139, 62903384, 2, 2978, 0, 0, 0, 372, 372, 372, 372, -2077, -2096, 1277, 54, 95, 95, 27, 95, -1, -3696, -76, 10612, 1162, 0, 0, 0, 0, 0
140, 62907270, 2, 2978, 0, 0, 0, 372, 372, 372, 372, -2150, -1879, 1277, 145, 229, 67, 118, 229, 5, 4568, -12348, 17720, 1162, 0, 0, 0, 0, 0
141, 62911151, 2, 2978, 0, 0, 0, 372, 372, 372, 372, -2084, -2256, 1277, -15, 483, -50, -42, 483, 11, -14568, 6336, 16376, 1162, 0, 0, 0, 0, 0
142, 62915087, 2, 2978, 0, 0, 0, 372, 372, 372, 372, -2039, -2056, 1277, 55, 462, 35, 28, 462, 15, 3544, 3300, 7064, 1162, 0, 0, 0, 0, 0
143, 62918930, 2, 2978, 0, 0, 0, 372, 372, 372, 372, -1976, -2499, 1277, 0, 221, -59, -27, 221, 17, -16524, 6004, 16980, 1162, 0, 0, 0, 0, 0
144, 62922821, 2, 2978, 0, 0, 0, 372, 372, 372, 372, -2121, -2695, 1277, 65, -121, -24, 38, -121, 15, -8596, -20928, 12108, 1162, 0, 0, 0, 0, 0
145, 62926742, 2, 2978, 0, 0, 0, 372, 372, 372, 372, -2134, -2347, 1277, 128, -832, 142, 101, -832, 14, 9552, -4500, 5668, 1162, 0, 0, 0, 0, 0
146, 62930604, 2, 3021, 0, 0, 0, 372, 372, 372, 372, -2058, -2156, 1277, -6, -74, 60, -33, -74, 17, 3880, 7612, -2720, 1162, 0, 0, 0, 0, 0
147, 62934490, 2, 3021, 0, 0, 0, 377, 377, 377, 377, -2011, -1841, 1277, 81, -256, -44, 54, -256, 20, 8284, 3424, 3280, 1162, 0, 0, 0, 0, 0
148, 62938389, 2, 3021, 0, 0, 0, 377, 377, 377, 377, -2024, -1750, 1277, 7, 682, 114, -20, 682, 23, 168, -3744, 6540, 1162, 0, 0, 0, 0, 0
149, 62942269, 2, 3021, 0, 0, 0, 377, 377, 377, 377, -2069, -1412, 1277, 58, 742, -27, 31, 742, 26, 8048, -8144, 18464, 1162, 0, 0, 0, 0, 0
150, 62946209, 2, 3021, 0, 0, 0, 377, 377, 377, 377, -1981, -2251, 1277, -98, 820, -128, -125, 820, 25, -29344, 9668, 25276, 1162, 0, 0, 0, 0, 0
151, 62950091, 2, 2978, 0, 0, 0, 377, 377, 377, 377, -1971, -2121, 1277, -1, 297, 87, -28, 297, 21, 1536, -680, 24300, 1176, 0, 0, 0, 0, 0
152, 62953939, 2, 2978, 0, 0, 0, 372, 372, 372, 372, -1912, -2641, 1277, -51, 326, -30, -78, 326, 17, -19192, 5772, 20688, 1176, 0, 0, 0, 0, 0
153, 62957828, 2, 2978, 0, 0, 0, 372, 372, 372, 372, -2063, -2522, 1277, 2, -233, 7, -25, -233, 14, 1488, -21236, 10496, 1176, 0, 0, 0, 0, 0
154, 62961727, 2, 2978, 0, 0, 0, 372, 372, 372, 372, -2063, -2397, 1277, 78, -579, 107, 51, -579, 12, 2284, -2576, 11072, 1176, 0, 0, 0, 0, 0
155, 62965609, 2, 2978, 0, 0, 0, 372, 372, 372, 372, -1962, -2009, 1277, -98, 46, 67, -125, 46, 14, 9972, 11392, 2864, 1176, 0, 0, 0, 0, 0
156, 62969541, 2, 2978, 0, 0, 0, 372, 372, 372, 372, -1905, -1795, 1277, 39, -208, -156, 12, -208, 16, 5116, 5064, 6692, 1176, 0, 0, 0, 0, 0
157, 62973393, 2, 2978, 0, 0, 0, 372, 372, 372, 372, -1969, -1351, 1277, -57, 859, 156, -84, 859, 15, 11264, -9896, 5140, 1176, 0, 0, 0, 0, 0
158, 62977324, 2, 2978, 0, 0, 0, 372, 372, 372, 372, -2025, -1283, 1277, 16, 692, -106, -11, 692, 14, -84, -9228, 21284, 1176, 0, 0, 0, 0, 0
159, 62981161, 2, 2978, 0, 0, 0, 372, 372, 372, 372, -1996, -1937, 1277, -118, 800, -32, -145, 800, 12, -23292, 2280, 32036, 1176, 0, 0, 0, 0, 0
160, 62985059, 2, 2978, 0, 0, 0, 372, 372, 372, 372, -1999, -1696, 1277, -17, -183, 30, -44, -183, 7, 5996, -2372, 15864, 1176, 0, 0, 0, 0, 0
161, 62988950, 2, 2978, 0, 0, 0, 372, 372, 372, 372, -1870, -2009, 1277, -91, -24, 32, -118, -24, 5, -11652, 15024, 11368, 1176, 0, 0, 0, 0, 0
162, 62992840, 2, 2978, 0, 0, 0, 372, 372, 372, 372, -1979, -1569, 1277, -4, -616, -63, -31, -616, 3, 12900, -15808, 2092, 1176, 0, 0, 0, 0, 0
163, 62996729, 2, 2978, 0, 0, 0, 372, 372, 372, 372, -1945, -1451, 1277, -24, -220, 77, -51, -220, 2, 2504, 2476, 7292, 1176, 0, 0, 0, 0, 0
164, 63000613, 2, 2978, 0, 0, 0, 372, 372, 372, 372, -1873, -1145, 1277, -113, 310, -30, -140, 310, 1, 7920, 7868, 15956, 1162, 0, 0, 0, 0, 0
165, 63004512, 2, 2978, 0, 0, 0, 372, 372, 372, 372, -1791, -1107, 1277, 13, 192, -97, -14, 192, 0, -204, 8436, 15320, 1162, 0, 0, 0, 0, 0
166, 63008443, 2, 2978, 0, 0, 0, 372, 372, 372, 372, -1922, -713, 1277, -91, 394, 95, -118, 394, -3, 10960, -18008, 7748, 1162, 0, 0, 0, 0, 0
167, 63012305, 2, 2978, 0, 0, 0, 372, 372, 372, 372, -2018, -975, 1277, 22, 391, -90, -5, 391, -5, -9608, -14280, 29976, 1162, 0, 0, 0, 0, 0
168, 63016175, 2, 2978, 0, 0, 0, 372, 372, 372, 372, -2005, -1441, 1277, -157, 415, -54, -184, 415, -7, -16440, 384, 23604, 1162, 0, 0, 0, 0, 0
169, 63020065, 2, 2978, 0, 0, 0, 372, 372, 372, 372, -1999, -1268, 1277, -14, -239, -53, -41, -239, -12, 4412, -1176, 12104, 1162, 0, 0, 0, 0, 0
170, 63023955, 2, 2978, 0, 0, 0, 372, 372, 372, 372, -1854, -1422, 1277, -112, -149, 8, -139, -149, -17, -5996, 17196, 10780, 1162, 0, 0, 0, 0, 0
171, 63027846, 2, 2978, 0, 0, 0, 372, 372, 372, 372, -1956, -957, 1277, -1, -934, -105, -28, -934, -21, 14708, -14972, 1048, 1162, 0, 0, 0, 0, 0
172, 63031746, 2, 2978, 0, 0, 0, 372, 372, 372, 372, -1906, -891, 1277, -61, -76, 116, -88, -76, -24, 1252, 4660, 7648, 1162, 0, 0, 0, 0, 0
173, 63035632, 2, 2978, 0, 0, 0, 372, 372, 372, 372, -1815, -691, 1277, -125, 334, -76, -152, 334, -25, 5072, 10420, 20432, 1162, 0, 0, 0, 0, 0
174, 63039562, 2, 2978, 0, 0, 0, 372, 372, 372, 372, -1703, -801, 1277, -35, 477, -72, -62, 477, -25, -4848, 12692, 18072, 1162, 0, 0, 0, 0, 0
175, 63043405, 2, 2978, 0, 0, 0, 372, 372, 372, 372, -1798, -651, 1277, -121, 126, 24, -148, 126, -26, 3824, -13268, 29748, 1162, 0, 0, 0, 0, 0
176, 63047292, 2, 2978, 0, 0, 0, 372, 372, 372, 372, -1848, -996, 1277, 1, 124, -81, -26, 124, -28, -11848, -8252, 30668, 1162, 0, 0, 0, 0, 0
177, 63051221, 2, 2978, 0, 0, 0, 372, 372, 372, 372, -1889, -1025, 1277, -128, -250, 11, -155, -250, -28, -1580, -6524, 14648, 1176, 0, 0, 0, 0, 0
178, 63055074, 2, 2978, 0, 0, 0, 372, 372, 372, 372, -1892, -756, 1277, 20, -390, -8, -7, -390, -29, 8096, -2436, 7532, 1176, 0, 0, 0, 0, 0
179, 63058962, 2, 2978, 0, 0, 0, 372, 372, 372, 372, -1765, -755, 1277, -101, -164, 14, -128, -164, -27, -476, 14880, 12236, 1176, 0, 0, 0, 0, 0
180, 63062853, 2, 2978, 0, 0, 0, 372, 372, 372, 372, -1885, -677, 1277, 37, -747, -79, 10, -747, -25, 2760, -17316, 17568, 1176, 0, 0, 0, 0, 0
181, 63066735, 2, 2978, 0, 0, 0, 372, 372, 372, 372, -1853, -957, 1277, -63, -608, 101, -90, -608, -24, -8808, 2520, 19176, 1176, 0, 0, 0, 0, 0
182, 63070684, 2, 2978, 0, 0, 0, 372, 372, 372, 372, -1769, -1179, 1277, -66, -483, -60, -93, -483, -20, -7408, 9240, 24408, 1176, 0, 0, 0, 0, 0
183, 63074576, 2, 2978, 0, 0, 0, 372, 372, 372, 372, -1737, -1090, 1277, -10, -415, 12, -37, -415, -17, 2228, 2364, 9420, 1176, 0, 0, 0, 0, 0
184, 63078405, 2, 2978, 0, 0, 0, 372, 372, 372, 372, -1820, -643, 1277, 0, -252, 88, -27, -252, -13, 13548, -12356, 14332, 1176, 0, 0, 0, 0, 0
185, 63082295, 2, 2978, 0, 0, 0, 372, 372, 372, 372, -1832, -764, 1277, 48, 411, 34, 21, 411, -7, -5064, -3672, 25484, 1176, 0, 0, 0, 0, 0
186, 63086186, 2, 2978, 0, 0, 0, 372, 372, 372, 372, -1873, -926, 1277, -26, 322, 46, -53, 322, 0, -6352, -6964, 20908, 1176, 0, 0, 0, 0, 0
187, 63090075, 2, 2978, 0, 0, 0, 372, 372, 372, 372, -1858, -772, 1277, 116, 136, 80, 89, 136, 8, 3840, -648, 21496, 1176, 0, 0, 0, 0, 0
188, 63093957, 2, 2978, 0, 0, 0, 372, 372, 372, 372, -1784, -997, 1277, -11, 121, 10, -38, 121, 16, -8148, 7664, 28460, 1176, 0, 0, 0, 0, 0
189, 63097848, 2, 2978, 0, 0, 0, 372, 372, 372, 372, -1876, -1232, 1277, 100, -555, -82, 73, -555, 21, -7780, -14208, 32767, 1176, 0, 0, 0, 0, 0
190, 63101783, 2, 2978, 0, 0, 0, 372, 372, 372, 372, -1889, -1748, 1277, 45, -829, 71, 18, -829, 22, -16632, -3796, 25920, 1141, 0, 0, 0, 0, 0
191, 63105632, 2, 2978, 0, 0, 0, 372, 372, 372, 372, -1818, -1785, 1277, 7, -515, 5, -20, -515, 23, -2220, 7116, -1312, 1141, 0, 0, 0, 0, 0
192, 63109517, 2, 2978, 0, 0, 0, 372, 372, 372, 372, -1775, -1671, 1277, 122, -402, 82, 95, -402, 24, 2404, 2928, 4452, 1141, 0, 0, 0, 0, 0
193, 63113414, 2, 2978, 0, 0, 0, 372, 372, 372, 372, -1838, -1369, 1277, 80, 143, 140, 53, 143, 28, 7800, -10348, 14120, 1141, 0, 0, 0, 0, 0
194, 63117329, 2, 2978, 0, 0, 0, 372, 372, 372, 372, -1828, -1428, 1277, 120, 474, 44, 93, 474, 34, -3892, -1368, 17768, 1141, 0, 0, 0, 0, 0
195, 63121178, 2, 2978, 0, 0, 0, 372, 372, 372, 372, -1826, -1712, 1277, 15, 381, 20, -12, 381, 40, -11020, -1740, 12320, 1141, 0, 0, 0, 0, 0
196, 63125069, 2, 2978, 0, 0, 0, 372, 372, 372, 372, -1852, -1395, 1277, 161, 218, 89, 134, 218, 44, 8132, -6036, 17368, 1141, 0, 0, 0, 0, 0
197, 63128960, 2, 2978, 0, 0, 0, 372, 372, 372, 372, -1770, -1574, 1277, 47, 355, -2, 20, 355, 47, -7608, 8416, 28256, 1141, 0, 0, 0, 0, 0
198, 63132891, 2, 2978, 0, 0, 0, 372, 372, 372, 372, -1863, -1585, 1277, 146, -259, -21, 119, -259, 48, -1564, -14504, 32767, 1141, 0, 0, 0, 0, 0
199, 63136733, 2, 2978, 0, 0, 0, 372, 372, 372, 372, -1847, -1824, 1277, 95, -393, 53, 68, -393, 46, -8732, -344, 1108, 1141, 0, 0, 0, 0, 0
200, 63140631, 2, 2978, 0, 0, 0, 372, 372, 372, 372, -1771, -2093, 1277, -10, -311, 5, -37, -311, 43, -10020, 7856, 2200, 1141, 0, 0, 0, 0, 0
201, 63144516, 2, 2978, 0, 0, 0, 372, 372, 372, 372, -1718, -2069, 1277, 148, -395, 74, 121, -395, 41, -788, 4112, 3208, 1141, 0, 0, 0, 0, 0
202, 63148416, 2, 2978, 0, 0, 0, 372, 372, 372, 372, -1787, -1647, 1277, -5, 233, 132, -32, 233, 41, 11128, -10556, 8864, 1141, 0, 0, 0, 0, 0
203, 63152331, 2, 2978, 0, 0, 0, 372, 372, 372, 372, -1788, -1690, 1277, 93, 323, -70, 66, 323, 42, -3440, -2432, 6568, 1162, 0, 0, 0, 0, 0
204, 63156179, 2, 2978, 0, 0, 0, 372, 372, 372, 372, -1807, -1619, 1277, -73, 492, 66, -100, 492, 42, -84, -3840, 812, 1162, 0, 0, 0, 0, 0
205, 63160076, 2, 2978, 0, 0, 0, 372, 372, 372, 372, -1867, -1347, 1277, 107, 380, 15, 80, 380, 40, 6564, -10088, 14592, 1162, 0, 0, 0, 0, 0
206, 63164006, 2, 2978, 0, 0, 0, 372, 372, 372, 372, -1795, -1356, 1277, -65, 440, 37, -92, 440, 39, -2228, 7644, 24512, 1162, 0, 0, 0, 0, 0
207, 63167847, 2, 2978, 0, 0, 0, 372, 372, 372, 372, -1911, -868, 1277, 64, -287, -37, 37, -287, 36, 14664, -16984, 8832, 1162, 0, 0, 0, 0, 0
208, 63171748, 2, 2978, 0, 0, 0, 372, 372, 372, 372, -1859, -1329, 1277, -30, 295, 46, -57, 295, 33, -16000, 4928, 10032, 1162, 0, 0, 0, 0, 0
209, 63175631, 2, 2978, 0, 0, 0, 372, 372, 372, 372, -1783, -1704, 1277, -146, -259, -141, -173, -259, 27, -12980, 8676, 10356, 1162, 0, 0, 0, 0, 0
210, 63179554, 2, 2978, 0, 0, 0, 372, 372, 372, 372, -1702, -1921, 1277, -10, 97, 71, -37, 97, 20, -8800, 8588, 9088, 1162, 0, 0, 0, 0, 0
211, 63183414, 2, 2978, 0, 0, 0, 372, 372, 372, 372, -1788, -1406, 1277, -113, 96, 18, -140, 96, 14, 14436, -12120, 9512, 1162, 0, 0, 0, 0, 0
212, 63187295, 2, 2978, 0, 0, 0, 372, 372, 372, 372, -1783, -1550, 1277, -60, 310, -18, -87, 310, 10, -6432, -928, 1808, 1162, 0, 0, 0, 0, 0
213, 63191177, 2, 2978, 0, 0, 0, 372, 372, 372, 372, -1804, -1126, 1277, -205, 321, 57, -232, 321, 8, 11604, -3356, -1436, 1162, 0, 0, 0, 0, 0
214, 63195117, 2, 2978, 0, 0, 0, 372, 372, 372, 372, -1873, -1122, 1277, -31, 572, 8, -58, 572, 7, -1760, -10556, 18688, 1162, 0, 0, 0, 0, 0
215, 63198959, 2, 2978, 0, 0, 0, 372, 372, 372, 372, -1741, -904, 1277, -174, 57, 8, -201, 57, 7, 5792, 15956, 14088, 1162, 0, 0, 0, 0, 0
216, 63202847, 2, 2978, 0, 0, 0, 372, 372, 372, 372, -1847, -632, 1277, -39, -299, -89, -66, -299, 5, 8204, -15180, 9708, 1169, 0, 0, 0, 0, 0
217, 63206746, 2, 2978, 0, 0, 0, 372, 372, 372, 372, -1832, -746, 1277, -144, 169, 3, -171, 169, 2, -4504, 800, 7320, 1169, 0, 0, 0, 0, 0
218, 63210630, 2, 2978, 0, 0, 0, 372, 372, 372, 372, -1777, -1291, 1277, -223, 15, -225, -250, 15, -4, -18188, 6292, 13624, 1169, 0, 0, 0, 0, 0
219, 63214520, 2, 2978, 0, 0, 0, 372, 372, 372, 372, -1690, -1474, 1277, -70, 535, 117, -97, 535, -13, -7864, 9776, 16884, 1169, 0, 0, 0, 0, 0
220, 63218402, 2, 2978, 0, 0, 0, 372, 372, 372, 372, -1788, -1399, 1277, -183, 88, -125, -210, 88, -20, 820, -13252, 14988, 1169, 0, 0, 0, 0, 0
221, 63222310, 2, 2978, 0, 0, 0, 372, 372, 372, 372, -1744, -1544, 1277, -103, -29, 39, -130, -29, -25, -5984, 4364, 652, 1169, 0, 0, 0, 0, 0
222, 63226231, 2, 2978, 0, 0, 0, 372, 372, 372, 372, -1753, -1110, 1277, -175, -393, 12, -202, -393, -28, 12856, -1996, -7420, 1169, 0, 0, 0, 0, 0
223, 63230073, 2, 2978, 0, 0, 0, 372, 372, 372, 372, -1758, -1387, 1277, -87, 706, 13, -114, 706, -27, -10920, -2040, 27620, 1169, 0, 0, 0, 0, 0
224, 63233955, 2, 2978, 0, 0, 0, 372, 372, 372, 372, -1648, -977, 1277, -160, 392, 19, -187, 392, -25, 11216, 13184, 27592, 1169, 0, 0, 0, 0, 0
225, 63237846, 2, 2978, 0, 0, 0, 372, 372, 372, 372, -1756, -1318, 1277, -64, 843, -102, -91, 843, -23, -13012, -15216, 32767, 1169, 0, 0, 0, 0, 0
226, 63241751, 2, 2978, 0, 0, 0, 372, 372, 372, 372, -1846, -1584, 1277, -145, 282, -58, -172, 282, -23, -10216, -12540, 32767, 1169, 0, 0, 0, 0, 0
227, 63245629, 2, 2978, 0, 0, 0, 372, 372, 372, 372, -1795, -2385, 1277, -176, -635, -134, -203, -635, -26, -26368, 5608, 20916, 1169, 0, 0, 0, 0, 0
228, 63249519, 2, 2978, 0, 0, 0, 372, 372, 372, 372, -1760, -2290, 1277, -68, -336, 94, -95, -336, -31, 1108, 3096, 9384, 1169, 0, 0, 0, 0, 0
229, 63253440, 2, 2978, 0, 0, 0, 372, 372, 372, 372, -1848, -2208, 1277, -132, -568, -113, -159, -568, -33, 1104, -12404, 7240, 1169, 0, 0, 0, 0, 0
230, 63257336, 2, 2978, 0, 0, 0, 372, 372, 372, 372, -1790, -1822, 1277, -100, 41, 76, -127, 41, -33, 10108, 6064, -8636, 1169, 0, 0, 0, 0, 0
231, 63261178, 2, 2978, 0, 0, 0, 372, 372, 372, 372, -1845, -1719, 1277, -136, -72, -120, -163, -72, -33, 1588, -8128, 13156, 1169, 0, 0, 0, 0, 0
232, 63265085, 2, 2978, 0, 0, 0, 372, 372, 372, 372, -1815, -1878, 1277, -86, 938, 64, -113, 938, -33, -8060, 2336, 29224, 1169, 0, 0, 0, 0, 0
233, 63268956, 2, 2978, 0, 0, 0, 372, 372, 372, 372, -1724, -1523, 1277, -114, 527, 77, -141, 527, -29, 8784, 10444, 32767, 1169, 0, 0, 0, 0, 0
234, 63272847, 2, 2978, 0, 0, 0, 372, 372, 372, 372, -1801, -1903, 1277, -36, 968, -77, -63, 968, -24, -14952, -11464, 32767, 1169, 0, 0, 0, 0, 0
235, 63276746, 2, 2978, 0, 0, 0, 372, 372, 372, 372, -1924, -2019, 1277, -132, -410, -18, -159, -410, -20, -5060, -16888, 32668, 1169, 0, 0, 0, 0, 0
236, 63280629, 2, 2978, 0, 0, 0, 372, 372, 372, 372, -1896, -2792, 1277, -137, -559, -77, -164, -559, -19, -25988, 2360, 27920, 1169, 0, 0, 0, 0, 0
237, 63284535, 2, 2978, 0, 0, 0, 372, 372, 372, 372, -1903, -2705, 1277, -86, -704, 24, -113, -704, -19, 956, -2456, 14328, 1169, 0, 0, 0, 0, 0
238, 63288453, 2, 3021, 0, 0, 0, 372, 372, 372, 372, -1984, -2677, 1277, -63, -810, -38, -90, -810, -19, -704, -12020, 8784, 1169, 0, 0, 0, 0, 0
239, 63292294, 2, 3021, 0, 0, 0, 377, 377, 377, 377, -1923, -2321, 1277, -58, -123, 89, -85, -123, -17, 8892, 6064, -1444, 1169, 0, 0, 0, 0, 0
240, 63296176, 2, 3021, 0, 0, 0, 377, 377, 377, 377, -1989, -2307, 1277, -82, -98, -77, -109, -98, -14, -1728, -9944, 6124, 1169, 0, 0, 0, 0, 0
241, 63300071, 2, 3021, 0, 0, 0, 377, 377, 377, 377, -1944, -2209, 1277, -51, 518, 103, -78, 518, -11, 148, 4072, 15636, 1127, 0, 0, 0, 0, 0
242, 63303963, 2, 3021, 0, 0, 0, 377, 377, 377, 377, -1859, -1834, 1277, -50, 426, 91, -77, 426, -6, 9220, 9248, 26928, 1127, 0, 0, 0, 0, 0
243, 63307843, 2, 2978, 0, 0, 0, 377, 377, 377, 377, -1865, -2021, 1277, -9, 947, -61, -36, 947, 1, -9072, -2688, 32767, 1127, 0, 0, 0, 0, 0
244, 63311731, 2, 2978, 0, 0, 0, 372, 372, 372, 372, -1970, -2096, 1277, -59, 212, 10, -86, 212, 6, -4716, -15056, 32767, 1127, 0, 0, 0, 0, 0
245, 63315628, 2, 2978, 0, 0, 0, 372, 372, 372, 372, -1905, -2787, 1277, -55, 277, -41, -82, 277, 8, -24556, 6656, 32767, 1127, 0, 0, 0, 0, 0
246, 63319557, 2, 2978, 0, 0, 0, 372, 372, 372, 372, -1909, -3056, 1277, -3, -715, 60, -30, -715, 9, -10432, -2368, 32767, 1127, 0, 0, 0, 0, 0
247, 63323400, 2, 2978, 0, 0, 0, 372, 372, 372, 372, -1943, -2734, 1277, 16, -1156, 82, -11, -1156, 11, 8796, -6340, -8848, 1127, 0, 0, 0, 0, 0
248, 63327330, 2, 2978, 0, 0, 0, 372, 372, 372, 372, -1925, -2297, 1277, 45, -517, 118, 18, -517, 16, 11964, 128, -13408, 1127, 0, 0, 0, 0, 0
249, 63331182, 2, 2978, 0, 0, 0, 372, 372, 372, 372, -1968, -2205, 1277, -32, -387, -70, -59, -387, 22, 1156, -7328, -6672, 1127, 0, 0, 0, 0, 0
250, 63335071, 2, 2978, 0, 0, 0, 372, 372, 372, 372, -1945, -1846, 1277, 59, 441, 150, 32, 441, 27, 8692, 592, 1188, 1127, 0, 0, 0, 0, 0
251, 63338963, 2, 2978, 0, 0, 0, 372, 372, 372, 372, -1815, -1585, 1277, -3, 529, 71, -30, 529, 33, 5824, 14700, 16504, 1127, 0, 0, 0, 0, 0
252, 63342843, 2, 2978, 0, 0, 0, 372, 372, 372, 372, -1793, -1611, 1277, 119, 869, 71, 92, 869, 40, -3592, 376, 28928, 1127, 0, 0, 0, 0, 0
253, 63346744, 2, 2978, 0, 0, 0, 372, 372, 372, 372, -1808, -1697, 1277, 17, 437, 121, -10, 437, 47, -4940, -3848, 30184, 1127, 0, 0, 0, 0, 0
254, 63350718, 2, 2978, 0, 0, 0, 372, 372, 372, 372, -1748, -2002, 1277, 61, 650, 50, 34, 650, 54, -12348, 5508, 32767, 1162, 0, 0, 0, 0, 0
255, 63354513, 2, 2978, 0, 0, 0, 372, 372, 372, 372, -1762, -2046, 1277, -19, -569, 56, -46, -569, 60, -2640, -3564, 11140, 1162, 0, 0, 0, 0, 0
256, 63358414, 2, 2978, 0, 0, 0, 372, 372, 372, 372, -1843, -2107, 1277, 108, -834, 77, 81, -834, 64, -2860, -12732, 3664, 1162, 0, 0, 0, 0, 0
257, 63362294, 2, 2978, 0, 0, 0, 372, 372, 372, 372, -1819, -1812, 1277, 42, -1177, 57, 15, -1177, 67, 8888, 972, -13104, 1162, 0, 0, 0, 0, 0
258, 63366185, 2, 2978, 0, 0, 0, 372, 372, 372, 372, -1894, -1719, 1277, 42, -920, -27, 15, -920, 68, 2404, -11668, -15012, 1162, 0, 0, 0, 0, 0
259, 63370076, 2, 2978, 0, 0, 0, 372, 372, 372, 372, -1870, -1147, 1277, 108, -105, 167, 81, -105, 67, 16720, 492, -14904, 1162, 0, 0, 0, 0, 0
260, 63373961, 2, 2978, 0, 0, 0, 372, 372, 372, 372, -1796, -1011, 1277, 6, 500, 107, -21, 500, 68, 2556, 7500, 5796, 1162, 0, 0, 0, 0, 0
261, 63377842, 2, 2978, 0, 0, 0, 372, 372, 372, 372, -1755, -897, 1277, 132, 884, 94, 105, 884, 72, 1444, 2672, 15996, 1162, 0, 0, 0, 0, 0
262, 63381782, 2, 2978, 0, 0, 0, 372, 372, 372, 372, -1783, -1085, 1277, -20, 565, 63, -47, 565, 75, -7656, -5264, 21724, 1162, 0, 0, 0, 0, 0
263, 63385627, 2, 2978, 0, 0, 0, 372, 372, 372, 372, -1773, -1449, 1277, 55, 721, 27, 28, 721, 77, -13708, -856, 32767, 1162, 0, 0, 0, 0, 0
264, 63389541, 2, 2978, 0, 0, 0, 372, 372, 372, 372, -1730, -1711, 1277, -63, -461, -11, -90, -461, 75, -9216, 3968, 23380, 1162, 0, 0, 0, 0, 0
265, 63393398, 2, 2978, 0, 0, 0, 372, 372, 372, 372, -1822, -1834, 1277, 96, -507, 73, 69, -507, 71, -4972, -14056, 17292, 1162, 0, 0, 0, 0, 0
266, 63397289, 2, 2978, 0, 0, 0, 372, 372, 372, 372, -1820, -1778, 1277, -28, -1145, 35, -55, -1145, 67, 1492, -1488, 3680, 1162, 0, 0, 0, 0, 0
267, 63401185, 2, 2978, 0, 0, 0, 372, 372, 372, 372, -1872, -1756, 1277, 43, -911, -8, 16, -911, 62, 168, -8724, 260, 1134, 0, 0, 0, 0, 0
268, 63405065, 2, 2978, 0, 0, 0, 372, 372, 372, 372, -1873, -1288, 1277, -5, -783, 97, -32, -783, 57, 14268, -1996, -13012, 1134, 0, 0, 0, 0, 0
269, 63408956, 2, 2978, 0, 0, 0, 372, 372, 372, 372, -1866, -1071, 1277, -33, -54, 8, -60, -54, 53, 5728, -860, -6936, 1134, 0, 0, 0, 0, 0
270, 63412898, 2, 2978, 0, 0, 0, 372, 372, 372, 372, -1840, -768, 1277, -1, 504, 0, -28, 504, 49, 7968, 1500, -5336, 1134, 0, 0, 0, 0, 0
271, 63416747, 2, 2978, 0, 0, 0, 372, 372, 372, 372, -1859, -1120, 1277, -41, 610, -48, -68, 610, 43, -12840, -4196, 32767, 1134, 0, 0, 0, 0, 0
272, 63420629, 2, 2978, 0, 0, 0, 372, 372, 372, 372, -1806, -1397, 1277, -49, 876, -44, -76, 876, 35, -11136, 5240, 32767, 1134, 0, 0, 0, 0, 0
273, 63424512, 2, 2978, 0, 0, 0, 372, 372, 372, 372, -1784, -1704, 1277, -87, 221, 0, -114, 221, 25, -11504, 1416, 32767, 1134, 0, 0, 0, 0, 0
274, 63428412, 2, 2978, 0, 0, 0, 372, 372, 372, 372, -1828, -1981, 1277, 12, 60, 42, -15, 60, 17, -10644, -7492, 32767, 1134, 0, 0, 0, 0, 0
275, 63432307, 2, 2978, 0, 0, 0, 372, 372, 372, 372, -1832, -2065, 1277, -69, -649, -2, -96, -649, 12, -3788, -1904, 25312, 1134, 0, 0, 0, 0, 0
276, 63436180, 2, 2978, 0, 0, 0, 372, 372, 372, 372, -1851, -2170, 1277, -29, -565, -77, -56, -565, 7, -4668, -4196, 20768, 1134, 0, 0, 0, 0, 0
277, 63440074, 2, 2978, 0, 0, 0, 372, 372, 372, 372, -1892, -1802, 1277, -66, -657, -31, -93, -657, 0, 10500, -6776, 712, 1134, 0, 0, 0, 0, 0
278, 63444005, 2, 2978, 0, 0, 0, 372, 372, 372, 372, -1873, -1678, 1277, -60, -387, -76, -87, -387, -7, 2680, 756, -3332, 1134, 0, 0, 0, 0, 0
279, 63447846, 2, 2978, 0, 0, 0, 372, 372, 372, 372, -1869, -1775, 1277, -29, 531, -7, -56, 531, -14, -5468, -1208, 18640, 1134, 0, 0, 0, 0, 0
280, 63451778, 2, 2978, 0, 0, 0, 372, 372, 372, 372, -1893, -1944, 1277, -56, 618, -93, -83, 618, -21, -8000, -4636, 26420, 1169, 0, 0, 0, 0, 0
281, 63455627, 2, 2978, 0, 0, 0, 372, 372, 372, 372, -1840, -2209, 1277, -103, 1125, -83, -130, 1125, -28, -11920, 5460, 32767, 1169, 0, 0, 0, 0, 0
282, 63459516, 2, 2978, 0, 0, 0, 372, 372, 372, 372, -1808, -2364, 1277, -86, 368, -62, -113, 368, -36, -7632, 2680, 32767, 1169, 0, 0, 0, 0, 0
283, 63463416, 2, 2978, 0, 0, 0, 372, 372, 372, 372, -1831, -2946, 1277, -81, -35, -83, -108, -35, -43, -20932, -4360, 32767, 1169, 0, 0, 0, 0, 0
284, 63467297, 2, 2978, 0, 0, 0, 372, 372, 372, 372, -1835, -2812, 1277, -61, -734, -17, -88, -734, -49, 2336, -2028, 20104, 1169, 0, 0, 0, 0, 0
285, 63471179, 2, 2978, 0, 0, 0, 372, 372, 372, 372, -1866, -2986, 1277, -30, -178, -109, -57, -178, -54, -8136, -5652, 24256, 1169, 0, 0, 0, 0, 0
286, 63475147, 2, 2978, 0, 0, 0, 372, 372, 372, 372, -1889, -2419, 1277, -70, -396, -20, -97, -396, -58, 15708, -4488, 3940, 1169, 0, 0, 0, 0, 0
287, 63478955, 2, 2978, 0, 0, 0, 372, 372, 372, 372, -1888, -2261, 1277, -86, -395, -107, -113, -395, -61, 3188, -1432, -4152, 1169, 0, 0, 0, 0, 0
288, 63482846, 2, 2978, 0, 0, 0, 372, 372, 372, 372, -1874, -2351, 1277, -34, 502, -2, -61, 502, -63, -5796, 92, 8548, 1169, 0, 0, 0, 0, 0
289, 63486745, 2, 2978, 0, 0, 0, 372, 372, 372, 372, -1902, -2325, 1277, -57, 130, -150, -84, 130, -65, -1692, -5160, 11228, 1169, 0, 0, 0, 0, 0
290, 63490627, 2, 2978, 0, 0, 0, 372, 372, 372, 372, -1828, -2279, 1277, -85, 973, -60, -112, 973, -67, -2168, 7964, 23524, 1169, 0, 0, 0, 0, 0
291, 63494516, 2, 2978, 0, 0, 0, 372, 372, 372, 372, -1782, -2267, 1277, -69, 484, -104, -96, 484, -70, -2540, 4400, 28840, 1169, 0, 0, 0, 0, 0
292, 63498415, 2, 2978, 0, 0, 0, 372, 372, 372, 372, -1770, -2926, 1277, -96, 640, -52, -123, 640, -73, -24212, 260, 32767, 1169, 0, 0, 0, 0, 0
293, 63502300, 2, 2978, 0, 0, 0, 372, 372, 372, 372, -1758, -3021, 1277, -38, -551, -19, -65, -551, -74, -5244, -84, 32767, 1148, 0, 0, 0, 0, 0
294, 63506225, 2, 2978, 0, 0, 0, 372, 372, 372, 372, -1761, -3389, 1277, -45, -107, -42, -72, -107, -73, -14652, -1828, 32767, 1148, 0, 0, 0, 0, 0
295, 63510075, 2, 2978, 0, 0, 0, 372, 372, 372, 372, -1805, -2621, 1277, -24, -812, 0, -51, -812, -69, 22280, -7268, -5236, 1148, 0, 0, 0, 0, 0
296, 63513966, 2, 2978, 0, 0, 0, 372, 372, 372, 372, -1800, -2583, 1277, -76, -465, -84, -103, -465, -65, -760, -728, -6368, 1148, 0, 0, 0, 0, 0
297, 63517846, 2, 3021, 0, 0, 0, 372, 372, 372, 372, -1843, -2368, 1277, -2, 41, -53, -29, 41, -62, 4252, -7332, -3156, 1148, 0, 0, 0, 0, 0
298, 63521746, 2, 3021, 0, 0, 0, 377, 377, 377, 377, -1886, -2547, 1277, -86, -36, -102, -113, -36, -60, -8032, -7000, 3084, 1148, 0, 0, 0, 0, 0
299, 63525631, 2, 3021, 0, 0, 0, 377, 377, 377, 377, -1882, -2169, 1277, 28, 444, -47, 1, 444, -59, 8952, -1640, 12616, 1148, 0, 0, 0, 0, 0
300, 63529521, 2, 3021, 0, 0, 0, 377, 377, 377, 377, -1843, -2154, 1277, -46, 186, -39, -73, 186, -59, -1948, 3420, 15768, 1148, 0, 0, 0, 0, 0
301, 63533420, 2, 3021, 0, 0, 0, 377, 377, 377, 377, -1795, -2326, 1277, -8, 830, 26, -35, 830, -57, -8764, 4348, 27904, 1148, 0, 0, 0, 0, 0
302, 63537342, 2, 3021, 0, 0, 0, 377, 377, 377, 377, -1760, -2721, 1277, -54, 89, -59, -81, 89, -53, -15072, 3000, 32767, 1148, 0, 0, 0, 0, 0
303, 63541185, 2, 2978, 0, 0, 0, 377, 377, 377, 377, -1769, -3019, 1277, 27, 331, -3, 0, 331, -49, -12700, -3196, 29952, 1148, 0, 0, 0, 0, 0
304, 63545073, 2, 2978, 0, 0, 0, 372, 372, 372, 372, -1782, -2558, 1277, -51, -570, -64, -78, -570, -45, 12492, -3200, 11252, 1148, 0, 0, 0, 0, 0
305, 63548965, 2, 2978, 0, 0, 0, 372, 372, 372, 372, -1858, -2691, 1277, -30, -432, -30, -57, -432, -42, -6228, -11428, 3512, 1148, 0, 0, 0, 0, 0
306, 63552888, 2, 2978, 0, 0, 0, 372, 372, 372, 372, -1912, -2405, 1277, 3, -758, -6, -24, -758, -40, 7456, -8760, -11768, 1148, 0, 0, 0, 0, 0
307, 63556748, 2, 2978, 0, 0, 0, 372, 372, 372, 372, -1984, -2400, 1277, -6, -394, -13, -33, -394, -37, -1684, -11132, -5000, 1148, 0, 0, 0, 0, 0
308, 63560633, 2, 2978, 0, 0, 0, 372, 372, 372, 372, -2020, -1971, 1277, 63, -32, -39, 36, -32, -34, 11388, -6940, 3448, 1148, 0, 0, 0, 0, 0
309, 63564515, 2, 2978, 0, 0, 0, 372, 372, 372, 372, -2021, -1753, 1277, -43, -120, -14, -70, -120, -31, 5184, -1912, -1028, 1148, 0, 0, 0, 0, 0
310, 63568455, 2, 2978, 0, 0, 0, 372, 372, 372, 372, -1977, -1636, 1277, 43, 713, -23, 16, 713, -29, 1052, 3408, 3896, 1148, 0, 0, 0, 0, 0
311, 63572292, 2, 2978, 0, 0, 0, 372, 372, 372, 372, -1949, -1989, 1277, -41, 669, -52, -68, 669, -27, -13824, 1708, 32767, 1148, 0, 0, 0, 0, 0
312, 63576184, 2, 2978, 0, 0, 0, 372, 372, 372, 372, -1924, -2318, 1277, 53, 919, 10, 26, 919, -26, -13724, 896, 32767, 1148, 0, 0, 0, 0, 0
313, 63580091, 2, 2978, 0, 0, 0, 372, 372, 372, 372, -1921, -2229, 1277, -31, 199, -7, -58, 199, -25, 260, -1472, 32767, 1148, 0, 0, 0, 0, 0
314, 63583966, 2, 2978, 0, 0, 0, 372, 372, 372, 372, -1992, -2673, 1277, 2, -251, -34, -25, -251, -23, -16100, -10980, 21524, 1148, 0, 0, 0, 0, 0
315, 63587854, 2, 2978, 0, 0, 0, 372, 372, 372, 372, -2036, -2476, 1277, -26, -1162, 42, -53, -1162, -21, 5192, -7452, -5900, 1148, 0, 0, 0, 0, 0
316, 63591747, 2, 2978, 0, 0, 0, 372, 372, 372, 372, -2084, -2532, 1277, 23, -392, 16, -4, -392, -17, -3752, -8284, 1888, 1148, 0, 0, 0, 0, 0
317, 63595628, 2, 2978, 0, 0, 0, 372, 372, 372, 372, -2133, -2072, 1277, 22, -201, -73, -5, -201, -14, 12444, -8432, -2656, 1148, 0, 0, 0, 0, 0
318, 63599568, 2, 2978, 0, 0, 0, 372, 372, 372, 372, -2149, -1700, 1277, -10, 163, 12, -37, 163, -13, 9608, -4132, -8176, 1148, 0, 0, 0, 0, 0
319, 63603414, 2, 2978, 0, 0, 0, 372, 372, 372, 372, -2086, -2042, 1277, 38, 1132, 26, 11, 1132, -11, -14144, 5688, 32767, 1148, 0, 0, 0, 0, 0
320, 63607295, 2, 2978, 0, 0, 0, 372, 372, 372, 372, -2072, -2460, 1277, -33, 527, -6, -60, 527, -9, -16100, -136, 32767, 1148, 0, 0, 0, 0, 0
321, 63611186, 2, 2978, 0, 0, 0, 372, 372, 372, 372, -2040, -2459, 1277, 69, 698, 125, 42, 698, -5, -3380, 1588, 32767, 1148, 0, 0, 0, 0, 0
322, 63615077, 2, 2978, 0, 0, 0, 372, 372, 372, 372, -1999, -2360, 1277, -42, 736, 9, -69, 736, 1, -280, 3312, 32767, 1148, 0, 0, 0, 0, 0
323, 63618968, 2, 2978, 0, 0, 0, 372, 372, 372, 372, -2034, -2893, 1277, -54, -194, -87, -81, -194, 6, -19136, -6240, 29672, 1148, 0, 0, 0, 0, 0
324, 63622866, 2, 2978, 0, 0, 0, 372, 372, 372, 372, -2065, -2889, 1277, -74, -902, 56, -101, -902, 8, -1572, -5668, 8380, 1148, 0, 0, 0, 0, 0
325, 63626747, 2, 2978, 0, 0, 0, 372, 372, 372, 372, -2098, -3241, 1277, -6, -288, 6, -33, -288, 9, -13752, -6248, 24308, 1148, 0, 0, 0, 0, 0
326, 63630679, 2, 2978, 0, 0, 0, 372, 372, 372, 372, -2127, -3051, 1277, -3, -711, -2, -30, -711, 10, 3772, -5816, 7912, 1148, 0, 0, 0, 0, 0
327, 63634535, 2, 2978, 0, 0, 0, 372, 372, 372, 372, -2093, -2301, 1277, 29, -348, 143, 2, -348, 12, 21432, 1916, -1224, 1148, 0, 0, 0, 0, 0
328, 63638413, 2, 2978, 0, 0, 0, 372, 372, 372, 372, -2015, -2591, 1277, -8, 1467, 26, -35, 1467, 17, -13536, 7872, 29476, 1148, 0, 0, 0, 0, 0
329, 63642331, 2, 2978, 0, 0, 0, 372, 372, 372, 372, -2011, -3061, 1277, -59, 395, -61, -86, 395, 21, -18160, -1272, 26116, 1148, 0, 0, 0, 0, 0
330, 63646190, 2, 2978, 0, 0, 0, 372, 372, 372, 372, -1951, -2742, 1277, 66, 595, 144, 39, 595, 24, 6348, 5284, 27400, 1148, 0, 0, 0, 0, 0
331, 63650083, 2, 2978, 0, 0, 0, 372, 372, 372, 372, -1881, -2471, 1277, -52, 772, -16, -79, 772, 27, 4904, 7228, 32767, 1169, 0, 0, 0, 0, 0
332, 63653969, 2, 2978, 0, 0, 0, 372, 372, 372, 372, -1866, -3105, 1277, -48, 166, -44, -75, 166, 29, -22992, 328, 32767, 1169, 0, 0, 0, 0, 0
333, 63657860, 2, 2978, 0, 0, 0, 372, 372, 372, 372, -1848, -3194, 1277, -86, -718, 102, -113, -718, 28, -4964, 820, 24716, 1169, 0, 0, 0, 0, 0
334, 63661798, 2, 2978, 0, 0, 0, 372, 372, 372, 372, -1866, -3801, 1277, -20, -104, 32, -47, -104, 29, -22484, -4080, 32767, 1169, 0, 0, 0, 0, 0
335, 63665644, 2, 2978, 0, 0, 0, 372, 372, 372, 372, -1917, -3148, 1277, -43, -1207, -13, -70, -1207, 30, 18716, -8192, -7316, 1169, 0, 0, 0, 0, 0
336, 63669534, 2, 2978, 0, 0, 0, 372, 372, 372, 372, -1919, -2593, 1277, -12, -625, 103, -39, -625, 31, 15476, -2216, -8388, 1169, 0, 0, 0, 0, 0
337, 63673415, 2, 2978, 0, 0, 0, 372, 372, 372, 372, -1884, -2246, 1277, -31, 864, 21, -58, 864, 32, 7348, 2680, 6504, 1169, 0, 0, 0, 0, 0
338, 63677296, 2, 2978, 0, 0, 0, 372, 372, 372, 372, -1898, -2688, 1277, -55, 255, -46, -82, 255, 33, -16732, -3372, 12464, 1169, 0, 0, 0, 0, 0
339, 63681188, 2, 2978, 0, 0, 0, 372, 372, 372, 372, -1854, -1973, 1277, 52, 746, 200, 25, 746, 33, 19172, 3364, 17508, 1169, 0, 0, 0, 0, 0
340, 63685094, 2, 2978, 0, 0, 0, 372, 372, 372, 372, -1789, -2028, 1277, -99, 847, -23, -126, 847, 36, -4868, 6988, 32767, 1169, 0, 0, 0, 0, 0
341, 63688962, 2, 2978, 0, 0, 0, 372, 372, 372, 372, -1747, -2413, 1277, -40, 523, 24, -67, 523, 38, -15040, 3656, 32767, 1169, 0, 0, 0, 0, 0
342, 63692902, 2, 2978, 0, 0, 0, 372, 372, 372, 372, -1713, -2835, 1277, -144, -1175, 23, -171, -1175, 39, -14364, 3312, 29500, 1169, 0, 0, 0, 0, 0
343, 63696746, 2, 2978, 0, 0, 0, 372, 372, 372, 372, -1773, -3334, 1277, -41, 276, 59, -68, 276, 38, -19160, -9320, 12716, 1169, 0, 0, 0, 0, 0
344, 63700647, 2, 2978, 0, 0, 0, 372, 372, 372, 372, -1812, -2757, 1277, -78, -1275, -31, -105, -1275, 38, 16864, -6376, -168, 1176, 0, 0, 0, 0, 0
345, 63704534, 2, 2978, 0, 0, 0, 372, 372, 372, 372, -1853, -2411, 1277, -13, -614, 142, -40, -614, 37, 9128, -7112, -6704, 1176, 0, 0, 0, 0, 0
346, 63708417, 2, 2978, 0, 0, 0, 372, 372, 372, 372, -1849, -1685, 1277, -76, -167, 63, -103, -167, 39, 21072, -912, -13052, 1176, 0, 0, 0, 0, 0
347, 63712298, 2, 2978, 0, 0, 0, 372, 372, 372, 372, -1908, -1980, 1277, -82, 249, 13, -109, 249, 41, -11460, -8980, -1936, 1176, 0, 0, 0, 0, 0
348, 63716189, 2, 2978, 0, 0, 0, 372, 372, 372, 372, -1913, -1130, 1277, 18, 766, 182, -9, 766, 45, 24188, -2724, 9364, 1176, 0, 0, 0, 0, 0
349, 63720079, 2, 2978, 0, 0, 0, 372, 372, 372, 372, -1880, -1287, 1277, -147, 874, -88, -174, 874, 48, -7300, 3060, 32420, 1176, 0, 0, 0, 0, 0
350, 63724019, 2, 2978, 0, 0, 0, 372, 372, 372, 372, -1858, -1434, 1277, -45, 764, 23, -72, 764, 49, -7040, 1220, 32767, 1176, 0, 0, 0, 0, 0
351, 63727873, 2, 2978, 0, 0, 0, 372, 372, 372, 372, -1819, -1469, 1277, -159, -947, -52, -186, -947, 45, -1300, 3960, 4708, 1176, 0, 0, 0, 0, 0
352, 63731745, 2, 2978, 0, 0, 0, 372, 372, 372, 372, -1811, -1924, 1277, -45, 184, 98, -72, 184, 41, -16252, -508, 15572, 1176, 0, 0, 0, 0, 0
353, 63735645, 2, 2978, 0, 0, 0, 372, 372, 372, 372, -1806, -1385, 1277, -61, -1183, 15, -88, -1183, 38, 16916, -868, 6076, 1176, 0, 0, 0, 0, 0
354, 63739534, 2, 2978, 0, 0, 0, 372, 372, 372, 372, -1820, -1228, 1277, -14, -363, 159, -41, -363, 37, 4112, -3620, -480, 1176, 0, 0, 0, 0, 0
355, 63743416, 2, 2978, 0, 0, 0, 372, 372, 372, 372, -1827, -503, 1277, -92, -594, 23, -119, -594, 39, 22752, -2172, -15944, 1176, 0, 0, 0, 0, 0
356, 63747317, 2, 2978, 0, 0, 0, 372, 372, 372, 372, -1932, -855, 1277, -82, 281, 25, -109, 281, 42, -12144, -14864, -1604, 1176, 0, 0, 0, 0, 0
357, 63751220, 2, 2978, 0, 0, 0, 372, 372, 372, 372, -2011, 20, 1277, 7, 312, 95, -20, 312, 43, 26728, -12192, 5616, 1162, 0, 0, 0, 0, 0
358, 63755127, 2, 2978, 0, 0, 0, 372, 372, 372, 372, -2033, -196, 1277, -100, 578, -41, -127, 578, 45, -7652, -4260, 19396, 1162, 0, 0, 0, 0, 0
359, 63758976, 2, 2978, 0, 0, 0, 372, 372, 372, 372, -2002, -492, 1277, 8, 1037, 46, -19, 1037, 44, -11056, 1812, 32767, 1162, 0, 0, 0, 0, 0
360, 63762864, 2, 2978, 0, 0, 0, 372, 372, 372, 372, -1901, -972, 1277, -123, -524, -97, -150, -524, 40, -15164, 11612, 18892, 1162, 0, 0, 0, 0, 0
361, 63766752, 2, 2978, 0, 0, 0, 372, 372, 372, 372, -1834, -1295, 1277, 30, 215, 129, 3, 215, 36, -11592, 6480, 22948, 1162, 0, 0, 0, 0, 0
362, 63770643, 2, 2978, 0, 0, 0, 372, 372, 372, 372, -1798, -1160, 1277, -53, -775, -34, -80, -775, 32, 4064, 3076, 18584, 1162, 0, 0, 0, 0, 0
363, 63774533, 2, 2978, 0, 0, 0, 372, 372, 372, 372, -1783, -1145, 1277, -5, -380, 127, -32, -380, 30, -168, 104, 6736, 1162, 0, 0, 0, 0, 0
364, 63778414, 2, 2978, 0, 0, 0, 372, 372, 372, 372, -1777, -574, 1277, -63, -888, 21, -90, -888, 31, 18320, -788, -8688, 1162, 0, 0, 0, 0, 0
365, 63782305, 2, 2978, 0, 0, 0, 372, 372, 372, 372, -1878, -785, 1277, -42, 73, 44, -69, 73, 32, -7436, -14548, 864, 1162, 0, 0, 0, 0, 0
366, 63786236, 2, 2978, 0, 0, 0, 372, 372, 372, 372, -1959, -306, 1277, 29, -228, 61, 2, -228, 33, 14856, -12532, 5524, 1162, 0, 0, 0, 0, 0
367, 63790116, 2, 2978, 0, 0, 0, 372, 372, 372, 372, -1941, -491, 1277, -35, 123, 48, -62, 123, 35, -6400, 516, 22328, 1162, 0, 0, 0, 0, 0
368, 63793973, 2, 2978, 0, 0, 0, 372, 372, 372, 372, -1924, -670, 1277, 49, 729, 11, 22, 729, 37, -7196, -12, 30420, 1162, 0, 0, 0, 0, 0
369, 63797863, 2, 2978, 0, 0, 0, 372, 372, 372, 372, -1817, -1250, 1277, -112, 79, -72, -139, 79, 36, -19336, 12420, 29448, 1162, 0, 0, 0, 0, 0
370, 63801749, 2, 2978, 0, 0, 0, 372, 372, 372, 372, -1757, -1628, 1277, 40, 224, 16, 13, 224, 32, -13648, 5580, 29864, 1148, 0, 0, 0, 0, 0
371, 63805646, 2, 2978, 0, 0, 0, 372, 372, 372, 372, -1748, -1694, 1277, -18, -833, 2, -45, -833, 27, -2636, -596, 21728, 1148, 0, 0, 0, 0, 0
372, 63809534, 2, 2978, 0, 0, 0, 372, 372, 372, 372, -1753, -1803, 1277, 6, -590, 114, -21, -590, 24, -4384, -2496, 9524, 1148, 0, 0, 0, 0, 0
373, 63813413, 2, 2978, 0, 0, 0, 372, 372, 372, 372, -1685, -1182, 1277, -14, -708, 91, -41, -708, 25, 19012, 6920, -10056, 1148, 0, 0, 0, 0, 0
374, 63817353, 2, 2978, 0, 0, 0, 372, 372, 372, 372, -1781, -1206, 1277, -4, 105, 43, -31, 105, 28, -2084, -13920, -200, 1148, 0, 0, 0, 0, 0
375, 63821196, 2, 2978, 0, 0, 0, 372, 372, 372, 372, -1794, -801, 1277, 14, -144, 54, -13, -144, 32, 11948, -3564, 16076, 1148, 0, 0, 0, 0, 0
376, 63825087, 2, 2978, 0, 0, 0, 372, 372, 372, 372, -1797, -1111, 1277, -13, 262, 11, -40, 262, 35, -11072, -2136, 25580, 1148, 0, 0, 0, 0, 0
377, 63828978, 2, 2978, 0, 0, 0, 372, 372, 372, 372, -1796, -1295, 1277, 48, 711, -23, 21, 711, 36, -7936, -1972, 30164, 1148, 0, 0, 0, 0, 0
378, 63832899, 2, 2978, 0, 0, 0, 372, 372, 372, 372, -1719, -1778, 1277, -115, 97, -100, -142, 97, 33, -16888, 8668, 28236, 1148, 0, 0, 0, 0, 0
379, 63836765, 2, 2978, 0, 0, 0, 372, 372, 372, 372, -1715, -2017, 1277, 82, 414, 39, 55, 414, 27, -9976, -1680, 32588, 1148, 0, 0, 0, 0, 0
380, 63840645, 2, 2978, 0, 0, 0, 372, 372, 372, 372, -1722, -2347, 1277, -6, -399, -51, -33, -399, 21, -12036, -2648, 31968, 1148, 0, 0, 0, 0, 0
381, 63844532, 2, 2978, 0, 0, 0, 372, 372, 372, 372, -1713, -2707, 1277, 31, -657, 121, 4, -657, 16, -12976, -792, 22084, 1148, 0, 0, 0, 0, 0
382, 63848467, 2, 2978, 0, 0, 0, 372, 372, 372, 372, -1634, -2262, 1277, 16, -921, 73, -11, -921, 15, 12776, 8316, -6232, 1148, 0, 0, 0, 0, 0
383, 63852354, 2, 2978, 0, 0, 0, 372, 372, 372, 372, -1679, -2277, 1277, -15, 29, 21, -42, 29, 17, -2796, -7380, 9688, 1141, 0, 0, 0, 0, 0
384, 63856195, 2, 2978, 0, 0, 0, 372, 372, 372, 372, -1678, -1853, 1277, 3, 145, -19, -24, 145, 19, 11096, -1568, 16788, 1141, 0, 0, 0, 0, 0
385, 63860086, 2, 2978, 0, 0, 0, 372, 372, 372, 372, -1714, -2256, 1277, -25, 747, -28, -52, 747, 18, -15748, -6096, 32364, 1141, 0, 0, 0, 0, 0
386, 63863977, 2, 2978, 0, 0, 0, 372, 372, 372, 372, -1758, -2443, 1277, 51, 754, -39, 24, 754, 16, -9256, -7728, 32767, 1141, 0, 0, 0, 0, 0
387, 63867867, 2, 2978, 0, 0, 0, 372, 372, 372, 372, -1695, -2990, 1277, -85, -265, -96, -112, -265, 11, -19576, 6664, 30908, 1141, 0, 0, 0, 0, 0
388, 63871749, 2, 2978, 0, 0, 0, 372, 372, 372, 372, -1748, -3072, 1277, 94, -142, 19, 67, -142, 4, -5420, -8948, 26604, 1141, 0, 0, 0, 0, 0
389, 63875645, 2, 2978, 0, 0, 0, 372, 372, 372, 372, -1768, -3272, 1277, -37, -744, -50, -64, -744, -3, -8468, -4236, 23652, 1141, 0, 0, 0, 0, 0
390, 63879583, 2, 2978, 0, 0, 0, 372, 372, 372, 372, -1771, -3477, 1277, 45, -430, 59, 18, -430, -8, -9248, -2392, 16608, 1141, 0, 0, 0, 0, 0
391, 63883416, 2, 2978, 0, 0, 0, 372, 372, 372, 372, -1706, -2821, 1277, 18, -679, -31, -9, -679, -10, 18440, 6384, -1944, 1141, 0, 0, 0, 0, 0
392, 63887307, 2, 2978, 0, 0, 0, 372, 372, 372, 372, -1721, -2761, 1277, -16, 252, 10, -43, 252, -11, -1224, -3596, 12948, 1141, 0, 0, 0, 0, 0
393, 63891198, 2, 2978, 0, 0, 0, 372, 372, 372, 372, -1704, -2297, 1277, 28, 305, -67, 1, 305, -13, 11672, 192, 16424, 1141, 0, 0, 0, 0, 0
394, 63895095, 2, 2978, 0, 0, 0, 372, 372, 372, 372, -1791, -2704, 1277, -10, 830, -31, -37, 830, -15, -16404, -12880, 31144, 1141, 0, 0, 0, 0, 0
395, 63898973, 2, 2978, 0, 0, 0, 372, 372, 372, 372, -1842, -2781, 1277, 46, 811, -20, 19, 811, -18, -6268, -8600, 32767, 1141, 0, 0, 0, 0, 0
396, 63902865, 2, 2978, 0, 0, 0, 372, 372, 372, 372, -1804, -3490, 1277, -64, -409, -138, -91, -409, -21, -24916, 3280, 32767, 1134, 0, 0, 0, 0, 0
397, 63906762, 2, 2978, 0, 0, 0, 372, 372, 372, 372, -1870, -3251, 1277, 102, -439, -40, 75, -439, -27, 4724, -10932, 23348, 1134, 0, 0, 0, 0, 0
398, 63910683, 2, 2978, 0, 0, 0, 372, 372, 372, 372, -1902, -3493, 1277, -16, -781, -109, -43, -781, -34, -9960, -5920, 22328, 1134, 0, 0, 0, 0, 0
399, 63914531, 2, 2978, 0, 0, 0, 372, 372, 372, 372, -1859, -3379, 1277, 39, -194, 15, 12, -194, -40, 408, 3288, 1500, 1134, 0, 0, 0, 0, 0
400, 63918415, 2, 2978, 0, 0, 0, 372, 372, 372, 372, -1776, -2911, 1277, 36, -452, -101, 9, -452, -45, 12212, 8528, -432, 1134, 0, 0, 0, 0, 0
401, 63922306, 2, 2978, 0, 0, 0, 372, 372, 372, 372, -1798, -2808, 1277, -6, 448, 18, -33, 448, -48, -224, -4600, 12628, 1134, 0, 0, 0, 0, 0
402, 63926197, 2, 2978, 0, 0, 0, 372, 372, 372, 372, -1787, -2485, 1277, 12, 162, -91, -15, 162, -50, 7308, -528, 14592, 1134, 0, 0, 0, 0, 0
403, 63930088, 2, 2978, 0, 0, 0, 372, 372, 372, 372, -1846, -2662, 1277, -26, 458, -52, -53, 458, -52, -8736, -9212, 14948, 1134, 0, 0, 0, 0, 0
404, 63933980, 2, 2978, 0, 0, 0, 372, 372, 372, 372, -1903, -2503, 1277, 36, 568, -9, 9, 568, -53, 1672, -9336, 24756, 1134, 0, 0, 0, 0, 0
405, 63937877, 2, 2978, 0, 0, 0, 372, 372, 372, 372, -1841, -3106, 1277, -86, 339, -184, -113, 339, -54, -22248, 6392, 32767, 1134, 0, 0, 0, 0, 0
406, 63941800, 2, 2978, 0, 0, 0, 372, 372, 372, 372, -1916, -2958, 1277, 81, 34, -91, 54, 34, -58, 1576, -12000, 32767, 1134, 0, 0, 0, 0, 0
407, 63945647, 2, 2978, 0, 0, 0, 372, 372, 372, 372, -1912, -2838, 1277, -22, -948, -121, -49, -948, -64, 2132, -1216, 1444, 1134, 0, 0, 0, 0, 0
408, 63949533, 2, 2978, 0, 0, 0, 372, 372, 372, 372, -1890, -2812, 1277, 49, -275, 57, 22, -275, -69, -1644, 708, -932, 1134, 0, 0, 0, 0, 0
409, 63953461, 2, 2978, 0, 0, 0, 372, 372, 372, 372, -1819, -2243, 1277, -23, -673, -84, -50, -673, -70, 16316, 7348, -6592, 1176, 0, 0, 0, 0, 0
410, 63957308, 2, 2978, 0, 0, 0, 372, 372, 372, 372, -1810, -2201, 1277, -19, 781, 24, -46, 781, -68, -1932, -680, 11604, 1176, 0, 0, 0, 0, 0
411, 63961200, 2, 2978, 0, 0, 0, 372, 372, 372, 372, -1791, -1712, 1277, -7, 66, -147, -34, 66, -66, 13384, 568, 10140, 1176, 0, 0, 0, 0, 0
412, 63965087, 2, 2978, 0, 0, 0, 372, 372, 372, 372, -1826, -2133, 1277, -67, 479, -54, -94, 479, -65, -15820, -5940, 12272, 1176, 0, 0, 0, 0, 0
413, 63968978, 2, 2978, 0, 0, 0, 372, 372, 372, 372, -1841, -1799, 1277, 21, 301, 27, -6, 301, -64, 8132, -3884, 23220, 1176, 0, 0, 0, 0, 0
414, 63972918, 2, 2978, 0, 0, 0, 372, 372, 372, 372, -1741, -2313, 1277, -74, 371, -121, -101, 371, -61, -18748, 11344, 32767, 1176, 0, 0, 0, 0, 0
415, 63976750, 2, 2978, 0, 0, 0, 372, 372, 372, 372, -1839, -1922, 1277, 73, 89, -3, 46, 89, -59, 10092, -14660, 20668, 1176, 0, 0, 0, 0, 0
416, 63980673, 2, 2978, 0, 0, 0, 372, 372, 372, 372, -1885, -2118, 1277, -33, -617, -113, -60, -617, -58, -7372, -7644, 14884, 1176, 0, 0, 0, 0, 0
417, 63984534, 2, 2978, 0, 0, 0, 372, 372, 372, 372, -1899, -2416, 1277, 45, -38, 30, 18, -38, -57, -11592, -3944, 11520, 1176, 0, 0, 0, 0, 0
418, 63988425, 2, 2978, 0, 0, 0, 372, 372, 372, 372, -1825, -2097, 1277, -3, -1014, -97, -30, -1014, -55, 9136, 7576, -3324, 1176, 0, 0, 0, 0, 0
