index_log, time_stamp, mode, thrust, roll, pitch, yaw, ae[0], ae[1], ae[2], ae[3], phi, theta, psi, sp, sq, sr, esp, esq, esr, sax, say, saz, bat_volt, P, P1, P2, temperature, pressure
0, 476232610, 5, 1758, 0, 0, 0, 219, 219, 219, 219, 56, 74, 9586, -1, 1, 1, 0, 0, 0, -1414, 216, 15976, 1190, 14, 18, 13, 0, 0
1, 476242674, 5, 1758, 0, 0, 0, 219, 219, 219, 219, 55, 74, 9586, 0, 0, 4, 0, 0, 0, -1170, 354, 16394, 1190, 14, 18, 13, 0, 0
2, 476252695, 5, 1758, 0, 0, 0, 219, 219, 219, 219, 56, 73, 9586, 1, -2, 1, 0, 0, 0, -1460, 80, 16714, 1190, 14, 18, 13, 0, 0
3, 476262758, 5, 1758, 0, 0, 0, 219, 219, 219, 219, 55, 73, 9586, -2, 3, 0, 0, 0, 0, -1646, 464, 16200, 1190, 14, 18, 13, 0, 0
4, 476272801, 5, 1758, 0, 0, 0, 219, 219, 219, 219, 56, 73, 9586, 0, 2, 5, 0, 0, 0, -1036, 148, 15964, 1190, 14, 18, 13, 0, 0
5, 476282833, 5, 1758, 0, 0, 0, 219, 219, 219, 219, 56, 73, 9586, 0, 0, 2, 0, 0, 0, -1168, 296, 15914, 1190, 14, 18, 13, 0, 0
6, 476292877, 5, 1758, 0, 0, 0, 219, 219, 219, 219, 55, 74, 9586, -1, -1, -1, 0, 0, 0, -1230, 296, 16056, 1190, 14, 18, 13, 0, 0
7, 476302917, 5, 1758, 0, 0, 0, 219, 219, 219, 219, 56, 74, 9586, 1, -3, 1, 0, 0, 0, -1466, 12, 16488, 1190, 14, 18, 13, 0, 0
8, 476312981, 5, 1831, 0, 0, 0, 219, 219, 219, 219, 55, 73, 9587, -1, 2, 3, 0, 0, 0, -1482, 280, 16652, 1190, 14, 18, 13, 0, 0
9, 476323005, 5, 1831, 0, 0, 0, 228, 228, 228, 228, 55, 73, 9587, -1, 3, 1, 0, 0, 0, -1258, 224, 16152, 1190, 14, 18, 13, 0, 0
10, 476333036, 5, 1787, 0, 0, 0, 228, 228, 228, 228, 55, 73, 9587, -1, 1, -1, 0, 0, 0, -1354, 296, 15944, 1190, 14, 18, 13, 0, 0
11, 476343090, 5, 1787, 0, 0, 0, 223, 223, 223, 223, 55, 73, 9587, -1, 1, 3, 0, 0, 0, -1342, 422, 16180, 1190, 14, 18, 13, 0, 0
12, 476353111, 5, 1831, 0, 0, 0, 223, 223, 223, 223, 55, 73, 9587, 0, -1, 3, 0, 0, 0, -1314, 80, 16510, 1183, 14, 18, 13, 0, 0
13, 476363167, 5, 1831, 0, 0, 0, 228, 228, 228, 228, 55, 73, 9587, -1, 2, 1, 0, 0, 0, -1416, 152, 15838, 1183, 14, 18, 13, 0, 0
14, 476373249, 5, 1831, 0, 0, 0, 228, 228, 228, 228, 55, 73, 9588, -1, 1, 2, 0, 0, 0, -954, 398, 15960, 1183, 14, 18, 13, 0, 0
15, 476383249, 5, 1860, 0, 0, 0, 228, 228, 228, 228, 55, 73, 9588, 2, -2, 1, 0, 0, 0, -1354, 98, 16592, 1183, 14, 18, 13, 0, 0
16, 476393397, 5, 1860, 0, 0, 0, 232, 232, 232, 232, 55, 73, 9588, -2, 2, 2, 0, 0, 0, -1648, 254, 16030, 1183, 14, 18, 13, 0, 0
17, 476403329, 5, 1860, 0, 0, 0, 232, 232, 232, 232, 55, 73, 9588, -1, 1, 1, 0, 0, 0, -1136, 238, 15932, 1183, 14, 18, 13, 0, 0
18, 476413522, 5, 1860, 0, 0, 0, 232, 232, 232, 232, 55, 73, 9588, 0, -3, 1, 0, 0, 0, -1218, 310, 15824, 1183, 14, 18, 13, 0, 0
19, 476423406, 5, 1860, 0, 0, 0, 232, 232, 232, 232, 55, 73, 9588, -1, 1, 3, 0, 0, 0, -1408, 416, 16600, 1183, 14, 18, 13, 0, 0
20, 476433557, 5, 1860, 0, 0, 0, 232, 232, 232, 232, 56, 73, 9588, 0, 2, 1, 0, 0, 0, -1412, 92, 16404, 1183, 14, 18, 13, 0, 0
21, 476443486, 5, 1860, 0, 0, 0, 232, 232, 232, 232, 56, 73, 9588, -1, 0, -1, 0, 0, 0, -1302, 504, 16228, 1183, 14, 18, 13, 0, 0
22, 476453523, 5, 1860, 0, 0, 0, 232, 232, 232, 232, 56, 73, 9588, 1, 0, 3, 0, 0, 0, -1272, 18, 16362, 1183, 14, 18, 13, 0, 0
23, 476463556, 5, 1860, 0, 0, 0, 232, 232, 232, 232, 56, 73, 9589, 0, 2, 4, 0, 0, 0, -1420, 304, 16424, 1183, 14, 18, 13, 0, 0
24, 476473603, 5, 1860, 0, 0, 0, 232, 232, 232, 232, 56, 73, 9589, -2, 0, -1, 0, 0, 0, -1408, 718, 16280, 1183, 14, 18, 13, 0, 0
25, 476483639, 5, 1860, 0, 0, 0, 232, 232, 232, 232, 57, 73, 9588, 2, 0, 1, 0, 0, 0, -1318, -260, 16302, 1183, 14, 18, 13, 0, 0
26, 476493687, 5, 1860, 0, 0, 0, 232, 232, 232, 232, 56, 73, 9589, -1, 3, 6, 0, 0, 0, -1302, 622, 16194, 1183, 14, 18, 13, 0, 0
27, 476503724, 5, 1860, 0, 0, 0, 232, 232, 232, 232, 57, 72, 9589, -2, 1, -1, 0, 0, 0, -1346, 316, 16290, 1190, 14, 18, 13, 0, 0
28, 476513756, 5, 1860, 0, 0, 0, 232, 232, 232, 232, 58, 73, 9589, 0, 1, -1, 0, 0, 0, -1206, -52, 15842, 1190, 14, 18, 13, 0, 0
29, 476523979, 5, 1860, 0, 0, 0, 232, 232, 232, 232, 57, 73, 9589, -1, 2, 7, 0, 0, 0, -1346, 570, 16442, 1190, 14, 18, 13, 0, 0
30, 476533849, 5, 1860, 0, 0, 0, 232, 232, 232, 232, 58, 72, 9590, 1, -4, 3, 0, 0, 0, -1448, 206, 16746, 1190, 14, 18, 13, 0, 0
31, 476543895, 5, 1860, 0, 0, 0, 232, 232, 232, 232, 58, 73, 9589, -2, 7, -3, 0, 0, 0, -1334, 444, 15656, 1190, 14, 18, 13, 0, 0
32, 476553931, 5, 1860, 0, 0, 0, 232, 232, 232, 232, 58, 73, 9590, -1, 2, 6, 0, 0, 0, -1218, 30, 16110, 1183, 14, 18, 13, 0, 0
33, 476563986, 5, 1860, 0, 0, 0, 232, 232, 232, 232, 58, 72, 9590, 1, -4, 6, 0, 0, 0, -1058, 200, 16104, 1183, 14, 18, 13, 0, 0
34, 476574019, 5, 1860, 0, 0, 0, 232, 232, 232, 232, 57, 74, 9590, -2, 0, -6, 0, 0, 0, -1896, 518, 16114, 1183, 14, 18, 13, 0, 0
35, 476584118, 5, 1860, 0, 0, 0, 232, 232, 232, 232, 58, 72, 9590, 1, 0, 4, 0, 0, 0, -1170, -390, 16568, 1183, 14, 18, 13, 0, 0
36, 476594106, 5, 1860, 0, 0, 0, 232, 232, 232, 232, 56, 71, 9591, 2, 5, 7, 0, 0, 0, -1190, 402, 16014, 1183, 14, 18, 13, 0, 0
37, 476604254, 5, 1860, 0, 0, 0, 232, 232, 232, 232, 56, 73, 9590, -2, -1, -8, 0, 0, 0, -1830, 242, 15566, 1190, 14, 18, 13, 0, 0
38, 476614192, 5, 1860, 0, 0, 0, 232, 232, 232, 232, 56, 72, 9590, 0, -1, 4, 0, 0, 0, -652, -120, 15864, 1190, 14, 18, 13, 0, 0
39, 476624391, 5, 1860, 0, 0, 0, 232, 232, 232, 232, 55, 72, 9591, 2, 0, 8, 0, 0, 0, -1466, 368, 16258, 1190, 14, 18, 13, 0, 0
40, 476634279, 5, 1860, 0, 0, 0, 232, 232, 232, 232, 56, 73, 9591, -2, -1, -7, 0, 0, 0, -1682, 510, 16274, 1190, 14, 18, 13, 0, 0
41, 476644451, 5, 1860, 0, 0, 0, 232, 232, 232, 232, 57, 71, 9590, 0, -2, 1, 0, 0, 0, -1072, 144, 16568, 1190, 14, 18, 13, 0, 0
42, 476654354, 5, 1860, 0, 0, 0, 232, 232, 232, 232, 56, 72, 9591, 1, 5, 9, 0, 0, 0, -1784, 384, 16302, 1183, 14, 18, 13, 0, 0
43, 476664432, 5, 1860, 0, 0, 0, 232, 232, 232, 232, 57, 71, 9591, -2, 1, -3, 0, 0, 0, -1138, 368, 16134, 1183, 14, 18, 13, 0, 0
44, 476674418, 5, 1860, 0, 0, 0, 232, 232, 232, 232, 58, 71, 9591, 0, -2, -2, 0, 0, 0, -1008, 448, 16006, 1183, 14, 18, 13, 0, 0
45, 476684474, 5, 1860, 0, 0, 0, 232, 232, 232, 232, 58, 72, 9591, 0, 1, 8, 0, 0, 0, -1870, 436, 16520, 1183, 14, 18, 13, 0, 0
46, 476694516, 5, 1860, 0, 0, 0, 232, 232, 232, 232, 60, 71, 9592, -2, 1, 1, 0, 0, 0, -1090, 544, 16668, 1183, 14, 18, 13, 0, 0
47, 476704561, 5, 1860, 0, 0, 0, 232, 232, 232, 232, 61, 71, 9591, -2, 1, -4, 0, 0, 0, -1428, 420, 16156, 1190, 14, 18, 13, 0, 0
48, 476714596, 5, 1860, 0, 0, 0, 232, 232, 232, 232, 60, 72, 9591, 1, 4, 7, 0, 0, 0, -1348, -78, 15786, 1190, 14, 18, 13, 0, 0
49, 476724643, 5, 1860, 0, 0, 0, 232, 232, 232, 232, 60, 72, 9592, -1, 1, 3, 0, 0, 0, -728, 590, 15698, 1190, 14, 18, 13, 0, 0
50, 476734671, 5, 1860, 0, 0, 0, 232, 232, 232, 232, 61, 73, 9591, 0, -1, -5, 0, 0, 0, -1524, 218, 15960, 1190, 14, 18, 13, 0, 0
51, 476744724, 5, 1860, 0, 0, 0, 232, 232, 232, 232, 61, 73, 9591, 0, 0, 5, 0, 0, 0, -1214, 8, 16312, 1190, 14, 18, 13, 0, 0
52, 476754771, 5, 1860, 0, 0, 0, 232, 232, 232, 232, 60, 72, 9592, -1, 2, 4, 0, 0, 0, -1414, 644, 16692, 1197, 14, 18, 13, 0, 0
53, 476764792, 5, 1860, 0, 0, 0, 232, 232, 232, 232, 61, 73, 9592, -1, 1, -4, 0, 0, 0, -1572, 148, 16714, 1197, 14, 18, 13, 0, 0
54, 476774846, 5, 1860, 0, 0, 0, 232, 232, 232, 232, 61, 71, 9592, 0, 4, 4, 0, 0, 0, -1084, 194, 16580, 1197, 14, 18, 13, 0, 0
55, 476784884, 5, 1860, 0, 0, 0, 232, 232, 232, 232, 60, 72, 9592, -1, 3, 4, 0, 0, 0, -1894, 522, 16508, 1197, 14, 18, 13, 0, 0
56, 476794968, 5, 1860, 0, 0, 0, 232, 232, 232, 232, 61, 72, 9592, 0, -2, -1, 0, 0, 0, -1018, 36, 16472, 1197, 14, 18, 13, 0, 0
57, 476804966, 5, 1860, 0, 0, 0, 232, 232, 232, 232, 61, 71, 9592, -1, 1, 1, 0, 0, 0, -1138, 324, 15878, 1190, 14, 18, 13, 0, 0
58, 476815070, 5, 1860, 0, 0, 0, 232, 232, 232, 232, 60, 73, 9593, -1, 5, 2, 0, 0, 0, -1872, 388, 15676, 1190, 14, 18, 13, 0, 0
59, 476825030, 5, 1860, 0, 0, 0, 232, 232, 232, 232, 62, 71, 9592, 1, 0, 2, 0, 0, 0, -340, 206, 15854, 1190, 14, 18, 13, 0, 0
60, 476835235, 5, 1860, 0, 0, 0, 232, 232, 232, 232, 62, 73, 9592, 0, -6, -2, 0, 0, 0, -1900, 358, 15880, 1190, 14, 18, 13, 0, 0
61, 476845126, 5, 1860, 0, 0, 0, 232, 232, 232, 232, 62, 73, 9593, -2, 6, 4, 0, 0, 0, -1462, 262, 15554, 1190, 14, 18, 13, 0, 0
62, 476855325, 5, 1860, 0, 0, 0, 232, 232, 232, 232, 62, 71, 9593, 1, -1, 4, 0, 0, 0, -552, 302, 16168, 1183, 14, 18, 13, 0, 0
63, 476865172, 5, 1860, 0, 0, 0, 232, 232, 232, 232, 62, 73, 9592, 0, -2, -4, 0, 0, 0, -1974, 94, 15664, 1183, 14, 18, 13, 0, 0
64, 476875309, 5, 1860, 0, 0, 0, 232, 232, 232, 232, 61, 73, 9593, -1, 5, 6, 0, 0, 0, -1010, 302, 15654, 1183, 14, 18, 13, 0, 0
65, 476885287, 5, 1860, 0, 0, 0, 232, 232, 232, 232, 62, 72, 9593, 1, -2, 4, 0, 0, 0, -998, 240, 16176, 1183, 14, 18, 13, 0, 0
66, 476895322, 5, 1860, 0, 0, 0, 232, 232, 232, 232, 62, 74, 9593, -1, -2, -3, 0, 0, 0, -1808, 110, 16078, 1183, 14, 18, 13, 0, 0
67, 476905372, 5, 1860, 0, 0, 0, 232, 232, 232, 232, 61, 72, 9593, -1, 4, 4, 0, 0, 0, -1286, 358, 16330, 1183, 14, 18, 13, 0, 0
68, 476915403, 5, 1860, 0, 0, 0, 232, 232, 232, 232, 61, 72, 9594, -1, 1, 2, 0, 0, 0, -1262, 74, 16088, 1183, 14, 18, 13, 0, 0
69, 476925436, 5, 1860, 0, 0, 0, 232, 232, 232, 232, 60, 73, 9594, -1, 2, -1, 0, 0, 0, -1388, 150, 15828, 1183, 14, 18, 13, 0, 0
70, 476935479, 5, 1860, 0, 0, 0, 232, 232, 232, 232, 60, 73, 9594, -1, 1, 2, 0, 0, 0, -1074, 204, 15764, 1183, 14, 18, 13, 0, 0
71, 476945532, 5, 1860, 0, 0, 0, 232, 232, 232, 232, 60, 73, 9594, 0, 0, 2, 0, 0, 0, -1108, 224, 15910, 1183, 14, 18, 13, 0, 0
72, 476955551, 5, 1860, 0, 0, 0, 232, 232, 232, 232, 60, 74, 9594, 0, -3, 0, 0, 0, 0, -1454, 240, 16272, 1190, 14, 18, 13, 0, 0
73, 476965598, 5, 1860, 0, 0, 0, 232, 232, 232, 232, 60, 73, 9594, 0, -1, 0, 0, 0, 0, -1560, 196, 16752, 1190, 14, 18, 13, 0, 0
74, 476975621, 5, 1860, 0, 0, 0, 232, 232, 232, 232, 59, 72, 9594, -1, 3, 2, 0, 0, 0, -1194, 274, 16840, 1190, 14, 18, 13, 0, 0
75, 476985673, 5, 1860, 0, 0, 0, 232, 232, 232, 232, 59, 73, 9594, -1, 3, 2, 0, 0, 0, -1550, 332, 16362, 1190, 14, 18, 13, 0, 0
76, 476995733, 5, 1860, 0, 0, 0, 232, 232, 232, 232, 59, 73, 9594, -1, 1, 1, 0, 0, 0, -1384, 210, 16348, 1190, 14, 18, 13, 0, 0
77, 477005757, 5, 1860, 0, 0, 0, 232, 232, 232, 232, 59, 72, 9594, 1, 0, 2, 0, 0, 0, -936, 96, 16574, 1190, 14, 18, 13, 0, 0
78, 477015794, 5, 1860, 0, 0, 0, 232, 232, 232, 232, 59, 73, 9595, -1, 2, 4, 0, 0, 0, -2000, 358, 16434, 1190, 14, 18, 13, 0, 0
79, 477025886, 5, 1860, 0, 0, 0, 232, 232, 232, 232, 59, 73, 9595, -1, 1, 1, 0, 0, 0, -1262, 222, 16476, 1190, 14, 18, 13, 0, 0
80, 477035870, 5, 1860, 0, 0, 0, 232, 232, 232, 232, 59, 71, 9595, 1, 3, 1, 0, 0, 0, -944, 152, 16284, 1190, 14, 18, 13, 0, 0
81, 477046052, 5, 1860, 0, 0, 0, 232, 232, 232, 232, 58, 73, 9595, -1, 1, 4, 0, 0, 0, -1886, 478, 15782, 1190, 14, 18, 13, 0, 0
82, 477055934, 5, 1860, 0, 1, 0, 232, 232, 232, 232, 59, 72, 9595, 0, -2, 0, 0, 0, 0, -1096, 390, 15954, 1183, 14, 18, 13, 0, 0
83, 477066134, 5, 1860, 0, 1, 0, 232, 232, 232, 232, 60, 71, 9595, 1, 1, -2, 0, 0, 0, -932, 264, 15988, 1183, 14, 18, 13, 0, 0
84, 477076028, 5, 1860, 0, 1, 0, 232, 232, 232, 232, 60, 73, 9595, -1, 2, 5, 0, 0, 0, -2132, 492, 16248, 1183, 14, 18, 13, 0, 0
85, 477086151, 5, 1860, 0, 1, 0, 232, 232, 232, 232, 61, 71, 9596, -1, 1, 3, 0, 0, 0, -1028, 452, 16692, 1183, 14, 18, 13, 0, 0
86, 477096095, 5, 1860, 0, 0, 0, 232, 232, 232, 232, 63, 71, 9595, 0, 2, -5, 0, 0, 0, -1370, 294, 16466, 1183, 14, 18, 13, 0, 0
87, 477106123, 5, 1860, 0, 0, 0, 232, 232, 232, 232, 63, 72, 9595, -2, 4, 5, 0, 0, 0, -1900, 470, 16258, 1183, 14, 18, 13, 0, 0
88, 477116158, 5, 1860, 0, 1, 0, 232, 232, 232, 232, 64, 71, 9596, 1, -1, 7, 0, 0, 0, -744, 340, 16288, 1183, 14, 18, 13, 0, 0
89, 477126201, 5, 1860, 0, 1, 0, 232, 232, 232, 232, 65, 71, 9595, 0, -1, -7, 0, 0, 0, -1406, 452, 16014, 1183, 14, 18, 13, 0, 0
90, 477136407, 5, 1860, 0, 3, 0, 232, 232, 232, 232, 65, 72, 9595, -2, 0, 4, 0, 0, 0, -1754, 286, 16586, 1183, 14, 18, 13, 0, 0
91, 477146657, 5, 1860, 0, 3, 0, 232, 232, 232, 232, 65, 71, 9596, 1, 2, 9, 0, 0, 0, -890, 186, 16466, 1183, 14, 18, 13, 0, 0
92, 477156315, 5, 1860, 0, 8, 0, 232, 232, 232, 232, 66, 71, 9596, 0, 0, -7, 0, 0, 0, -1546, 596, 16176, 1183, 14, 18, 13, 0, 0
93, 477166357, 5, 1860, 0, 8, 0, 232, 232, 232, 232, 66, 72, 9596, -1, 0, 3, 0, 0, 0, -1286, 242, 16582, 1183, 14, 18, 13, 0, 0
94, 477176382, 5, 1860, 0, 8, 0, 232, 232, 232, 232, 67, 71, 9596, 3, 1, 10, 0, 0, 0, -1106, 204, 16936, 1183, 14, 18, 13, 0, 0
95, 477186417, 5, 1860, 0, 8, 0, 232, 232, 232, 232, 67, 72, 9596, -2, 4, -7, 0, 0, 0, -1684, 664, 16786, 1183, 14, 18, 13, 0, 0
96, 477196468, 5, 1860, 0, 8, 0, 232, 232, 232, 232, 68, 72, 9596, -1, -2, 2, 0, 0, 0, -1400, 194, 16878, 1197, 14, 18, 13, 0, 0
97, 477206514, 5, 1860, 0, 8, 0, 232, 232, 232, 232, 68, 71, 9597, 4, 6, 10, 0, 0, 0, -1064, -16, 16414, 1197, 14, 18, 13, 0, 0
98, 477216564, 5, 1860, 0, 8, 0, 232, 232, 232, 232, 68, 72, 9597, -3, 1, -6, 0, 0, 0, -1462, 734, 16370, 1197, 14, 18, 13, 0, 0
99, 477226591, 5, 1860, 0, 8, 0, 232, 232, 232, 232, 69, 72, 9596, -1, -1, -1, 0, 0, 0, -1220, 38, 16096, 1197, 14, 18, 13, 0, 0
100, 477236690, 5, 1860, 0, 8, 0, 232, 232, 232, 232, 69, 72, 9597, 4, 3, 13, 0, 0, 0, -966, -54, 16168, 1197, 14, 18, 13, 0, 0
101, 477246926, 5, 1860, 0, 8, 0, 232, 232, 232, 232, 68, 73, 9597, -4, 1, -5, 0, 0, 0, -1482, 824, 16126, 1183, 14, 18, 13, 0, 0
102, 477256822, 5, 1860, 0, 8, 0, 232, 232, 232, 232, 69, 73, 9596, -1, -4, -5, 0, 0, 0, -1356, 4, 16444, 1183, 14, 18, 13, 0, 0
103, 477266750, 5, 1860, 0, 8, 0, 232, 232, 232, 232, 69, 73, 9597, 4, 2, 13, 0, 0, 0, -1114, -176, 16732, 1183, 14, 18, 13, 0, 0
104, 477276936, 5, 1860, 0, 8, 0, 232, 232, 232, 232, 67, 73, 9598, -3, 3, -3, 0, 0, 0, -1706, 804, 16652, 1183, 14, 18, 13, 0, 0
105, 477286808, 5, 1860, 0, 8, 0, 232, 232, 232, 232, 68, 73, 9597, -1, -2, -7, 0, 0, 0, -1314, 70, 16478, 1183, 14, 18, 13, 0, 0
106, 477296982, 5, 1860, 0, 8, 0, 232, 232, 232, 232, 68, 72, 9598, 5, 0, 12, 0, 0, 0, -1100, -318, 16752, 1183, 14, 18, 13, 0, 0
107, 477306894, 5, 1860, 0, 8, 0, 232, 232, 232, 232, 66, 73, 9598, -2, 4, -1, 0, 0, 0, -1822, 786, 16188, 1183, 14, 18, 13, 0, 0
108, 477316956, 5, 1860, 0, 8, 0, 232, 232, 232, 232, 67, 73, 9597, -1, -1, -9, 0, 0, 0, -1026, -70, 15882, 1183, 14, 18, 13, 0, 0
109, 477326968, 5, 1860, 0, 8, 0, 232, 232, 232, 232, 67, 72, 9598, 3, -2, 11, 0, 0, 0, -1210, 14, 16230, 1183, 14, 18, 13, 0, 0
110, 477337013, 5, 1860, 0, 8, 0, 232, 232, 232, 232, 65, 74, 9599, -2, 2, 3, 0, 0, 0, -1680, 820, 15822, 1183, 14, 18, 13, 0, 0
111, 477347294, 5, 1860, 0, 8, 0, 232, 232, 232, 232, 67, 73, 9598, -1, 2, -7, 0, 0, 0, -764, -34, 15614, 1190, 14, 18, 13, 0, 0
112, 477357084, 5, 1860, 0, 8, 0, 232, 232, 232, 232, 67, 73, 9598, 3, -6, 8, 0, 0, 0, -1512, 340, 16250, 1190, 14, 18, 13, 0, 0
113, 477367124, 5, 1860, 0, 8, 0, 232, 232, 232, 232, 66, 74, 9599, -3, 2, 4, 0, 0, 0, -1834, 640, 15792, 1190, 14, 18, 13, 0, 0
114, 477377156, 5, 1860, 0, 8, 0, 232, 232, 232, 232, 68, 72, 9598, 0, 5, -6, 0, 0, 0, -326, -48, 15800, 1190, 14, 18, 13, 0, 0
115, 477387205, 5, 1860, 0, 8, 0, 232, 232, 232, 232, 67, 74, 9598, 1, -7, 5, 0, 0, 0, -1656, 394, 16308, 1190, 14, 18, 13, 0, 0
116, 477397229, 5, 1860, 0, 8, 0, 232, 232, 232, 232, 66, 75, 9599, -1, 0, 5, 0, 0, 0, -1824, 358, 16542, 1183, 14, 18, 13, 0, 0
117, 477407279, 5, 1860, 0, 8, 0, 232, 232, 232, 232, 68, 73, 9599, -1, 2, -3, 0, 0, 0, -650, 84, 17028, 1183, 14, 18, 13, 0, 0
118, 477417312, 5, 1860, 0, 8, 0, 232, 232, 232, 232, 67, 73, 9599, 0, 0, 4, 0, 0, 0, -1852, 374, 16808, 1183, 14, 18, 13, 0, 0
119, 477427358, 5, 1860, 0, 8, 0, 232, 232, 232, 232, 66, 74, 9600, -1, 5, 6, 0, 0, 0, -1438, 178, 16502, 1183, 14, 18, 13, 0, 0
120, 477437389, 5, 1860, 0, 8, 0, 232, 232, 232, 232, 67, 72, 9600, 0, -5, -2, 0, 0, 0, -998, 354, 17196, 1183, 14, 18, 13, 0, 0
121, 477447653, 5, 1860, 0, 8, 0, 232, 232, 232, 232, 67, 73, 9599, -1, 1, 1, 0, 0, 0, -2112, 210, 16906, 1197, 14, 18, 13, 0, 0
122, 477457463, 5, 1860, 0, 8, 0, 232, 232, 232, 232, 66, 73, 9600, -1, 9, 8, 0, 0, 0, -1014, 286, 16216, 1197, 14, 18, 13, 0, 0
123, 477467632, 5, 1860, 0, 8, 0, 232, 232, 232, 232, 67, 72, 9600, 0, -4, -1, 0, 0, 0, -1294, 308, 16818, 1197, 14, 18, 13, 0, 0
124, 477477547, 5, 1918, 0, 8, 0, 232, 232, 232, 232, 67, 73, 9600, -1, 4, -2, 0, 0, 0, -1834, 178, 15778, 1197, 14, 18, 13, 0, 0
125, 477487761, 5, 1918, 0, 8, 0, 239, 239, 239, 239, 66, 72, 9600, 0, 4, 7, 0, 0, 0, -1066, 250, 15390, 1197, 14, 18, 13, 0, 0
126, 477497619, 5, 1918, 0, 8, 0, 239, 239, 239, 239, 67, 72, 9601, -1, 4, 1, 0, 0, 0, -1002, 280, 14968, 1197, 14, 18, 13, 0, 0
127, 477507824, 5, 1918, 0, 8, 0, 239, 239, 239, 239, 67, 73, 9600, -1, -3, -2, 0, 0, 0, -1332, 332, 15304, 1197, 14, 18, 13, 0, 0
128, 477517706, 5, 1918, 0, 8, 0, 239, 239, 239, 239, 67, 72, 9601, 1, -4, 5, 0, 0, 0, -1154, 160, 15744, 1197, 14, 18, 13, 0, 0
129, 477527785, 5, 1918, 0, 8, 0, 239, 239, 239, 239, 67, 74, 9601, -1, 3, 1, 0, 0, 0, -1336, 384, 15460, 1197, 14, 18, 13, 0, 0
130, 477537776, 5, 1918, 0, 8, 0, 239, 239, 239, 239, 67, 73, 9601, -1, 1, 0, 0, 0, 0, -892, 434, 16170, 1197, 14, 18, 13, 0, 0
131, 477547968, 5, 1918, 0, 8, 0, 239, 239, 239, 239, 67, 73, 9601, 1, -3, 3, 0, 0, 0, -1466, 102, 16476, 1197, 14, 18, 13, 0, 0
132, 477557869, 5, 1947, 0, 8, 0, 239, 239, 239, 239, 67, 74, 9601, -1, 4, 1, 0, 0, 0, -1648, 398, 16060, 1197, 14, 18, 13, 0, 0
133, 477567895, 5, 1947, 0, 8, 0, 243, 243, 243, 243, 68, 73, 9601, 0, -1, 1, 0, 0, 0, -788, 410, 16736, 1197, 14, 18, 13, 0, 0
134, 477577931, 5, 1947, 0, 8, 0, 243, 243, 243, 243, 68, 73, 9601, 1, -1, 1, 0, 0, 0, -1696, 62, 16750, 1197, 14, 18, 13, 0, 0
135, 477587986, 5, 1947, 0, 8, 0, 243, 243, 243, 243, 68, 74, 9601, -1, 3, 2, 0, 0, 0, -1644, 476, 16586, 1197, 14, 18, 13, 0, 0
136, 477598011, 5, 1947, 0, 8, 0, 243, 243, 243, 243, 69, 72, 9602, 0, -1, 2, 0, 0, 0, -864, 472, 16974, 1190, 14, 18, 13, 0, 0
137, 477608045, 5, 1947, 0, 8, 0, 243, 243, 243, 243, 69, 73, 9601, 1, -1, -2, 0, 0, 0, -2104, -40, 16606, 1190, 14, 18, 13, 0, 0
138, 477618095, 5, 1947, 0, 8, 0, 243, 243, 243, 243, 69, 73, 9602, -1, 6, 5, 0, 0, 0, -1320, 476, 16046, 1190, 14, 18, 13, 0, 0
139, 477628126, 5, 1947, 0, 8, 0, 243, 243, 243, 243, 69, 72, 9602, 0, -2, 5, 0, 0, 0, -786, 434, 16590, 1190, 14, 18, 13, 0, 0
140, 477638163, 5, 1947, 0, 8, 0, 243, 243, 243, 243, 69, 73, 9602, 0, -4, -4, 0, 0, 0, -1936, -228, 16566, 1190, 14, 18, 13, 0, 0
141, 477648343, 5, 1947, 0, 8, 0, 243, 243, 243, 243, 68, 72, 9602, -1, 6, 4, 0, 0, 0, -1222, 362, 16172, 1183, 14, 18, 13, 0, 0
142, 477658252, 5, 1947, 0, 8, 0, 243, 243, 243, 243, 68, 72, 9603, -2, 1, 4, 0, 0, 0, -1094, 260, 16282, 1183, 14, 18, 13, 0, 0
143, 477668275, 5, 1947, 0, 8, 0, 243, 243, 243, 243, 68, 73, 9602, 0, -2, -5, 0, 0, 0, -1590, -130, 15932, 1183, 14, 18, 13, 0, 0
144, 477678390, 5, 1947, 0, 8, 0, 243, 243, 243, 243, 66, 73, 9603, 1, 4, 6, 0, 0, 0, -1144, 102, 15896, 1183, 14, 18, 13, 0, 0
145, 477688353, 5, 1976, 0, 8, 0, 243, 243, 243, 243, 66, 73, 9603, -1, -1, 3, 0, 0, 0, -1294, 462, 16058, 1183, 14, 18, 13, 0, 0
146, 477698516, 5, 1976, 0, 8, 0, 247, 247, 247, 247, 66, 73, 9602, -1, 2, -6, 0, 0, 0, -1370, -14, 15814, 1183, 14, 18, 13, 0, 0
147, 477708416, 5, 1976, 0, 8, 0, 247, 247, 247, 247, 66, 73, 9603, 2, 2, 8, 0, 0, 0, -1206, 2, 16162, 1183, 14, 18, 13, 0, 0
148, 477718626, 5, 1976, 0, 8, 0, 247, 247, 247, 247, 65, 74, 9604, -2, -2, 4, 0, 0, 0, -1224, 720, 16100, 1183, 14, 18, 13, 0, 0
149, 477728509, 5, 2005, 0, 8, 0, 247, 247, 247, 247, 65, 74, 9603, -1, 1, -7, 0, 0, 0, -1334, 24, 15934, 1183, 14, 18, 13, 0, 0
150, 477738620, 5, 2005, 0, 8, 0, 250, 250, 250, 250, 65, 73, 9603, 3, -1, 8, 0, 0, 0, -1314, 124, 16468, 1183, 14, 18, 13, 0, 0
151, 477748780, 5, 2005, 0, 8, 0, 250, 250, 250, 250, 64, 74, 9604, -3, 1, 4, 0, 0, 0, -1570, 468, 16244, 1176, 14, 18, 13, 0, 0
152, 477758614, 5, 2005, 0, 8, 0, 250, 250, 250, 250, 64, 74, 9603, -1, 6, -7, 0, 0, 0, -938, 202, 15818, 1176, 14, 18, 13, 0, 0
153, 477768650, 5, 2005, 0, 8, 0, 250, 250, 250, 250, 64, 74, 9604, 3, -2, 7, 0, 0, 0, -1110, 132, 16040, 1176, 14, 18, 13, 0, 0
154, 477778680, 5, 2005, 0, 8, 0, 250, 250, 250, 250, 64, 75, 9604, -3, 2, 3, 0, 0, 0, -1564, 512, 15708, 1176, 14, 18, 13, 0, 0
155, 477788721, 5, 2005, 0, 8, 0, 250, 250, 250, 250, 65, 75, 9604, -1, 4, -5, 0, 0, 0, -1056, 234, 15930, 1176, 14, 18, 13, 0, 0
156, 477798768, 5, 2005, 0, 8, 0, 250, 250, 250, 250, 65, 74, 9604, 4, -4, 7, 0, 0, 0, -994, 132, 15960, 1190, 14, 18, 13, 0, 0
157, 477808802, 5, 2034, 0, 8, 0, 250, 250, 250, 250, 64, 76, 9605, -4, 6, 2, 0, 0, 0, -1732, 554, 15628, 1190, 14, 18, 13, 0, 0
158, 477818844, 5, 2034, 0, 8, 0, 254, 254, 254, 254, 65, 75, 9604, -1, -3, -5, 0, 0, 0, -1106, -12, 16246, 1190, 14, 18, 13, 0, 0
159, 477828874, 5, 2034, 0, 8, 0, 254, 254, 254, 254, 65, 74, 9604, 4, 1, 7, 0, 0, 0, -984, 30, 16136, 1190, 14, 18, 13, 0, 0
160, 477838902, 5, 2034, 0, 8, 0, 254, 254, 254, 254, 63, 76, 9605, -2, -2, 3, 0, 0, 0, -1992, 680, 16372, 1190, 14, 18, 13, 0, 0
161, 477849023, 5, 2034, 0, 8, 0, 254, 254, 254, 254, 64, 75, 9605, -3, 0, -4, 0, 0, 0, -1038, 274, 16166, 1176, 14, 18, 13, 0, 0
162, 477858999, 5, 2034, 0, 8, 0, 254, 254, 254, 254, 65, 74, 9605, 5, 0, 8, 0, 0, 0, -980, -360, 16302, 1176, 14, 18, 13, 0, 0
163, 477869027, 5, 2034, 0, 8, 0, 254, 254, 254, 254, 63, 76, 9605, 0, -4, 4, 0, 0, 0, -1724, 504, 16384, 1176, 14, 18, 13, 0, 0
164, 477879070, 5, 2034, 0, 8, 0, 254, 254, 254, 254, 63, 76, 9605, -4, 2, -6, 0, 0, 0, -1572, 536, 16248, 1176, 14, 18, 13, 0, 0
165, 477889192, 5, 2034, 0, 8, 0, 254, 254, 254, 254, 64, 75, 9605, 0, 1, 4, 0, 0, 0, -812, -256, 15894, 1176, 14, 18, 13, 0, 0
166, 477899160, 5, 2034, 0, 8, 0, 254, 254, 254, 254, 62, 76, 9606, 2, 0, 7, 0, 0, 0, -1356, 158, 16104, 1183, 14, 18, 13, 0, 0
167, 477909317, 5, 2034, 0, 8, 0, 254, 254, 254, 254, 62, 76, 9605, -1, -2, -9, 0, 0, 0, -1664, 422, 16140, 1183, 14, 18, 13, 0, 0
168, 477919251, 5, 2078, 0, 8, 0, 254, 254, 254, 254, 63, 75, 9605, -1, 5, 3, 0, 0, 0, -1086, 240, 16120, 1183, 14, 18, 13, 0, 0
169, 477929449, 5, 2078, 0, 8, 0, 259, 259, 259, 259, 62, 76, 9606, 2, 2, 10, 0, 0, 0, -1220, 284, 16148, 1183, 14, 18, 13, 0, 0
170, 477939323, 5, 2078, 0, 3, 0, 259, 259, 259, 259, 64, 76, 9606, -1, 4, -6, 0, 0, 0, -1180, 382, 15738, 1183, 14, 18, 13, 0, 0
171, 477949491, 5, 2078, 0, 3, 0, 259, 259, 259, 259, 64, 76, 9605, 1, -5, 2, 0, 0, 0, -1464, -106, 16312, 1197, 14, 18, 13, 0, 0
172, 477959395, 5, 2078, 0, 5, 0, 259, 259, 259, 259, 62, 76, 9607, 0, 4, 10, 0, 0, 0, -1250, 626, 15608, 1197, 14, 18, 13, 0, 0
173, 477969443, 5, 2078, 0, 5, 0, 259, 259, 259, 259, 63, 76, 9606, -1, 0, -4, 0, 0, 0, -1300, 502, 16152, 1197, 14, 18, 13, 0, 0
174, 477979486, 5, 2078, 0, 5, 0, 259, 259, 259, 259, 63, 75, 9606, 1, 2, 5, 0, 0, 0, -1270, -496, 16340, 1197, 14, 18, 13, 0, 0
175, 477989534, 5, 2078, 0, 5, 0, 259, 259, 259, 259, 62, 76, 9607, 1, -2, 2, 0, 0, 0, -1120, 98, 15670, 1197, 14, 18, 13, 0, 0
176, 477999569, 5, 2078, 0, 5, 0, 259, 259, 259, 259, 62, 77, 9606, -2, 0, -7, 0, 0, 0, -1860, 582, 16326, 1190, 14, 18, 13, 0, 0
177, 478009609, 5, 2078, 0, 5, 0, 259, 259, 259, 259, 61, 76, 9607, -1, 4, 10, 0, 0, 0, -792, -14, 15928, 1190, 14, 18, 13, 0, 0
178, 478019650, 5, 2078, 0, 5, 0, 259, 259, 259, 259, 61, 76, 9607, 1, -1, 0, 0, 0, 0, -1168, 188, 16274, 1190, 14, 18, 13, 0, 0
179, 478029684, 5, 2078, 0, 5, 0, 259, 259, 259, 259, 61, 77, 9606, -1, 4, -5, 0, 0, 0, -1198, 84, 15440, 1190, 14, 18, 13, 0, 0
180, 478039727, 5, 2078, 0, 5, 0, 259, 259, 259, 259, 60, 77, 9608, 0, -9, 10, 0, 0, 0, -2050, 412, 16998, 1190, 14, 18, 13, 0, 0
181, 478049782, 5, 2078, 0, 5, 0, 259, 259, 259, 259, 60, 76, 9607, -1, 6, -5, 0, 0, 0, -904, 436, 16058, 1183, 14, 18, 13, 0, 0
182, 478059804, 5, 2078, 0, 5, 0, 259, 259, 259, 259, 61, 76, 9607, 1, 1, 5, 0, 0, 0, -1406, -102, 16332, 1183, 14, 18, 13, 0, 0
183, 478069861, 5, 2078, 0, 5, 0, 259, 259, 259, 259, 60, 76, 9608, 0, 3, 7, 0, 0, 0, -1048, 294, 15966, 1183, 14, 18, 13, 0, 0
184, 478079897, 5, 2078, 0, 5, 0, 259, 259, 259, 259, 61, 77, 9607, -1, -5, -8, 0, 0, 0, -1434, 198, 16268, 1183, 14, 18, 13, 0, 0
185, 478089928, 5, 2078, 0, 5, 0, 259, 259, 259, 259, 60, 77, 9608, 2, 0, 8, 0, 0, 0, -1744, 374, 16898, 1183, 14, 18, 13, 0, 0
186, 478100009, 5, 2078, 0, 5, 0, 259, 259, 259, 259, 60, 76, 9608, -1, 9, 3, 0, 0, 0, -780, 562, 16066, 1190, 14, 18, 13, 0, 0
187, 478110007, 5, 2078, 0, 5, 0, 259, 259, 259, 259, 62, 76, 9608, 0, -6, -4, 0, 0, 0, -1292, -66, 16534, 1190, 14, 18, 13, 0, 0
188, 478120163, 5, 2078, 0, 5, 0, 259, 259, 259, 259, 61, 77, 9608, 0, 3, 8, 0, 0, 0, -1718, 80, 16494, 1190, 14, 18, 13, 0, 0
189, 478130091, 5, 2078, 0, 5, 0, 259, 259, 259, 259, 61, 77, 9608, -3, 3, -5, 0, 0, 0, -1480, 616, 16280, 1190, 14, 18, 13, 0, 0
190, 478140307, 5, 2078, 0, 5, 0, 259, 259, 259, 259, 61, 76, 9608, -1, 6, 3, 0, 0, 0, -966, 134, 15466, 1190, 14, 18, 13, 0, 0
191, 478150189, 5, 2107, 0, 5, 0, 259, 259, 259, 259, 60, 77, 9609, 1, -3, 7, 0, 0, 0, -1302, 178, 16236, 1183, 14, 18, 13, 0, 0
192, 478160374, 5, 2107, 0, 5, 0, 263, 263, 263, 263, 60, 76, 9609, -1, 2, -6, 0, 0, 0, -1390, 24, 16030, 1183, 14, 18, 13, 0, 0
193, 478170259, 5, 2107, 0, 5, 0, 263, 263, 263, 263, 61, 76, 9609, 2, -4, 4, 0, 0, 0, -1170, 152, 16266, 1183, 14, 18, 13, 0, 0
194, 478180339, 5, 2107, 0, 5, 0, 263, 263, 263, 263, 60, 77, 9609, -2, 3, 3, 0, 0, 0, -1584, 746, 16038, 1183, 14, 18, 13, 0, 0
195, 478190338, 5, 2107, 0, 5, 0, 263, 263, 263, 263, 61, 77, 9609, 1, -4, -2, 0, 0, 0, -1454, 190, 16050, 1183, 14, 18, 13, 0, 0
196, 478200370, 5, 2107, 0, 5, 0, 263, 263, 263, 263, 61, 77, 9609, 2, 5, 5, 0, 0, 0, -1200, -246, 16246, 1183, 14, 18, 13, 0, 0
197, 478210432, 5, 2135, 0, 5, 0, 263, 263, 263, 263, 61, 77, 9610, -1, 2, 1, 0, 0, 0, -1438, 442, 16134, 1183, 14, 18, 13, 0, 0
198, 478220471, 5, 2135, 0, 5, 0, 266, 266, 266, 266, 60, 76, 9609, -1, 1, 1, 0, 0, 0, -1480, 342, 16174, 1183, 14, 18, 13, 0, 0
199, 478230504, 5, 2135, 0, 5, 0, 266, 266, 266, 266, 60, 77, 9610, -1, -3, 1, 0, 0, 0, -1296, 172, 16018, 1183, 14, 18, 13, 0, 0
200, 478240546, 5, 2135, 0, 5, 0, 266, 266, 266, 266, 60, 76, 9610, 2, -3, 1, 0, 0, 0, -1350, 430, 16382, 1183, 14, 18, 13, 0, 0
201, 478250580, 5, 2135, 0, 5, 0, 266, 266, 266, 266, 61, 75, 9610, 1, 3, 1, 0, 0, 0, -1416, -148, 16720, 1197, 14, 18, 13, 0, 0
202, 478260628, 5, 2135, 0, 5, 0, 266, 266, 266, 266, 60, 76, 9610, -3, 1, 2, 0, 0, 0, -1380, 700, 15834, 1197, 14, 18, 13, 0, 0
203, 478270674, 5, 2135, 0, 4, 0, 266, 266, 266, 266, 61, 76, 9610, 0, -2, 3, 0, 0, 0, -1378, 228, 16046, 1197, 14, 18, 13, 0, 0
204, 478280713, 5, 2135, 0, 4, 0, 266, 266, 266, 266, 60, 76, 9610, -1, 3, 1, 0, 0, 0, -828, 42, 16196, 1197, 14, 18, 13, 0, 0
205, 478290748, 5, 2135, 0, 1, 0, 266, 266, 266, 266, 60, 76, 9610, 0, -4, 3, 0, 0, 0, -1864, 350, 16454, 1197, 14, 18, 13, 0, 0
206, 478300785, 5, 2135, 0, 1, 0, 266, 266, 266, 266, 61, 76, 9611, -1, 9, 0, 0, 0, 0, -1274, 168, 15622, 1176, 14, 18, 13, 0, 0
207, 478310837, 5, 2135, 0, 1, 0, 266, 266, 266, 266, 60, 77, 9611, -1, -1, 4, 0, 0, 0, -1212, 526, 16092, 1176, 14, 18, 13, 0, 0
208, 478320876, 5, 2135, 0, 1, 0, 266, 266, 266, 266, 61, 76, 9611, 1, 5, 7, 0, 0, 0, -1348, 230, 16300, 1176, 14, 18, 13, 0, 0
209, 478331001, 5, 2135, 0, 1, 0, 266, 266, 266, 266, 61, 76, 9611, 0, 0, -6, 0, 0, 0, -1438, 92, 16222, 1176, 14, 18, 13, 0, 0
210, 478340954, 5, 2135, 0, 2, 0, 266, 266, 266, 266, 61, 77, 9611, -2, 6, 4, 0, 0, 0, -1220, 508, 15306, 1176, 14, 18, 13, 0, 0
211, 478351123, 5, 2135, 0, 2, 0, 266, 266, 266, 266, 61, 76, 9611, 0, -8, 3, 0, 0, 0, -1506, 270, 16214, 1190, 14, 18, 13, 0, 0
212, 478361192, 5, 2164, 0, 1, 0, 266, 266, 266, 266, 61, 75, 9611, -2, 3, 0, 0, 0, 0, -1438, 334, 16832, 1190, 14, 18, 13, 0, 0
213, 478371229, 5, 2164, 0, 1, 0, 270, 270, 270, 270, 61, 75, 9611, -1, 3, 6, 0, 0, 0, -854, 368, 15722, 1190, 14, 18, 13, 0, 0
214, 478381107, 5, 2164, 0, 1, 0, 270, 270, 270, 270, 62, 76, 9611, 0, -9, -6, 0, 0, 0, -1470, 90, 16498, 1190, 14, 18, 13, 0, 0
215, 478391210, 5, 2164, 0, 1, 0, 270, 270, 270, 270, 61, 76, 9611, -1, 4, 4, 0, 0, 0, -1874, 362, 16654, 1190, 14, 18, 13, 0, 0
216, 478401191, 5, 2164, 0, 1, 0, 270, 270, 270, 270, 62, 75, 9612, 1, 6, 7, 0, 0, 0, -860, 150, 15692, 1183, 14, 18, 13, 0, 0
217, 478411219, 5, 2164, 0, 1, 0, 270, 270, 270, 270, 62, 76, 9612, 0, -5, -4, 0, 0, 0, -1028, 212, 16250, 1183, 14, 18, 13, 0, 0
218, 478421272, 5, 2164, 0, 1, 0, 270, 270, 270, 270, 61, 77, 9612, -2, 1, 6, 0, 0, 0, -1908, 550, 16634, 1183, 14, 18, 13, 0, 0
219, 478431300, 5, 2164, 0, 1, 0, 270, 270, 270, 270, 62, 76, 9612, -1, 3, -3, 0, 0, 0, -1052, 102, 16458, 1183, 14, 18, 13, 0, 0
220, 478441349, 5, 2164, 0, 1, 0, 270, 270, 270, 270, 62, 76, 9612, -1, 2, 4, 0, 0, 0, -1452, 86, 16174, 1183, 14, 18, 13, 0, 0
221, 478451379, 5, 2164, 0, 1, 0, 270, 270, 270, 270, 62, 76, 9613, 1, 3, 4, 0, 0, 0, -1132, 106, 15684, 1183, 14, 18, 13, 0, 0
222, 478461412, 5, 2194, 0, 1, 0, 270, 270, 270, 270, 61, 77, 9612, -2, -3, -5, 0, 0, 0, -1284, 202, 16434, 1183, 14, 18, 13, 0, 0
223, 478471474, 5, 2194, 0, 1, 0, 274, 274, 274, 274, 60, 76, 9613, -1, 6, 9, 0, 0, 0, -1496, 444, 16338, 1183, 14, 18, 13, 0, 0
224, 478481525, 5, 2194, 0, 1, 0, 274, 274, 274, 274, 60, 76, 9613, -1, 1, -4, 0, 0, 0, -1132, 248, 15896, 1183, 14, 18, 13, 0, 0
225, 478491544, 5, 2194, 0, 1, 0, 274, 274, 274, 274, 60, 77, 9612, 0, -3, 2, 0, 0, 0, -1414, -62, 16222, 1183, 14, 18, 13, 0, 0
226, 478501583, 5, 2194, 0, 1, 0, 274, 274, 274, 274, 61, 77, 9613, 1, 4, 4, 0, 0, 0, -1246, 122, 15958, 1190, 14, 18, 13, 0, 0
227, 478511619, 5, 2194, 0, 1, 0, 274, 274, 274, 274, 61, 77, 9612, -1, -3, -7, 0, 0, 0, -1090, 246, 16126, 1190, 14, 18, 13, 0, 0
228, 478521686, 5, 2194, 0, 1, 0, 274, 274, 274, 274, 60, 77, 9613, 0, -2, 10, 0, 0, 0, -1736, 460, 16764, 1190, 14, 18, 13, 0, 0
229, 478531722, 5, 2194, 0, 1, 0, 274, 274, 274, 274, 60, 76, 9613, -1, 5, -3, 0, 0, 0, -1376, 514, 16484, 1190, 14, 18, 13, 0, 0
230, 478541813, 5, 2194, 0, 1, 0, 274, 274, 274, 274, 61, 77, 9613, -1, 2, 2, 0, 0, 0, -1066, -156, 15512, 1190, 14, 18, 13, 0, 0
231, 478551803, 5, 2194, 0, 1, 0, 274, 274, 274, 274, 61, 78, 9614, 2, -5, 5, 0, 0, 0, -1400, 384, 16052, 1190, 14, 18, 13, 0, 0
232, 478561971, 5, 2194, 0, 1, 0, 274, 274, 274, 274, 62, 77, 9613, 0, -1, -4, 0, 0, 0, -1518, 86, 16976, 1190, 14, 18, 13, 0, 0
233, 478571870, 5, 2223, 0, 1, 0, 274, 274, 274, 274, 61, 76, 9614, 0, 11, 11, 0, 0, 0, -1538, 422, 16080, 1190, 14, 18, 13, 0, 0
234, 478582072, 5, 2223, 0, 1, 0, 277, 277, 277, 277, 61, 77, 9614, 0, 0, -4, 0, 0, 0, -814, 536, 15266, 1190, 14, 18, 13, 0, 0
235, 478591944, 5, 2223, 0, 1, 0, 277, 277, 277, 277, 62, 77, 9614, 0, -9, 2, 0, 0, 0, -1822, -108, 17008, 1190, 14, 18, 13, 0, 0
236, 478602088, 5, 2223, 0, 1, 0, 277, 277, 277, 277, 61, 75, 9614, 1, 10, 4, 0, 0, 0, -1218, 366, 16294, 1183, 14, 18, 13, 0, 0
237, 478612027, 5, 2223, 0, 1, 0, 277, 277, 277, 277, 63, 77, 9614, -1, -3, -7, 0, 0, 0, -1194, 254, 15906, 1183, 14, 18, 13, 0, 0
238, 478622077, 5, 2223, 0, 1, 0, 277, 277, 277, 277, 62, 76, 9614, 0, 1, 9, 0, 0, 0, -1890, 102, 16768, 1183, 14, 18, 13, 0, 0
239, 478632117, 5, 2223, 0, 1, 0, 277, 277, 277, 277, 62, 76, 9614, -1, 7, -5, 0, 0, 0, -1096, 684, 15876, 1183, 14, 18, 13, 0, 0
240, 478642147, 5, 2223, 0, 1, 0, 277, 277, 277, 277, 63, 76, 9614, 1, -5, 4, 0, 0, 0, -1102, -56, 16016, 1183, 14, 18, 13, 0, 0
241, 478652186, 5, 2223, 0, 1, 0, 277, 277, 277, 277, 62, 76, 9615, 0, -1, 1, 0, 0, 0, -1410, 374, 16180, 1176, 14, 18, 13, 0, 0
242, 478662231, 5, 2223, 0, 1, 0, 277, 277, 277, 277, 63, 76, 9614, -2, 2, -5, 0, 0, 0, -1546, 318, 16034, 1176, 14, 18, 13, 0, 0
243, 478672284, 5, 2223, 0, 1, 0, 277, 277, 277, 277, 62, 76, 9615, 0, 5, 11, 0, 0, 0, -988, -16, 15560, 1176, 14, 18, 13, 0, 0
244, 478682314, 5, 2223, 0, 1, 0, 277, 277, 277, 277, 62, 76, 9614, 0, -6, -5, 0, 0, 0, -1426, 500, 16044, 1176, 14, 18, 13, 0, 0
245, 478692353, 5, 2223, 0, 1, 0, 277, 277, 277, 277, 63, 76, 9614, 0, 0, 4, 0, 0, 0, -1574, 12, 16420, 1176, 14, 18, 13, 0, 0
246, 478702386, 5, 2223, 0, 1, 0, 277, 277, 277, 277, 61, 76, 9615, -1, 2, 2, 0, 0, 0, -1242, 520, 16652, 1176, 14, 18, 13, 0, 0
247, 478712420, 5, 2223, 0, 1, 0, 277, 277, 277, 277, 63, 75, 9614, -1, 7, -5, 0, 0, 0, -976, 346, 15580, 1176, 14, 18, 13, 0, 0
248, 478722471, 5, 2223, 0, 1, 0, 277, 277, 277, 277, 63, 77, 9615, 1, -2, 8, 0, 0, 0, -1530, -162, 15920, 1176, 14, 18, 13, 0, 0
249, 478732511, 5, 2223, 0, 1, 0, 277, 277, 277, 277, 62, 77, 9615, -1, 2, -3, 0, 0, 0, -1256, 638, 16288, 1176, 14, 18, 13, 0, 0
250, 478742560, 5, 2223, 0, 1, 0, 277, 277, 277, 277, 63, 76, 9615, 3, 0, 7, 0, 0, 0, -1398, -114, 16816, 1176, 14, 18, 13, 0, 0
251, 478752628, 5, 2223, 0, 1, 0, 277, 277, 277, 277, 62, 77, 9616, -1, 5, -1, 0, 0, 0, -1492, 678, 16256, 1197, 14, 18, 13, 0, 0
252, 478762627, 5, 2223, 0, 1, 0, 277, 277, 277, 277, 64, 78, 9615, 0, -3, -2, 0, 0, 0, -1324, 314, 15758, 1197, 14, 18, 13, 0, 0
253, 478772783, 5, 2223, 0, 1, 0, 277, 277, 277, 277, 63, 77, 9616, 1, 2, 9, 0, 0, 0, -1234, 228, 16412, 1197, 14, 18, 13, 0, 0
254, 478782720, 5, 2223, 0, 0, 0, 277, 277, 277, 277, 64, 77, 9615, -2, 2, -5, 0, 0, 0, -1490, 538, 15958, 1197, 14, 18, 13, 0, 0
255, 478792934, 5, 2223, 0, 0, 0, 277, 277, 277, 277, 64, 77, 9616, 2, -2, 6, 0, 0, 0, -1230, -170, 16486, 1197, 14, 18, 13, 0, 0
256, 478802804, 5, 2252, 0, 0, 0, 277, 277, 277, 277, 63, 77, 9616, 0, -1, -2, 0, 0, 0, -1604, 690, 16540, 1183, 14, 18, 13, 0, 0
257, 478812960, 5, 2252, 0, 0, 0, 281, 281, 281, 281, 64, 77, 9616, 1, -1, 0, 0, 0, 0, -1534, 324, 16036, 1183, 14, 18, 13, 0, 0
258, 478822887, 5, 2252, 0, 0, 0, 281, 281, 281, 281, 63, 76, 9616, -1, 6, 6, 0, 0, 0, -1098, 86, 16110, 1183, 14, 18, 13, 0, 0
259, 478832925, 5, 2252, 0, 0, 0, 281, 281, 281, 281, 64, 77, 9616, -1, 0, -4, 0, 0, 0, -1298, 712, 15700, 1183, 14, 18, 13, 0, 0
260, 478842961, 5, 2252, 0, 0, 0, 281, 281, 281, 281, 66, 76, 9616, 0, 1, 7, 0, 0, 0, -1282, -220, 16380, 1183, 14, 18, 13, 0, 0
261, 478852994, 5, 2252, 0, 0, 0, 281, 281, 281, 281, 64, 77, 9616, -2, 1, -3, 0, 0, 0, -932, 532, 15712, 1183, 14, 18, 13, 0, 0
262, 478863028, 5, 2252, 0, 0, 0, 281, 281, 281, 281, 65, 77, 9616, 0, -6, 0, 0, 0, 0, -1786, 462, 16370, 1183, 14, 18, 13, 0, 0
263, 478873066, 5, 2252, 0, 0, 0, 281, 281, 281, 281, 64, 76, 9617, -1, 8, 4, 0, 0, 0, -1048, 82, 16012, 1183, 14, 18, 13, 0, 0
264, 478883110, 5, 2252, 0, 0, 0, 281, 281, 281, 281, 64, 77, 9616, 0, -1, -1, 0, 0, 0, -1234, 546, 16202, 1183, 14, 18, 13, 0, 0
265, 478893149, 5, 2252, 0, 0, 0, 281, 281, 281, 281, 65, 76, 9617, 0, 2, 5, 0, 0, 0, -1198, -358, 16552, 1183, 14, 18, 13, 0, 0
266, 478903175, 5, 2252, 0, 0, 0, 281, 281, 281, 281, 63, 78, 9617, -2, 0, -2, 0, 0, 0, -1076, 498, 15754, 1183, 14, 18, 13, 0, 0
267, 478913229, 5, 2252, 0, 0, 0, 281, 281, 281, 281, 65, 77, 9617, 1, -6, 3, 0, 0, 0, -1456, 224, 16786, 1183, 14, 18, 13, 0, 0
268, 478923262, 5, 2252, 0, 0, 0, 281, 281, 281, 281, 63, 77, 9617, -1, 1, 1, 0, 0, 0, -1444, 296, 16450, 1183, 14, 18, 13, 0, 0
269, 478933291, 5, 2252, 0, 0, 0, 281, 281, 281, 281, 63, 78, 9617, -1, 2, 0, 0, 0, 0, -1722, 752, 16026, 1183, 14, 18, 13, 0, 0
270, 478943330, 5, 2252, 0, 0, 0, 281, 281, 281, 281, 64, 77, 9617, 0, 1, 4, 0, 0, 0, -604, -360, 16058, 1183, 14, 18, 13, 0, 0
271, 478953382, 5, 2252, 0, 0, 0, 281, 281, 281, 281, 63, 77, 9618, -1, 5, 2, 0, 0, 0, -1422, 312, 16644, 1183, 14, 18, 13, 0, 0
272, 478963416, 5, 2252, 0, 0, 0, 281, 281, 281, 281, 64, 77, 9618, 0, 7, 1, 0, 0, 0, -1314, 10, 15700, 1183, 14, 18, 13, 0, 0
273, 478973605, 5, 2252, 0, 0, 0, 281, 281, 281, 281, 62, 79, 9618, -1, -6, -1, 0, 0, 0, -1278, 218, 15450, 1183, 14, 18, 13, 0, 0
274, 478983559, 5, 2252, 0, 0, 0, 281, 281, 281, 281, 63, 79, 9618, 2, -9, 2, 0, 0, 0, -2214, 510, 17026, 1183, 14, 18, 13, 0, 0
275, 478993523, 5, 2252, 0, 0, 0, 281, 281, 281, 281, 63, 76, 9618, 0, 18, 4, 0, 0, 0, -1026, 26, 16164, 1183, 14, 18, 13, 0, 0
276, 479003710, 5, 2252, 0, 0, 0, 281, 281, 281, 281, 62, 78, 9618, -2, -6, 1, 0, 0, 0, -924, 472, 15088, 1190, 14, 18, 13, 0, 0
277, 479013594, 5, 2252, 0, 0, 0, 281, 281, 281, 281, 63, 76, 9618, 0, 0, 1, 0, 0, 0, -1684, -16, 17248, 1190, 14, 18, 13, 0, 0
278, 479023796, 5, 2252, 0, 0, 0, 281, 281, 281, 281, 62, 76, 9618, -1, 14, 4, 0, 0, 0, -994, 390, 16306, 1190, 14, 18, 13, 0, 0
279, 479033666, 5, 2252, 0, 0, 0, 281, 281, 281, 281, 63, 77, 9618, 2, -5, 1, 0, 0, 0, -1172, 230, 15354, 1190, 14, 18, 13, 0, 0
280, 479043735, 5, 2252, 0, 0, 0, 281, 281, 281, 281, 62, 77, 9618, -1, -6, -3, 0, 0, 0, -1852, 102, 17310, 1190, 14, 18, 13, 0, 0
281, 479053745, 5, 2281, 0, 0, 0, 281, 281, 281, 281, 62, 76, 9619, -1, 9, 5, 0, 0, 0, -1662, 488, 16116, 1190, 14, 18, 13, 0, 0
282, 479063783, 5, 2281, 0, 0, 0, 285, 285, 285, 285, 63, 76, 9619, 0, -1, 2, 0, 0, 0, -712, 20, 15472, 1190, 14, 18, 13, 0, 0
283, 479073808, 5, 2281, 0, 0, 0, 285, 285, 285, 285, 62, 77, 9619, -1, 0, 5, 0, 0, 0, -1538, 696, 16674, 1190, 14, 18, 13, 0, 0
284, 479083852, 5, 2281, 0, 0, 0, 285, 285, 285, 285, 63, 75, 9619, 1, 10, 3, 0, 0, 0, -1310, -110, 16470, 1190, 14, 18, 13, 0, 0
285, 479093892, 5, 2325, 0, 0, 0, 285, 285, 285, 285, 62, 76, 9619, -1, 1, 0, 0, 0, 0, -954, 326, 15920, 1190, 14, 18, 13, 0, 0
286, 479103925, 5, 2325, 0, 0, 0, 290, 290, 290, 290, 64, 77, 9619, 2, -9, 2, 0, 0, 0, -1786, 90, 16276, 1197, 14, 18, 13, 0, 0
287, 479113957, 5, 2325, 0, 0, 0, 290, 290, 290, 290, 63, 75, 9619, 1, 0, -5, 0, 0, 0, -1496, -58, 16854, 1197, 14, 18, 13, 0, 0
288, 479124017, 5, 2325, 0, 0, 0, 290, 290, 290, 290, 62, 76, 9620, -1, 3, 4, 0, 0, 0, -1466, 642, 15792, 1197, 14, 18, 13, 0, 0
289, 479134063, 5, 2353, 0, 0, 0, 290, 290, 290, 290, 63, 76, 9620, 0, 0, 2, 0, 0, 0, -1190, 130, 16052, 1197, 14, 18, 13, 0, 0
290, 479144092, 5, 2353, 0, 0, 0, 294, 294, 294, 294, 62, 76, 9620, -1, 0, 5, 0, 0, 0, -882, 496, 16376, 1197, 14, 18, 13, 0, 0
291, 479154122, 5, 2353, 0, 0, 0, 294, 294, 294, 294, 63, 75, 9620, 0, 2, 3, 0, 0, 0, -1542, -108, 16616, 1183, 14, 18, 13, 0, 0
292, 479164160, 5, 2353, 0, 0, 0, 294, 294, 294, 294, 62, 75, 9620, -1, 5, -2, 0, 0, 0, -1016, 240, 15908, 1183, 14, 18, 13, 0, 0
293, 479174201, 5, 2353, 0, 0, 0, 294, 294, 294, 294, 63, 77, 9620, 0, -7, 2, 0, 0, 0, -1644, 122, 15824, 1183, 14, 18, 13, 0, 0
294, 479184258, 5, 2353, 0, 0, 0, 294, 294, 294, 294, 62, 76, 9620, 1, -1, -4, 0, 0, 0, -1304, -14, 16436, 1183, 14, 18, 13, 0, 0
295, 479194353, 5, 2353, 0, 0, 0, 294, 294, 294, 294, 61, 76, 9621, -1, 3, 6, 0, 0, 0, -1494, 576, 16284, 1183, 14, 18, 13, 0, 0
296, 479204313, 5, 2353, 0, 0, 0, 294, 294, 294, 294, 61, 76, 9621, -1, 2, 0, 0, 0, 0, -1528, 334, 15892, 1183, 14, 18, 13, 0, 0
297, 479214491, 5, 2353, 0, 0, 0, 294, 294, 294, 294, 61, 77, 9621, -2, 2, 5, 0, 0, 0, -706, 582, 15790, 1183, 14, 18, 13, 0, 0
298, 479224398, 5, 2382, 0, 0, 0, 294, 294, 294, 294, 63, 76, 9621, 0, 4, 4, 0, 0, 0, -1362, 128, 16142, 1183, 14, 18, 13, 0, 0
299, 479234579, 5, 2382, 0, 0, 0, 297, 297, 297, 297, 63, 75, 9621, -1, 5, -2, 0, 0, 0, -802, 164, 15818, 1183, 14, 18, 13, 0, 0
300, 479244456, 5, 2382, 0, 0, 0, 297, 297, 297, 297, 63, 78, 9621, 0, -11, 3, 0, 0, 0, -1320, 58, 15936, 1183, 14, 18, 13, 0, 0
301, 479254576, 5, 2382, 0, 0, 0, 297, 297, 297, 297, 62, 76, 9621, 1, -1, -4, 0, 0, 0, -1588, 226, 17260, 1176, 14, 18, 13, 0, 0
302, 479264534, 5, 2382, 0, 0, 0, 297, 297, 297, 297, 62, 77, 9622, 0, 10, 7, 0, 0, 0, -1318, 454, 16008, 1176, 14, 18, 13, 0, 0
303, 479274572, 5, 2382, 0, 0, 0, 297, 297, 297, 297, 63, 77, 9621, 0, -4, -4, 0, 0, 0, -1756, 394, 16028, 1176, 14, 18, 13, 0, 0
304, 479284615, 5, 2382, 0, 0, 0, 297, 297, 297, 297, 63, 77, 9621, -1, 3, 4, 0, 0, 0, -764, 432, 15690, 1176, 14, 18, 13, 0, 0
305, 479294654, 5, 2382, 0, 0, 0, 297, 297, 297, 297, 63, 78, 9621, 0, -5, 0, 0, 0, 0, -1592, 146, 16664, 1176, 14, 18, 13, 0, 0
306, 479304685, 5, 2411, 0, 0, 0, 297, 297, 297, 297, 63, 76, 9621, -1, 1, 0, 0, 0, 0, -1356, 258, 17016, 1190, 14, 18, 13, 0, 0
307, 479314715, 5, 2411, 0, 0, 0, 299, 301, 303, 301, 64, 77, 9621, 0, -1, 2, 0, 0, 0, -1458, 248, 16296, 1190, 14, 18, 13, 0, 0
308, 479324771, 5, 2411, 0, 0, 0, 302, 300, 304, 298, 64, 76, 9621, -1, 2, -4, 0, 0, 0, -1178, 424, 15724, 1190, 14, 18, 13, 0, 0
309, 479334807, 5, 2411, 0, 0, 0, 299, 301, 303, 301, 65, 78, 9622, 0, -10, 7, 0, 0, 0, -1456, -130, 16234, 1190, 14, 18, 13, 0, 0
310, 479344835, 5, 2411, 0, 0, 0, 302, 300, 304, 298, 63, 76, 9622, 0, -1, -3, 0, 0, 0, -1978, 158, 17078, 1190, 14, 18, 13, 0, 0
311, 479354871, 5, 2411, 0, 0, 0, 300, 302, 302, 300, 63, 76, 9622, 0, 14, 7, 0, 0, 0, -946, 204, 15666, 1190, 14, 18, 13, 0, 0
312, 479364910, 5, 2411, 0, 0, 0, 301, 300, 305, 298, 62, 78, 9622, 0, -8, -2, 0, 0, 0, -1652, 96, 16038, 1190, 14, 18, 13, 0, 0
313, 479374957, 5, 2411, 0, 0, 0, 300, 302, 302, 300, 62, 77, 9622, -1, 1, 3, 0, 0, 0, -1160, 452, 16396, 1190, 14, 18, 13, 0, 0
314, 479384986, 5, 2411, 0, 0, 0, 301, 299, 305, 299, 62, 77, 9622, 0, 0, 0, 0, 0, 0, -1466, 268, 16874, 1190, 14, 18, 13, 0, 0
315, 479395011, 5, 2411, 0, 0, 0, 300, 302, 302, 300, 62, 76, 9622, -1, 8, 0, 0, 0, 0, -1224, 480, 16318, 1190, 14, 18, 13, 0, 0
316, 479405093, 5, 2411, 0, 0, 0, 299, 301, 303, 301, 63, 77, 9622, 0, -2, 7, 0, 0, 0, -790, -130, 15574, 1197, 14, 18, 13, 0, 0
317, 479415100, 5, 2441, 0, 0, 0, 302, 300, 304, 298, 61, 77, 9622, 0, -4, -4, 0, 0, 0, -1436, 452, 16304, 1197, 14, 18, 13, 0, 0
318, 479425269, 5, 2441, 0, 0, 0, 304, 306, 306, 304, 63, 76, 9623, 0, 2, 5, 0, 0, 0, -1478, -134, 16660, 1197, 14, 18, 13, 0, 0
319, 479435169, 5, 2441, 0, 0, 0, 304, 304, 308, 302, 62, 77, 9622, 0, -2, -5, 0, 0, 0, -1748, -36, 16554, 1197, 14, 18, 13, 0, 0
320, 479445373, 5, 2441, 0, 0, 0, 304, 306, 306, 304, 63, 76, 9623, -1, 2, 4, 0, 0, 0, -1120, -266, 15724, 1197, 14, 18, 13, 0, 0
321, 479455265, 5, 2441, 0, 0, 0, 304, 303, 308, 303, 61, 77, 9623, -1, -3, -1, 0, 0, 0, -1644, -250, 16344, 1183, 14, 18, 13, 0, 0
322, 479465397, 5, 2441, 0, 0, 0, 304, 305, 306, 305, 61, 77, 9623, -2, 3, 3, 0, 0, 0, -1374, 152, 15430, 1183, 14, 18, 13, 0, 0
323, 479475344, 5, 2470, 0, 0, 0, 304, 303, 308, 303, 60, 78, 9623, 0, -7, 5, 0, 0, 0, -1206, 260, 16462, 1183, 14, 18, 13, 0, 0
324, 479485367, 5, 2470, 0, 0, 0, 309, 307, 311, 306, 60, 77, 9623, -1, 5, 1, 0, 0, 0, -1720, 956, 16364, 1183, 14, 18, 13, 0, 0
325, 479495418, 5, 2470, 0, 0, 0, 308, 307, 312, 307, 61, 76, 9623, 1, 7, 5, 0, 0, 0, -716, 124, 16060, 1183, 14, 18, 13, 0, 0
326, 479505445, 5, 2470, 0, 0, 0, 308, 307, 312, 306, 59, 78, 9623, 0, -3, -3, 0, 0, 0, -1484, 632, 16148, 1176, 14, 18, 13, 0, 0
327, 479515482, 5, 2470, 0, 0, 0, 307, 309, 309, 307, 60, 76, 9624, 3, 10, 3, 0, 0, 0, -628, -138, 16068, 1176, 14, 18, 13, 0, 0
328, 479525509, 5, 2470, 0, 0, 0, 308, 307, 312, 306, 58, 77, 9624, 0, -1, -2, 0, 0, 0, -1456, 416, 16758, 1176, 14, 18, 13, 0, 0
329, 479535559, 5, 2470, 0, 0, 0, 307, 309, 309, 307, 60, 76, 9624, 1, 6, 1, 0, 0, 0, -1504, 206, 16466, 1176, 14, 18, 13, 0, 0
330, 479545591, 5, 2470, 0, 0, 0, 308, 307, 312, 306, 60, 78, 9624, -3, -5, -1, 0, 0, 0, -1000, -88, 15884, 1176, 14, 18, 13, 0, 0
331, 479555640, 5, 2498, 0, 0, 0, 307, 308, 309, 308, 60, 78, 9624, 0, -4, 2, 0, 0, 0, -1558, 276, 16132, 1169, 14, 18, 13, 0, 0
332, 479565674, 5, 2498, 0, 0, 0, 312, 311, 315, 309, 61, 78, 9624, -2, 9, 4, 0, 0, 0, -1082, -372, 16678, 1169, 14, 18, 13, 0, 0
333, 479575706, 5, 2498, 0, 0, 0, 312, 310, 316, 310, 60, 78, 9624, -2, -3, 2, 0, 0, 0, -1886, 274, 16324, 1169, 14, 18, 13, 0, 0
334, 479585913, 5, 2498, 0, 0, 0, 312, 310, 315, 310, 60, 77, 9624, -1, 8, 5, 0, 0, 0, -816, -310, 16388, 1169, 14, 18, 13, 0, 0
335, 479595778, 5, 2498, 0, 0, 0, 312, 310, 316, 310, 59, 77, 9624, -3, 3, 1, 0, 0, 0, -1848, 498, 16568, 1169, 14, 18, 13, 0, 0
336, 479605809, 5, 2498, 0, 0, 0, 312, 310, 316, 310, 60, 76, 9624, 0, 0, 1, 0, 0, 0, -734, 64, 15698, 1183, 14, 18, 13, 0, 0
337, 479615913, 5, 2498, 0, 0, 0, 312, 311, 315, 309, 59, 78, 9624, 0, -4, -1, 0, 0, 0, -1466, 676, 15974, 1183, 14, 18, 13, 0, 0
338, 479625890, 5, 2527, 0, 0, 0, 311, 313, 313, 311, 60, 77, 9624, 7, -12, -1, 0, 0, 0, -1724, 190, 16632, 1183, 14, 18, 13, 0, 0
339, 479636034, 5, 2527, 0, 0, 0, 314, 316, 317, 315, 59, 78, 9625, -1, -7, 2, 0, 0, 0, -1438, 462, 16276, 1183, 14, 18, 13, 0, 0
340, 479645965, 5, 2527, 0, 0, 0, 316, 314, 318, 314, 60, 77, 9625, -1, 8, -2, 0, 0, 0, -1734, 106, 16012, 1183, 14, 18, 13, 0, 0
341, 479656168, 5, 2527, 0, 0, 0, 313, 315, 317, 315, 59, 77, 9625, -2, -8, 3, 0, 0, 0, -1108, 374, 16182, 1183, 14, 18, 13, 0, 0
342, 479666042, 5, 2527, 0, 0, 0, 316, 314, 318, 314, 60, 77, 9625, 0, 5, -1, 0, 0, 0, -1488, 298, 15622, 1183, 14, 18, 13, 0, 0
343, 479676223, 5, 2527, 0, 0, 0, 313, 316, 317, 315, 58, 76, 9625, 0, 0, 4, 0, 0, 0, -976, -26, 16188, 1183, 14, 18, 13, 0, 0
344, 479686124, 5, 2527, 0, 0, 0, 316, 315, 318, 313, 57, 77, 9625, 0, 4, 1, 0, 0, 0, -1196, 638, 15894, 1183, 14, 18, 13, 0, 0
345, 479696188, 5, 2527, 0, 0, 0, 315, 315, 319, 313, 57, 77, 9626, 0, -1, 8, 0, 0, 0, -1090, 88, 16778, 1183, 14, 18, 13, 0, 0
346, 479706187, 5, 2527, 0, 0, 0, 316, 315, 318, 313, 57, 78, 9626, -1, 2, 0, 0, 0, 0, -1508, 862, 17064, 1183, 14, 18, 13, 0, 0
347, 479716227, 5, 2527, 0, 0, 0, 313, 315, 317, 315, 58, 77, 9626, 0, 10, 4, 0, 0, 0, -860, 58, 16420, 1183, 14, 18, 13, 0, 0
348, 479726257, 5, 2527, 0, 0, 0, 315, 315, 319, 313, 59, 77, 9626, -1, 9, 3, 0, 0, 0, -1378, 808, 17166, 1183, 14, 18, 13, 0, 0
349, 479736301, 5, 2527, 0, 0, 0, 315, 314, 319, 314, 61, 76, 9626, 1, 18, 2, 0, 0, 0, -996, -24, 15912, 1183, 14, 18, 13, 0, 0
350, 479746646, 5, 2527, 0, 0, 0, 314, 315, 320, 313, 60, 77, 9626, -1, 14, 1, 0, 0, 0, -534, 496, 14910, 1190, 14, 18, 13, 0, 0
351, 479756383, 5, 2527, 0, 0, 0, 315, 314, 319, 314, 62, 77, 9626, -1, 10, -1, 0, 0, 0, -764, -136, 15032, 1190, 14, 18, 13, 0, 0
352, 479766415, 5, 2527, 0, 0, 0, 313, 315, 317, 315, 62, 77, 9626, -2, 8, 4, 0, 0, 0, -1278, 304, 16230, 1190, 14, 18, 13, 0, 0
353, 479776462, 5, 2527, 0, 0, 0, 315, 314, 319, 314, 64, 76, 9626, -1, 6, -3, 0, 0, 0, -1298, -162, 15960, 1190, 14, 18, 13, 0, 0
354, 479786509, 5, 2527, 0, 0, 0, 313, 316, 317, 315, 62, 76, 9626, -2, 2, 3, 0, 0, 0, -1280, 342, 16160, 1190, 14, 18, 13, 0, 0
355, 479796532, 5, 2527, 0, 0, 0, 315, 314, 319, 314, 63, 77, 9626, -1, 2, -4, 0, 0, 0, -1064, -134, 15508, 1183, 14, 18, 13, 0, 0
356, 479806575, 5, 2527, 0, 0, 0, 313, 315, 317, 315, 61, 77, 9626, 0, -4, 5, 0, 0, 0, -1756, 322, 17124, 1183, 14, 18, 13, 0, 0
357, 479816614, 5, 2527, 0, 0, 0, 316, 315, 318, 313, 62, 78, 9626, 0, 0, -3, 0, 0, 0, -1144, 212, 16360, 1183, 14, 18, 13, 0, 0
358, 479826688, 5, 2527, 0, 0, 0, 314, 316, 317, 315, 62, 77, 9627, -1, 5, 5, 0, 0, 0, -1762, 754, 17060, 1183, 14, 18, 13, 0, 0
359, 479836684, 5, 2527, 0, 0, 0, 315, 314, 319, 314, 65, 77, 9627, 1, -6, -2, 0, 0, 0, -1394, 424, 16974, 1183, 14, 18, 13, 0, 0
360, 479847049, 5, 2527, 0, 0, 0, 314, 317, 317, 314, 65, 76, 9627, 0, 9, 3, 0, 0, 0, -1374, 440, 16878, 1176, 14, 18, 13, 0, 0
361, 479856768, 5, 2527, 0, 0, 0, 315, 315, 319, 313, 66, 77, 9627, 2, -7, -4, 0, 0, 0, -1778, 118, 16870, 1176, 14, 18, 13, 0, 0
362, 479866969, 5, 2527, 0, 0, 0, 314, 317, 317, 314, 65, 77, 9627, 0, 2, 1, 0, 0, 0, -1164, 254, 15426, 1176, 14, 18, 13, 0, 0
363, 479876843, 5, 2527, 0, 0, 0, 315, 315, 319, 313, 66, 78, 9627, 2, -4, 3, 0, 0, 0, -1272, 618, 15850, 1176, 14, 18, 13, 0, 0
364, 479887041, 5, 2527, 0, 0, 0, 316, 315, 318, 313, 67, 77, 9627, -4, 1, 3, 0, 0, 0, -1934, 112, 15258, 1176, 14, 18, 13, 0, 0
365, 479896928, 5, 2527, 0, 0, 0, 315, 314, 319, 313, 68, 76, 9627, -1, -8, 2, 0, 0, 0, -1142, 492, 14916, 1169, 14, 18, 13, 0, 0
366, 479907037, 5, 2527, 0, 0, 0, 316, 314, 318, 313, 69, 77, 9627, -3, -24, 2, 0, 0, 0, -2310, 304, 16488, 1169, 14, 18, 13, 0, 0
367, 479917023, 5, 2527, 0, 0, 0, 317, 314, 318, 313, 69, 76, 9628, 1, 9, 5, 0, 0, 0, -766, 728, 15500, 1169, 14, 18, 13, 0, 0
368, 479927050, 5, 2527, 0, 0, 0, 315, 315, 319, 313, 69, 78, 9627, 1, -21, 4, 0, 0, 0, -2260, 346, 16970, 1169, 14, 18, 13, 0, 0
369, 479937113, 5, 2527, 0, 0, 0, 317, 315, 318, 313, 69, 76, 9628, -1, 7, 4, 0, 0, 0, -806, 184, 16356, 1169, 14, 18, 13, 0, 0
370, 479947392, 5, 2527, 0, 0, 0, 315, 314, 319, 313, 67, 77, 9628, -2, -4, 1, 0, 0, 0, -1912, 288, 17230, 1183, 14, 18, 13, 0, 0
371, 479957187, 5, 2527, 0, 0, 0, 316, 314, 318, 313, 67, 76, 9628, -1, 3, 3, 0, 0, 0, -1488, 244, 17056, 1183, 14, 18, 13, 0, 0
372, 479967217, 5, 2527, 0, 0, 0, 315, 314, 319, 313, 67, 77, 9628, -1, 5, 4, 0, 0, 0, -1054, 396, 16642, 1183, 14, 18, 13, 0, 0
373, 479977246, 5, 2527, 0, 0, 0, 315, 314, 319, 313, 67, 77, 9628, -1, 0, 4, 0, 0, 0, -1218, 98, 16758, 1183, 14, 18, 13, 0, 0
374, 479987299, 5, 2527, 0, 0, 0, 316, 314, 318, 313, 66, 77, 9629, -1, 3, 3, 0, 0, 0, -1536, 208, 17106, 1183, 14, 18, 13, 0, 0
375, 479997331, 5, 2527, 0, 0, 0, 315, 314, 319, 313, 66, 76, 9629, 0, -1, 1, 0, 0, 0, -1248, 260, 16466, 1176, 14, 18, 13, 0, 0
376, 480007368, 5, 2527, 0, 0, 0, 316, 315, 318, 313, 65, 77, 9629, 0, 6, 3, 0, 0, 0, -1044, 414, 16102, 1176, 14, 18, 13, 0, 0
377, 480017408, 5, 2571, 0, 0, 0, 315, 315, 319, 313, 66, 76, 9629, -1, 5, -2, 0, 0, 0, -1380, 366, 15586, 1176, 14, 18, 13, 0, 0
378, 480027459, 5, 2571, 0, 0, 0, 319, 321, 323, 321, 66, 77, 9629, 0, 1, 1, 0, 0, 0, -458, 6, 15412, 1176, 14, 18, 13, 0, 0
379, 480037501, 5, 2571, 0, 0, 0, 321, 320, 325, 318, 65, 76, 9629, 1, -1, -2, 0, 0, 0, -1604, 514, 16686, 1176, 14, 18, 13, 0, 0
380, 480047734, 5, 2571, 0, 0, 0, 320, 322, 322, 320, 65, 75, 9629, 1, 20, 4, 0, 0, 0, -494, 106, 15642, 1176, 14, 18, 13, 0, 0
381, 480057658, 5, 2571, 0, 0, 0, 320, 320, 325, 318, 64, 76, 9629, -1, 12, 0, 0, 0, 0, -1400, 446, 15064, 1176, 14, 18, 13, 0, 0
382, 480067601, 5, 2571, 0, 0, 0, 319, 321, 323, 321, 65, 76, 9629, 4, 0, 2, 0, 0, 0, -500, 576, 15814, 1176, 14, 18, 13, 0, 0
383, 480077808, 5, 2571, 0, 0, 0, 322, 320, 324, 318, 66, 76, 9629, -1, 17, -2, 0, 0, 0, -1970, 944, 16122, 1176, 14, 18, 13, 0, 0
384, 480087699, 5, 2571, 0, 0, 0, 318, 321, 324, 321, 69, 74, 9629, 0, 13, 1, 0, 0, 0, -484, 370, 14844, 1176, 14, 18, 13, 0, 0
385, 480097921, 5, 2571, 0, 0, 0, 321, 320, 325, 318, 69, 75, 9629, -3, 3, 0, 0, 0, 0, -1432, 218, 15376, 1176, 14, 18, 13, 0, 0
386, 480107786, 5, 2571, 0, 0, 0, 319, 321, 323, 321, 69, 73, 9629, 0, 2, 0, 0, 0, 0, -1150, 4, 16428, 1176, 14, 18, 13, 0, 0
387, 480117914, 5, 2571, 0, 0, 0, 319, 322, 323, 320, 67, 74, 9629, -2, 5, -2, 0, 0, 0, -1388, 118, 16074, 1176, 14, 18, 13, 0, 0
388, 480127874, 5, 2571, 0, 0, 0, 319, 321, 323, 321, 68, 74, 9629, 0, 5, 0, 0, 0, 0, -1186, -138, 15978, 1176, 14, 18, 13, 0, 0
389, 480137921, 5, 2571, 0, 0, 0, 319, 322, 323, 320, 66, 75, 9630, -2, 3, 4, 0, 0, 0, -1200, -52, 15546, 1176, 14, 18, 13, 0, 0
390, 480148071, 5, 2571, 0, 0, 0, 321, 319, 325, 319, 67, 75, 9630, -2, -6, 1, 0, 0, 0, -1686, 148, 16262, 1162, 14, 18, 13, 0, 0
391, 480158000, 5, 2571, 0, 0, 0, 322, 319, 324, 319, 68, 75, 9631, -3, 5, 8, 0, 0, 0, -1536, 180, 15890, 1162, 14, 18, 13, 0, 0
392, 480168031, 5, 2571, 0, 0, 0, 321, 319, 325, 319, 69, 75, 9631, -1, 10, 1, 0, 0, 0, -740, 248, 15124, 1162, 14, 18, 13, 0, 0
393, 480178079, 5, 2571, 0, 0, 0, 321, 319, 325, 319, 69, 76, 9631, -1, 1, 7, 0, 0, 0, -1324, 190, 16168, 1162, 14, 18, 13, 0, 0
394, 480188107, 5, 2571, 0, 0, 0, 321, 319, 325, 319, 69, 76, 9631, -1, 1, -2, 0, 0, 0, -1646, 76, 16482, 1162, 14, 18, 13, 0, 0
395, 480198312, 5, 2571, 0, 0, 0, 319, 321, 323, 321, 67, 76, 9632, -1, 7, 8, 0, 0, 0, -976, -236, 16096, 1176, 14, 18, 13, 0, 0
396, 480208191, 5, 2571, 0, 0, 0, 321, 319, 325, 319, 65, 78, 9631, -1, -5, -1, 0, 0, 0, -1484, -18, 16810, 1176, 14, 18, 13, 0, 0
397, 480218243, 5, 2571, 0, 0, 0, 320, 321, 322, 321, 64, 78, 9632, -1, 11, 7, 0, 0, 0, -1598, -112, 17026, 1176, 14, 18, 13, 0, 0
398, 480228279, 5, 2571, 0, 0, 0, 321, 319, 325, 319, 64, 78, 9632, -3, 3, -3, 0, 0, 0, -1404, 388, 16268, 1176, 14, 18, 13, 0, 0
399, 480238325, 5, 2571, 0, 0, 0, 319, 321, 323, 321, 65, 78, 9632, 0, 0, 7, 0, 0, 0, -1290, 234, 16626, 1176, 14, 18, 13, 0, 0
400, 480248487, 5, 2571, 0, 0, 0, 322, 320, 324, 318, 65, 78, 9632, -4, 4, -5, 0, 0, 0, -1646, 418, 16820, 1190, 14, 18, 13, 0, 0
401, 480258395, 5, 2571, 0, 0, 0, 319, 321, 323, 321, 66, 77, 9632, -1, 2, 4, 0, 0, 0, -1364, -22, 16394, 1190, 14, 18, 13, 0, 0
402, 480268493, 5, 2571, 0, 0, 0, 321, 319, 325, 319, 65, 76, 9632, -5, 5, -2, 0, 0, 0, -1084, -158, 16332, 1190, 14, 18, 13, 0, 0
403, 480278498, 5, 2571, 0, 0, 0, 319, 321, 323, 321, 65, 76, 9632, 0, 4, 7, 0, 0, 0, -1660, -430, 16226, 1190, 14, 18, 13, 0, 0
404, 480288666, 5, 2571, 0, 0, 0, 321, 320, 325, 318, 63, 77, 9632, -3, 6, 2, 0, 0, 0, -678, 50, 15768, 1190, 14, 18, 13, 0, 0
405, 480298563, 5, 2571, 0, 0, 0, 321, 319, 325, 319, 64, 77, 9633, -2, 5, 6, 0, 0, 0, -1772, -210, 16092, 1169, 14, 18, 13, 0, 0
406, 480308779, 5, 2571, 0, 0, 0, 321, 319, 325, 319, 64, 76, 9633, -4, 0, 0, 0, 0, 0, -938, 396, 15994, 1169, 14, 18, 13, 0, 0
407, 480318637, 5, 2571, 0, 0, 0, 320, 321, 322, 321, 66, 78, 9633, 0, -4, 2, 0, 0, 0, -1006, -270, 15252, 1169, 14, 18, 13, 0, 0
408, 480328803, 5, 2571, 0, 0, 0, 322, 320, 324, 318, 65, 77, 9633, -3, 1, 2, 0, 0, 0, -1356, 138, 16774, 1169, 14, 18, 13, 0, 0
409, 480338719, 5, 2629, 0, 0, 0, 321, 319, 325, 319, 66, 79, 9633, -1, -8, -1, 0, 0, 0, -1920, -210, 15634, 1169, 14, 18, 13, 0, 0
410, 480348825, 5, 2629, 0, 0, 0, 327, 328, 329, 328, 66, 77, 9633, -5, -13, 1, 0, 0, 0, -1272, -48, 16608, 1176, 14, 18, 13, 0, 0
411, 480358791, 5, 2629, 0, 0, 0, 329, 327, 331, 326, 66, 79, 9633, 1, -14, 1, 0, 0, 0, -1834, -136, 16402, 1176, 14, 18, 13, 0, 0
412, 480368845, 5, 2629, 0, 0, 0, 329, 328, 331, 325, 65, 77, 9633, -2, 9, 5, 0, 0, 0, -874, -4, 16632, 1176, 14, 18, 13, 0, 0
413, 480378883, 5, 2629, 0, 0, 0, 328, 327, 332, 326, 65, 80, 9633, 3, -7, 0, 0, 0, 0, -1626, 70, 16298, 1176, 14, 18, 13, 0, 0
414, 480388921, 5, 2629, 0, 0, 0, 327, 329, 330, 327, 64, 78, 9633, -1, 0, 2, 0, 0, 0, -1120, -18, 17166, 1176, 14, 18, 13, 0, 0
415, 480398960, 5, 2629, 0, 0, 0, 329, 327, 331, 326, 63, 81, 9633, 1, -4, -2, 0, 0, 0, -1606, -222, 16324, 1162, 14, 18, 13, 0, 0
416, 480409024, 5, 2629, 0, 0, 0, 327, 329, 330, 327, 61, 79, 9633, -1, 2, 4, 0, 0, 0, -808, -26, 16938, 1162, 14, 18, 13, 0, 0
417, 480419054, 5, 2629, 0, 0, 0, 328, 326, 332, 326, 60, 81, 9634, 1, -3, 1, 0, 0, 0, -1986, -216, 16550, 1162, 14, 18, 13, 0, 0
418, 480429093, 5, 2629, 0, 0, 0, 328, 327, 331, 326, 59, 79, 9634, -1, 1, 3, 0, 0, 0, -1258, 98, 16700, 1162, 14, 18, 13, 0, 0
419, 480439141, 5, 2629, 0, 0, 0, 328, 326, 332, 326, 60, 81, 9634, 0, -6, 1, 0, 0, 0, -1376, -100, 15944, 1162, 14, 18, 13, 0, 0
420, 480449217, 5, 2629, 0, 0, 0, 328, 327, 331, 326, 60, 79, 9634, -1, 4, 3, 0, 0, 0, -1528, 180, 17078, 1190, 14, 18, 13, 0, 0
421, 480459217, 5, 2629, 0, 0, 0, 328, 326, 332, 326, 60, 80, 9635, 0, -1, 0, 0, 0, 0, -1534, -130, 16100, 1190, 14, 18, 13, 0, 0
422, 480469253, 5, 2629, 0, 0, 0, 327, 329, 330, 327, 59, 78, 9635, -2, 7, -2, 0, 0, 0, -938, 24, 15558, 1190, 14, 18, 13, 0, 0
423, 480479300, 5, 2629, 0, 0, 0, 326, 328, 330, 328, 59, 80, 9634, -2, -7, -5, 0, 0, 0, -1540, -366, 15822, 1190, 14, 18, 13, 0, 0
424, 480489335, 5, 2629, 0, 0, 0, 327, 328, 330, 328, 58, 78, 9634, -2, -5, -2, 0, 0, 0, -1834, -146, 16680, 1190, 14, 18, 13, 0, 0
425, 480499477, 5, 2629, 0, 0, 0, 327, 328, 329, 328, 60, 78, 9634, -2, -7, 3, 0, 0, 0, -1626, -660, 16432, 1183, 14, 18, 13, 0, 0
426, 480509423, 5, 2658, 0, 0, 0, 329, 326, 331, 326, 59, 77, 9635, -2, 1, 2, 0, 0, 0, -1262, -78, 16566, 1183, 14, 18, 13, 0, 0
427, 480519627, 5, 2658, 0, 0, 0, 332, 330, 336, 330, 59, 79, 9635, -3, -10, 2, 0, 0, 0, -1752, -660, 16714, 1183, 14, 18, 13, 0, 0
428, 480529512, 5, 2658, 0, 0, 0, 332, 330, 335, 330, 58, 77, 9635, -2, 10, -3, 0, 0, 0, -1404, 234, 16082, 1183, 14, 18, 13, 0, 0
429, 480539684, 5, 2658, 0, 0, 0, 330, 332, 334, 332, 58, 79, 9635, -1, -20, 0, 0, 0, 0, -1532, -208, 16390, 1183, 14, 18, 13, 0, 0
430, 480549610, 5, 2658, 0, 0, 0, 331, 332, 332, 332, 59, 77, 9635, -3, 3, -1, 0, 0, 0, -1692, 176, 16188, 1169, 14, 18, 13, 0, 0
431, 480559647, 5, 2658, 0, 0, 0, 330, 332, 334, 332, 60, 79, 9635, -3, -14, 5, 0, 0, 0, -1578, -224, 15854, 1169, 14, 18, 13, 0, 0
432, 480569676, 5, 2658, 0, 0, 0, 332, 330, 335, 330, 60, 78, 9636, 0, -4, 3, 0, 0, 0, -1748, 412, 15920, 1169, 14, 18, 13, 0, 0
433, 480579706, 5, 2658, 0, 0, 0, 332, 331, 335, 329, 61, 79, 9636, -2, -11, 4, 0, 0, 0, -1250, 52, 16014, 1169, 14, 18, 13, 0, 0
434, 480589756, 5, 2658, 0, 0, 0, 332, 330, 335, 330, 62, 78, 9636, -2, 1, 1, 0, 0, 0, -1694, 368, 16578, 1169, 14, 18, 13, 0, 0
435, 480599785, 5, 2658, 0, 0, 0, 332, 330, 336, 330, 62, 78, 9637, -1, 7, 4, 0, 0, 0, -1014, 54, 15742, 1176, 14, 18, 13, 0, 0
436, 480609834, 5, 2658, 0, 0, 0, 332, 330, 336, 330, 62, 78, 9637, 0, -4, 1, 0, 0, 0, -1572, 264, 15898, 1176, 14, 18, 13, 0, 0
437, 480619852, 5, 2658, 0, 0, 0, 332, 331, 335, 329, 62, 78, 9638, 0, -2, 6, 0, 0, 0, -1366, 68, 16156, 1176, 14, 18, 13, 0, 0
438, 480629913, 5, 2658, 0, 0, 0, 332, 331, 335, 329, 62, 77, 9638, 0, -5, 4, 0, 0, 0, -1890, 474, 16320, 1176, 14, 18, 13, 0, 0
439, 480639927, 5, 2658, 0, 0, 0, 332, 331, 335, 329, 62, 77, 9640, 4, -7, 10, 0, 0, 0, -1262, 516, 15882, 1176, 14, 18, 13, 0, 0
440, 480649982, 5, 2658, 0, 0, 0, 332, 331, 335, 329, 63, 78, 9640, -1, -6, 7, 0, 0, 0, -1284, 422, 16046, 1190, 14, 18, 13, 0, 0
441, 480660017, 5, 2658, 0, 0, 0, 332, 330, 335, 330, 63, 78, 9642, 4, -9, 10, 0, 0, 0, -1844, 256, 17472, 1190, 14, 18, 13, 0, 0
442, 480670072, 5, 2658, 0, 0, 0, 332, 331, 335, 329, 63, 77, 9642, -2, 15, 7, 0, 0, 0, -850, 340, 15720, 1190, 14, 18, 13, 0, 0
443, 480680106, 5, 2658, 0, 0, 0, 332, 330, 336, 330, 63, 78, 9644, 3, -8, 8, 0, 0, 0, -1026, 224, 16718, 1190, 14, 18, 13, 0, 0
444, 480690176, 5, 2658, 0, 0, 0, 332, 331, 335, 329, 63, 77, 9644, 0, 18, 3, 0, 0, 0, -1196, 842, 16478, 1190, 14, 18, 13, 0, 0
445, 480700200, 5, 2658, 0, 0, 0, 331, 331, 336, 329, 64, 77, 9645, 7, 3, 7, 0, 0, 0, -750, 816, 15840, 1190, 14, 18, 13, 0, 0
446, 480710308, 5, 2658, 0, 0, 0, 332, 331, 336, 329, 65, 78, 9645, 0, -6, 5, 0, 0, 0, -1960, 754, 16668, 1190, 14, 18, 13, 0, 0
447, 480720264, 5, 2687, 0, 0, 0, 332, 331, 335, 329, 66, 77, 9646, 2, 1, 7, 0, 0, 0, -568, -32, 16674, 1190, 14, 18, 13, 0, 0
448, 480730476, 5, 2687, 0, 0, 0, 335, 335, 339, 333, 65, 77, 9646, -2, 15, 9, 0, 0, 0, -1590, 318, 16462, 1190, 14, 18, 13, 0, 0
449, 480740351, 5, 2687, 0, 0, 0, 335, 334, 339, 333, 67, 76, 9648, 1, -6, 13, 0, 0, 0, -1036, 174, 16466, 1190, 14, 18, 13, 0, 0
450, 480750556, 5, 2687, 0, 0, 0, 336, 335, 338, 333, 66, 77, 9648, -3, 2, 9, 0, 0, 0, -1504, 654, 16484, 1197, 14, 18, 13, 0, 0
451, 480760447, 5, 2687, 0, 0, 0, 335, 334, 339, 333, 68, 76, 9649, 3, -7, 8, 0, 0, 0, -1350, -248, 17336, 1197, 14, 18, 13, 0, 0
452, 480770551, 5, 2687, 0, 0, 0, 336, 335, 338, 333, 66, 77, 9650, -1, 4, 8, 0, 0, 0, -1706, 408, 16462, 1197, 14, 18, 13, 0, 0
453, 480780512, 5, 2687, 0, 0, 0, 335, 334, 339, 333, 68, 77, 9650, 3, -6, 9, 0, 0, 0, -1036, -538, 16194, 1197, 14, 18, 13, 0, 0
454, 480790550, 5, 2687, 0, 0, 0, 336, 335, 338, 333, 65, 79, 9651, 0, 2, 8, 0, 0, 0, -1950, 340, 16530, 1197, 14, 18, 13, 0, 0
455, 480800591, 5, 2687, 0, 0, 0, 335, 335, 339, 333, 66, 79, 9652, 0, -10, 6, 0, 0, 0, -1324, -86, 16154, 1197, 14, 18, 13, 0, 0
456, 480810788, 5, 2687, 0, 0, 0, 336, 335, 338, 333, 65, 80, 9652, 2, -10, 2, 0, 0, 0, -2182, 958, 15598, 1197, 14, 18, 13, 0, 0
457, 480820665, 5, 2687, 0, 0, 0, 336, 335, 339, 333, 68, 78, 9652, -4, -11, 2, 0, 0, 0, -1482, -4, 15462, 1197, 14, 18, 13, 0, 0
458, 480830710, 5, 2687, 0, 0, 0, 336, 334, 338, 333, 69, 79, 9652, 1, -26, 0, 0, 0, 0, -2764, 422, 16316, 1197, 14, 18, 13, 0, 0
459, 480840757, 5, 2687, 0, 0, 0, 335, 337, 336, 334, 71, 76, 9652, -2, 2, 1, 0, 0, 0, -1248, 46, 15876, 1197, 14, 18, 13, 0, 0
460, 480850784, 5, 2687, 0, 0, 0, 335, 334, 339, 333, 72, 79, 9651, 1, -20, -6, 0, 0, 0, -2570, 310, 16354, 1169, 14, 18, 13, 0, 0
461, 480860856, 5, 2687, 0, 0, 0, 335, 337, 336, 334, 73, 76, 9650, -1, 2, -5, 0, 0, 0, -1458, 76, 16416, 1169, 14, 18, 13, 0, 0
462, 480870863, 5, 2687, 0, 0, 0, 333, 336, 337, 335, 73, 78, 9649, 2, -20, -9, 0, 0, 0, -2274, 302, 16322, 1169, 14, 18, 13, 0, 0
463, 480880920, 5, 2687, 0, 0, 0, 335, 337, 336, 334, 73, 75, 9649, -1, 7, -5, 0, 0, 0, -1382, 40, 16502, 1169, 14, 18, 13, 0, 0
