index_log, time_stamp, mode, thrust, roll, pitch, yaw, ae[0], ae[1], ae[2], ae[3], phi, theta, psi, sp, sq, sr, sax, say, saz, bat_volt, P, P1, P2, temperature, pressure
0, 32473046, 2, 3311, 0, 0, 0, 413, 413, 413, 413, -2312, -3130, -530, -46, 47, -18, -2184, -2972, 14390, 1120, 0, 0, 0, 0, 0
1, 32483124, 2, 3311, 0, 0, 0, 413, 413, 413, 413, -2314, -3125, -534, -53, 10, -22, -4936, -3154, 15042, 1120, 0, 0, 0, 0, 0
2, 32493206, 2, 3311, 0, 0, 0, 413, 413, 413, 413, -2319, -3120, -536, -48, 22, -15, -5346, -1326, 16086, 1120, 0, 0, 0, 0, 0
3, 32503293, 2, 3311, 0, 0, 0, 413, 413, 413, 413, -2310, -3123, -542, -44, 10, -8, -5562, -4140, 16602, 1155, 0, 0, 0, 0, 0
4, 32513354, 2, 3311, 0, 0, 0, 413, 413, 413, 413, -2309, -3120, -545, -46, 32, -11, -5426, -446, 13282, 1155, 0, 0, 0, 0, 0
5, 32523442, 2, 3311, 0, 0, 0, 413, 413, 413, 413, -2308, -3124, -547, -27, 26, 0, -3252, -2816, 14920, 1155, 0, 0, 0, 0, 0
6, 32533571, 2, 3311, 0, 0, 0, 413, 413, 413, 413, -2307, -3118, -549, -35, 5, 3, -4670, -3178, 14592, 1155, 0, 0, 0, 0, 0
7, 32543593, 2, 3311, 0, 0, 0, 413, 413, 413, 413, -2313, -3114, -547, -32, 17, 16, -4560, -1500, 15580, 1155, 0, 0, 0, 0, 0
8, 32553972, 2, 3311, 0, 0, 0, 413, 413, 413, 413, -2305, -3114, -549, -34, 16, 22, -5438, -4040, 16242, 1085, 0, 0, 0, 0, 0
9, 32563737, 2, 3311, 0, 0, 0, 413, 413, 413, 413, -2303, -3112, -549, -43, 35, 22, -5044, -162, 13906, 1085, 0, 0, 0, 0, 0
10, 32573989, 2, 3311, 0, 0, 0, 413, 413, 413, 413, -2303, -3113, -548, -35, 22, 28, -4078, -2790, 14978, 1085, 0, 0, 0, 0, 0
11, 32583883, 2, 3311, 0, 0, 0, 413, 413, 413, 413, -2304, -3107, -547, -50, 8, 29, -4572, -3252, 14598, 1085, 0, 0, 0, 0, 0
12, 32594040, 2, 3311, 0, 0, 0, 413, 413, 413, 413, -2312, -3103, -543, -55, 27, 33, -3984, -1442, 15036, 1085, 0, 0, 0, 0, 0
13, 32604047, 2, 3311, 0, 0, 0, 413, 413, 413, 413, -2309, -3100, -543, -63, 29, 34, -4992, -4160, 15506, 1099, 0, 0, 0, 0, 0
14, 32614129, 2, 3311, 0, 0, 0, 413, 413, 413, 413, -2312, -3097, -542, -75, 47, 31, -4434, -246, 14490, 1099, 0, 0, 0, 0, 0
15, 32624209, 2, 3311, 0, 0, 0, 413, 413, 413, 413, -2315, -3095, -542, -72, 26, 27, -5682, -2570, 15534, 1099, 0, 0, 0, 0, 0
16, 32634266, 2, 3311, 0, 0, 0, 413, 413, 413, 413, -2318, -3089, -542, -86, 12, 21, -4834, -3302, 14934, 1099, 0, 0, 0, 0, 0
17, 32644350, 2, 3311, 0, 0, 0, 413, 413, 413, 413, -2330, -3086, -539, -88, 39, 23, -3268, -1690, 15090, 1099, 0, 0, 0, 0, 0
18, 32654592, 2, 3311, 0, 0, 0, 413, 413, 413, 413, -2332, -3082, -540, -91, 33, 23, -4294, -4554, 15136, 1120, 0, 0, 0, 0, 0
19, 32664512, 2, 3311, 0, 0, 0, 413, 413, 413, 413, -2338, -3079, -540, -94, 44, 20, -3962, -432, 14886, 1120, 0, 0, 0, 0, 0
20, 32674595, 2, 3311, 0, 0, 0, 413, 413, 413, 413, -2343, -3077, -540, -86, -6, 10, -6700, -2136, 15608, 1120, 0, 0, 0, 0, 0
21, 32684656, 2, 3311, 0, 0, 0, 413, 413, 413, 413, -2345, -3073, -542, -92, -13, 7, -4868, -4002, 15298, 1120, 0, 0, 0, 0, 0
22, 32694722, 2, 3311, 0, 0, 0, 413, 413, 413, 413, -2358, -3074, -541, -89, 41, 7, -2514, -1744, 14886, 1120, 0, 0, 0, 0, 0
23, 32704809, 2, 3311, 0, 0, 0, 413, 413, 413, 413, -2361, -3070, -542, -82, 12, 10, -4802, -4704, 15102, 1064, 0, 0, 0, 0, 0
24, 32714865, 2, 3311, 0, 0, 0, 413, 413, 413, 413, -2367, -3070, -542, -77, 35, 14, -4318, -848, 15430, 1064, 0, 0, 0, 0, 0
25, 32724956, 2, 3311, 0, 0, 0, 413, 413, 413, 413, -2370, -3070, -543, -64, -30, 4, -7778, -2084, 15978, 1064, 0, 0, 0, 0, 0
26, 32735028, 2, 3311, 0, 0, 0, 413, 413, 413, 413, -2367, -3069, -545, -58, -32, 7, -4226, -4118, 14864, 1064, 0, 0, 0, 0, 0
27, 32745156, 2, 3311, 0, 0, 0, 413, 413, 413, 413, -2376, -3072, -543, -44, 34, 14, -2020, -1414, 14694, 1064, 0, 0, 0, 0, 0
28, 32755262, 2, 3311, 0, 0, 0, 413, 413, 413, 413, -2374, -3068, -543, -33, 8, 16, -5656, -4910, 15192, 1092, 0, 0, 0, 0, 0
29, 32765362, 2, 3311, 0, 0, 0, 413, 413, 413, 413, -2375, -3069, -542, -24, 34, 28, -4500, -1392, 15640, 1092, 0, 0, 0, 0, 0
30, 32775330, 2, 3311, 0, 0, 0, 413, 413, 413, 413, -2374, -3070, -540, -17, -29, 16, -8208, -1884, 15882, 1092, 0, 0, 0, 0, 0
31, 32785568, 2, 3311, 0, 0, 0, 413, 413, 413, 413, -2367, -3068, -541, -20, -15, 20, -4018, -3956, 14022, 1092, 0, 0, 0, 0, 0
32, 32795478, 2, 3311, 0, 0, 0, 413, 413, 413, 413, -2372, -3070, -539, -23, 79, 26, -1174, -1270, 14426, 1092, 0, 0, 0, 0, 0
33, 32805674, 2, 3311, 0, 0, 0, 413, 413, 413, 413, -2370, -3059, -539, -30, 41, 22, -6562, -4810, 15156, 1134, 0, 0, 0, 0, 0
34, 32815635, 2, 3311, 0, 0, 0, 413, 413, 413, 413, -2371, -3055, -538, -38, 64, 33, -4648, -2194, 16358, 1134, 0, 0, 0, 0, 0
35, 32825706, 2, 3311, 0, 0, 0, 413, 413, 413, 413, -2374, -3051, -538, -41, 18, 15, -7698, -1668, 15968, 1134, 0, 0, 0, 0, 0
36, 32835788, 2, 3311, 0, 0, 0, 413, 413, 413, 413, -2369, -3043, -540, -42, 50, 17, -3542, -3378, 13264, 1134, 0, 0, 0, 0, 0
37, 32845868, 2, 3311, 0, 0, 0, 413, 413, 413, 413, -2374, -3041, -540, -41, 118, 23, -692, -640, 14422, 1134, 0, 0, 0, 0, 0
38, 32855931, 2, 3311, 0, 0, 0, 413, 413, 413, 413, -2371, -3024, -542, -47, 49, 11, -6860, -4228, 15466, 1057, 0, 0, 0, 0, 0
39, 32865989, 2, 3311, 0, 0, 0, 413, 413, 413, 413, -2370, -3018, -543, -52, 59, 25, -3760, -2864, 17006, 1057, 0, 0, 0, 0, 0
40, 32876049, 2, 3311, 0, 0, 0, 413, 413, 413, 413, -2374, -3014, -543, -51, 21, 15, -6714, -1358, 16196, 1057, 0, 0, 0, 0, 0
41, 32886121, 2, 3311, 0, 0, 0, 413, 413, 413, 413, -2371, -3007, -545, -51, 36, 15, -4304, -3020, 12870, 1057, 0, 0, 0, 0, 0
42, 32896175, 2, 3311, 0, 0, 0, 413, 413, 413, 413, -2376, -3013, -544, -52, 47, 23, -1258, -588, 14806, 1057, 0, 0, 0, 0, 0
43, 32906230, 2, 3311, 0, 0, 0, 413, 413, 413, 413, -2376, -3003, -543, -61, -36, 13, -6870, -4256, 15076, 1113, 0, 0, 0, 0, 0
44, 32916283, 2, 3311, 0, 0, 0, 413, 413, 413, 413, -2376, -3005, -542, -61, -3, 39, -2514, -3350, 17058, 1113, 0, 0, 0, 0, 0
45, 32926337, 2, 3311, 0, 0, 0, 413, 413, 413, 413, -2382, -3007, -538, -53, -22, 34, -6500, -1006, 16260, 1113, 0, 0, 0, 0, 0
46, 32936420, 2, 3311, 0, 0, 0, 413, 413, 413, 413, -2380, -3006, -536, -45, -35, 34, -5900, -3092, 13864, 1113, 0, 0, 0, 0, 0
47, 32946464, 2, 3311, 0, 0, 0, 413, 413, 413, 413, -2385, -3018, -531, -39, -10, 51, -1698, -1092, 14942, 1113, 0, 0, 0, 0, 0
48, 32956539, 2, 3311, 0, 0, 0, 413, 413, 413, 413, -2384, -3013, -526, -42, -56, 44, -6392, -3894, 14322, 1078, 0, 0, 0, 0, 0
49, 32966583, 2, 3311, 0, 0, 0, 413, 413, 413, 413, -2382, -3015, -521, -37, -3, 70, -1920, -3176, 16426, 1078, 0, 0, 0, 0, 0
50, 32976747, 2, 3311, 0, 0, 0, 413, 413, 413, 413, -2386, -3015, -514, -32, 7, 65, -6020, -618, 16070, 1078, 0, 0, 0, 0, 0
51, 32986702, 2, 3282, 0, 0, 0, 413, 413, 413, 413, -2383, -3010, -510, -30, -12, 54, -6970, -3090, 14546, 1078, 0, 0, 0, 0, 0
52, 32996909, 2, 3282, 0, 0, 0, 410, 410, 410, 410, -2387, -3017, -504, -37, 36, 63, -2034, -2204, 14782, 1078, 0, 0, 0, 0, 0
53, 33006835, 2, 3282, 0, 0, 0, 410, 410, 410, 410, -2391, -3007, -499, -52, 10, 46, -6020, -4396, 13834, 1141, 0, 0, 0, 0, 0
54, 33017045, 2, 3282, 0, 0, 0, 410, 410, 410, 410, -2392, -3003, -496, -51, 54, 64, -1812, -3110, 15106, 1141, 0, 0, 0, 0, 0
55, 33026938, 2, 3282, 0, 0, 0, 410, 410, 410, 410, -2398, -2997, -491, -44, 56, 54, -5350, -8, 15418, 1141, 0, 0, 0, 0, 0
56, 33037031, 2, 3282, 0, 0, 0, 410, 410, 410, 410, -2396, -2986, -490, -41, 20, 34, -7084, -3002, 15258, 1141, 0, 0, 0, 0, 0
57, 33047085, 2, 3282, 0, 0, 0, 410, 410, 410, 410, -2396, -2987, -488, -38, 55, 42, -2054, -3458, 15448, 1141, 0, 0, 0, 0, 0
58, 33057137, 2, 3282, 0, 0, 0, 410, 410, 410, 410, -2397, -2978, -486, -36, 31, 28, -5454, -4126, 14756, 1113, 0, 0, 0, 0, 0
59, 33067195, 2, 3282, 0, 0, 0, 410, 410, 410, 410, -2394, -2975, -484, -16, 77, 43, -2184, -2074, 14662, 1113, 0, 0, 0, 0, 0
60, 33077408, 2, 3282, 0, 0, 0, 410, 410, 410, 410, -2395, -2973, -483, -3, 5, 30, -6080, 748, 15552, 1113, 0, 0, 0, 0, 0
61, 33087294, 2, 3282, 0, 0, 0, 410, 410, 410, 410, -2385, -2966, -484, -6, -28, 5, -6336, -3510, 14500, 1113, 0, 0, 0, 0, 0
62, 33097360, 2, 3282, 0, 0, 0, 410, 410, 410, 410, -2379, -2971, -484, -10, 10, 14, -1278, -3820, 15520, 1113, 0, 0, 0, 0, 0
63, 33107418, 2, 3282, 0, 0, 0, 410, 410, 410, 410, -2378, -2968, -484, -6, -10, 4, -4672, -2962, 14804, 1078, 0, 0, 0, 0, 0
64, 33117484, 2, 3282, 0, 0, 0, 410, 410, 410, 410, -2374, -2971, -484, 7, 6, 12, -3612, -1766, 15276, 1078, 0, 0, 0, 0, 0
65, 33127531, 2, 3282, 0, 0, 0, 410, 410, 410, 410, -2371, -2978, -484, 5, -55, 0, -6960, -296, 15490, 1078, 0, 0, 0, 0, 0
66, 33137598, 2, 3282, 0, 0, 0, 410, 410, 410, 410, -2360, -2980, -487, -6, -85, -22, -5812, -3742, 14296, 1078, 0, 0, 0, 0, 0
67, 33147672, 2, 3282, 0, 0, 0, 410, 410, 410, 410, -2353, -2989, -490, -9, -10, -9, -1494, -2866, 15062, 1078, 0, 0, 0, 0, 0
68, 33157722, 2, 3282, 0, 0, 0, 410, 410, 410, 410, -2351, -2988, -491, -11, 0, -15, -4530, -1896, 14774, 1092, 0, 0, 0, 0, 0
69, 33167798, 2, 3282, 0, 0, 0, 410, 410, 410, 410, -2347, -2989, -495, -12, 36, -9, -4472, -2192, 15488, 1092, 0, 0, 0, 0, 0
70, 33177830, 2, 3282, 0, 0, 0, 410, 410, 410, 410, -2345, -2991, -498, -26, -15, -18, -7086, -1088, 15432, 1092, 0, 0, 0, 0, 0
71, 33187958, 2, 3282, 0, 0, 0, 410, 410, 410, 410, -2340, -2990, -504, -43, -24, -35, -4822, -3454, 14444, 1092, 0, 0, 0, 0, 0
72, 33197971, 2, 3282, 0, 0, 0, 410, 410, 410, 410, -2336, -2991, -509, -50, 58, -20, -1494, -2508, 14348, 1092, 0, 0, 0, 0, 0
73, 33208140, 2, 3282, 0, 0, 0, 410, 410, 410, 410, -2337, -2986, -514, -51, 40, -22, -4864, -1268, 15114, 1106, 0, 0, 0, 0, 0
74, 33218079, 2, 3282, 0, 0, 0, 410, 410, 410, 410, -2336, -2983, -518, -48, 27, -14, -4914, -2186, 16004, 1106, 0, 0, 0, 0, 0
75, 33228314, 2, 3282, 0, 0, 0, 410, 410, 410, 410, -2337, -2985, -521, -57, -18, -13, -6356, -2118, 15574, 1106, 0, 0, 0, 0, 0
76, 33238192, 2, 3282, 0, 0, 0, 410, 410, 410, 410, -2336, -2987, -524, -63, -35, -15, -4276, -3668, 14896, 1106, 0, 0, 0, 0, 0
77, 33248333, 2, 3282, 0, 0, 0, 410, 410, 410, 410, -2337, -2993, -525, -56, -10, 2, -2796, -1788, 14326, 1106, 0, 0, 0, 0, 0
78, 33258301, 2, 3282, 0, 0, 0, 410, 410, 410, 410, -2340, -2994, -525, -53, -43, 3, -5082, -1164, 15066, 1092, 0, 0, 0, 0, 0
79, 33268380, 2, 3282, 0, 0, 0, 410, 410, 410, 410, -2340, -2999, -525, -53, -24, 16, -3990, -3276, 15360, 1092, 0, 0, 0, 0, 0
80, 33278440, 2, 3282, 0, 0, 0, 410, 410, 410, 410, -2344, -3002, -523, -63, -47, 21, -6242, -2442, 15218, 1092, 0, 0, 0, 0, 0
81, 33288498, 2, 3282, 0, 0, 0, 410, 410, 410, 410, -2347, -3004, -522, -66, -30, 17, -3922, -3292, 14920, 1092, 0, 0, 0, 0, 0
82, 33298575, 2, 3282, 0, 0, 0, 410, 410, 410, 410, -2351, -3006, -520, -65, 3, 26, -3152, -1920, 14676, 1092, 0, 0, 0, 0, 0
83, 33308631, 2, 3282, 0, 0, 0, 410, 410, 410, 410, -2354, -3002, -517, -62, -6, 29, -4944, -1602, 15168, 1134, 0, 0, 0, 0, 0
84, 33318697, 2, 3282, 0, 0, 0, 410, 410, 410, 410, -2356, -3004, -515, -60, 1, 41, -3784, -2916, 15684, 1134, 0, 0, 0, 0, 0
85, 33328749, 2, 3282, 0, 0, 0, 410, 410, 410, 410, -2360, -3003, -512, -62, -32, 43, -6436, -2412, 15204, 1134, 0, 0, 0, 0, 0
86, 33338815, 2, 3282, 0, 0, 0, 410, 410, 410, 410, -2361, -3005, -508, -57, -24, 40, -3396, -3300, 14832, 1134, 0, 0, 0, 0, 0
87, 33348885, 2, 3282, 0, 0, 0, 410, 410, 410, 410, -2365, -3008, -503, -48, -32, 44, -3790, -1374, 14974, 1134, 0, 0, 0, 0, 0
88, 33358931, 2, 3282, 0, 0, 0, 410, 410, 410, 410, -2366, -3007, -498, -43, -43, 46, -5006, -1778, 15146, 1092, 0, 0, 0, 0, 0
89, 33368982, 2, 3282, 0, 0, 0, 410, 410, 410, 410, -2366, -3016, -494, -48, -28, 55, -3562, -3358, 16306, 1092, 0, 0, 0, 0, 0
90, 33379032, 2, 3282, 0, 0, 0, 410, 410, 410, 410, -2369, -3018, -489, -60, -55, 46, -7264, -2544, 15004, 1092, 0, 0, 0, 0, 0
91, 33389092, 2, 3282, 0, 0, 0, 410, 410, 410, 410, -2373, -3024, -485, -64, -46, 34, -3750, -2942, 14778, 1092, 0, 0, 0, 0, 0
92, 33399199, 2, 3282, 0, 0, 0, 410, 410, 410, 410, -2379, -3030, -481, -68, -39, 28, -4404, -1666, 15280, 1092, 0, 0, 0, 0, 0
93, 33409221, 2, 3282, 0, 0, 0, 410, 410, 410, 410, -2382, -3029, -479, -70, -28, 23, -4938, -2294, 14556, 1134, 0, 0, 0, 0, 0
94, 33419390, 2, 3282, 0, 0, 0, 410, 410, 410, 410, -2384, -3038, -478, -67, -5, 27, -2868, -3152, 16760, 1134, 0, 0, 0, 0, 0
95, 33429329, 2, 3282, 0, 0, 0, 410, 410, 410, 410, -2387, -3035, -478, -69, -13, 9, -7372, -2426, 14594, 1134, 0, 0, 0, 0, 0
96, 33439579, 2, 3282, 0, 0, 0, 410, 410, 410, 410, -2389, -3035, -479, -61, 1, -1, -3742, -2976, 15364, 1134, 0, 0, 0, 0, 0
97, 33449472, 2, 3282, 0, 0, 0, 410, 410, 410, 410, -2392, -3037, -481, -58, 28, -9, -5066, -1582, 16082, 1134, 0, 0, 0, 0, 0
98, 33459610, 2, 3282, 0, 0, 0, 410, 410, 410, 410, -2391, -3029, -485, -59, 38, -12, -5868, -2076, 14726, 1071, 0, 0, 0, 0, 0
99, 33469594, 2, 3282, 0, 0, 0, 410, 410, 410, 410, -2389, -3034, -490, -62, 86, -4, -1902, -3212, 15950, 1071, 0, 0, 0, 0, 0
100, 33479642, 2, 3282, 0, 0, 0, 410, 410, 410, 410, -2393, -3023, -495, -77, 33, -24, -7198, -2578, 13682, 1071, 0, 0, 0, 0, 0
101, 33489721, 2, 3282, 0, 0, 0, 410, 410, 410, 410, -2397, -3017, -500, -75, 35, -28, -3266, -3410, 15938, 1071, 0, 0, 0, 0, 0
102, 33499773, 2, 3282, 0, 0, 0, 410, 410, 410, 410, -2403, -3017, -505, -77, 42, -29, -5052, -1688, 17580, 1071, 0, 0, 0, 0, 0
103, 33509824, 2, 3282, 0, 0, 0, 410, 410, 410, 410, -2402, -3006, -512, -80, 40, -28, -6264, -2206, 14172, 1106, 0, 0, 0, 0, 0
104, 33519888, 2, 3282, 0, 0, 0, 410, 410, 410, 410, -2401, -3015, -518, -72, 61, -13, -966, -3146, 15420, 1106, 0, 0, 0, 0, 0
105, 33529948, 2, 3282, 0, 0, 0, 410, 410, 410, 410, -2405, -3008, -521, -71, -27, -26, -6946, -2198, 13496, 1106, 0, 0, 0, 0, 0
106, 33540010, 2, 3282, 0, 0, 0, 410, 410, 410, 410, -2407, -3007, -524, -52, -26, -17, -2572, -3198, 16580, 1106, 0, 0, 0, 0, 0
107, 33550076, 2, 3282, 0, 0, 0, 410, 410, 410, 410, -2408, -3013, -525, -43, -29, -8, -4956, -1790, 17962, 1106, 0, 0, 0, 0, 0
108, 33560130, 2, 3282, 0, 0, 0, 410, 410, 410, 410, -2405, -3009, -527, -42, -63, -6, -7376, -2670, 14306, 1113, 0, 0, 0, 0, 0
109, 33570175, 2, 3282, 0, 0, 0, 410, 410, 410, 410, -2401, -3027, -528, -30, 1, 15, -418, -3076, 14578, 1113, 0, 0, 0, 0, 0
110, 33580258, 2, 3282, 0, 0, 0, 410, 410, 410, 410, -2403, -3027, -526, -30, -54, 8, -6682, -1758, 12150, 1113, 0, 0, 0, 0, 0
111, 33590304, 2, 3282, 0, 0, 0, 410, 410, 410, 410, -2403, -3028, -524, -19, -43, 18, -3008, -3284, 16180, 1113, 0, 0, 0, 0, 0
112, 33600381, 2, 3282, 0, 0, 0, 410, 410, 410, 410, -2404, -3033, -521, -15, -43, 28, -4800, -2236, 18804, 1113, 0, 0, 0, 0, 0
113, 33610471, 2, 3282, 0, 0, 0, 410, 410, 410, 410, -2400, -3024, -519, -20, -59, 26, -8186, -2622, 15226, 1092, 0, 0, 0, 0, 0
114, 33620478, 2, 3282, 0, 0, 0, 410, 410, 410, 410, -2394, -3038, -517, -13, 49, 49, -890, -2974, 14230, 1092, 0, 0, 0, 0, 0
115, 33630625, 2, 3282, 0, 0, 0, 410, 410, 410, 410, -2395, -3038, -514, -21, -14, 34, -7644, -1270, 11774, 1092, 0, 0, 0, 0, 0
116, 33640603, 2, 3282, 0, 0, 0, 410, 410, 410, 410, -2394, -3038, -510, -19, -10, 35, -3376, -3284, 14668, 1092, 0, 0, 0, 0, 0
117, 33650837, 2, 3282, 0, 0, 0, 410, 410, 410, 410, -2397, -3042, -506, -27, -8, 40, -3876, -2538, 18494, 1092, 0, 0, 0, 0, 0
118, 33660723, 2, 3282, 0, 0, 0, 410, 410, 410, 410, -2397, -3029, -504, -44, -34, 28, -8332, -2580, 16000, 1113, 0, 0, 0, 0, 0
119, 33670917, 2, 3282, 0, 0, 0, 410, 410, 410, 410, -2393, -3037, -504, -47, 83, 44, -848, -3122, 14704, 1113, 0, 0, 0, 0, 0
120, 33680851, 2, 3282, 0, 0, 0, 410, 410, 410, 410, -2397, -3035, -502, -65, 20, 28, -7504, -1212, 12076, 1113, 0, 0, 0, 0, 0
121, 33691110, 2, 3282, 0, 0, 0, 410, 410, 410, 410, -2400, -3033, -500, -68, 6, 26, -4012, -3384, 13576, 1113, 0, 0, 0, 0, 0
122, 33700990, 2, 3282, 0, 0, 0, 410, 410, 410, 410, -2409, -3037, -497, -73, -5, 32, -3412, -2676, 18206, 1113, 0, 0, 0, 0, 0
123, 33711027, 2, 3282, 0, 0, 0, 410, 410, 410, 410, -2415, -3021, -496, -85, -21, 18, -7672, -2642, 15928, 1120, 0, 0, 0, 0, 0
124, 33721096, 2, 3282, 0, 0, 0, 410, 410, 410, 410, -2415, -3025, -497, -81, 93, 37, -518, -3434, 15564, 1120, 0, 0, 0, 0, 0
125, 33731154, 2, 3282, 0, 0, 0, 410, 410, 410, 410, -2420, -3023, -496, -90, 32, 27, -7264, -1056, 12994, 1120, 0, 0, 0, 0, 0
126, 33741209, 2, 3282, 0, 0, 0, 410, 410, 410, 410, -2424, -3020, -495, -81, -4, 21, -5062, -3092, 13440, 1120, 0, 0, 0, 0, 0
127, 33751271, 2, 3282, 0, 0, 0, 410, 410, 410, 410, -2433, -3027, -492, -76, -25, 29, -3134, -3006, 16998, 1120, 0, 0, 0, 0, 0
128, 33761319, 2, 3282, 0, 0, 0, 410, 410, 410, 410, -2440, -3015, -491, -76, -21, 16, -6320, -2878, 14582, 1078, 0, 0, 0, 0, 0
129, 33771383, 2, 3282, 0, 0, 0, 410, 410, 410, 410, -2440, -3021, -489, -58, 55, 37, -698, -3662, 16386, 1078, 0, 0, 0, 0, 0
130, 33781441, 2, 3282, 0, 0, 0, 410, 410, 410, 410, -2443, -3019, -487, -54, 1, 32, -7236, -1032, 14780, 1078, 0, 0, 0, 0, 0
131, 33791503, 2, 3282, 0, 0, 0, 410, 410, 410, 410, -2441, -3015, -486, -39, -27, 25, -5730, -2896, 14260, 1078, 0, 0, 0, 0, 0
132, 33801557, 2, 3282, 0, 0, 0, 410, 410, 410, 410, -2443, -3022, -483, -29, -26, 33, -2732, -3298, 16062, 1078, 0, 0, 0, 0, 0
133, 33811629, 2, 3282, 0, 0, 0, 410, 410, 410, 410, -2447, -3014, -480, -29, -15, 23, -5388, -2864, 13572, 1113, 0, 0, 0, 0, 0
134, 33821685, 2, 3282, 0, 0, 0, 410, 410, 410, 410, -2445, -3019, -477, -16, 10, 40, -1000, -3728, 15902, 1113, 0, 0, 0, 0, 0
135, 33831738, 2, 3282, 0, 0, 0, 410, 410, 410, 410, -2445, -3017, -474, -17, -25, 35, -6676, -880, 15082, 1113, 0, 0, 0, 0, 0
136, 33841873, 2, 3282, 0, 0, 0, 410, 410, 410, 410, -2439, -3014, -472, -13, -55, 23, -5800, -2596, 15208, 1113, 0, 0, 0, 0, 0
137, 33851880, 2, 3282, 0, 0, 0, 410, 410, 410, 410, -2436, -3024, -470, -12, -39, 27, -3394, -3272, 16524, 1113, 0, 0, 0, 0, 0
138, 33862078, 2, 3282, 0, 0, 0, 410, 410, 410, 410, -2436, -3024, -467, -15, -40, 14, -6022, -2702, 14030, 1120, 0, 0, 0, 0, 0
139, 33872017, 2, 3282, 0, 0, 0, 410, 410, 410, 410, -2433, -3035, -465, -4, -10, 22, -1810, -3710, 14668, 1120, 0, 0, 0, 0, 0
140, 33882245, 2, 3282, 0, 0, 0, 410, 410, 410, 410, -2434, -3039, -462, -8, -67, 17, -5760, -1460, 14202, 1120, 0, 0, 0, 0, 0
141, 33892156, 2, 3282, 0, 0, 0, 410, 410, 410, 410, -2428, -3041, -462, -3, -83, 6, -5800, -2702, 15572, 1120, 0, 0, 0, 0, 0
142, 33902290, 2, 3282, 0, 0, 0, 410, 410, 410, 410, -2423, -3052, -462, 2, -61, 7, -4096, -3062, 16932, 1120, 0, 0, 0, 0, 0
143, 33912313, 2, 3282, 0, 0, 0, 410, 410, 410, 410, -2419, -3053, -462, 1, -36, -5, -5792, -2398, 14374, 1106, 0, 0, 0, 0, 0
144, 33922388, 2, 3282, 0, 0, 0, 410, 410, 410, 410, -2413, -3061, -462, 11, 11, -1, -2402, -3884, 14446, 1106, 0, 0, 0, 0, 0
145, 33932454, 2, 3282, 0, 0, 0, 410, 410, 410, 410, -2411, -3063, -463, 6, -33, -1, -5390, -1628, 14040, 1106, 0, 0, 0, 0, 0
146, 33942546, 2, 3282, 0, 0, 0, 410, 410, 410, 410, -2404, -3062, -465, 7, -45, -11, -5130, -2284, 15384, 1106, 0, 0, 0, 0, 0
147, 33952617, 2, 3282, 0, 0, 0, 410, 410, 410, 410, -2396, -3068, -468, 5, -30, -12, -4332, -2702, 16510, 1106, 0, 0, 0, 0, 0
148, 33962695, 2, 3282, 0, 0, 0, 410, 410, 410, 410, -2390, -3067, -471, -5, -8, -20, -5670, -2142, 14906, 1113, 0, 0, 0, 0, 0
149, 33972767, 2, 3282, 0, 0, 0, 410, 410, 410, 410, -2385, -3075, -474, -8, 9, -17, -3394, -3896, 14952, 1113, 0, 0, 0, 0, 0
150, 33982847, 2, 3282, 0, 0, 0, 410, 410, 410, 410, -2385, -3077, -476, -22, -36, -16, -5564, -2042, 14428, 1113, 0, 0, 0, 0, 0
151, 33992918, 2, 3282, 0, 0, 0, 410, 410, 410, 410, -2382, -3079, -479, -27, -40, -20, -4064, -2378, 14682, 1113, 0, 0, 0, 0, 0
152, 34002990, 2, 3282, 0, 0, 0, 410, 410, 410, 410, -2379, -3085, -482, -32, -43, -16, -4332, -2346, 15470, 1113, 0, 0, 0, 0, 0
153, 34013074, 2, 3282, 0, 0, 0, 410, 410, 410, 410, -2379, -3088, -484, -39, -50, -17, -5728, -1744, 15106, 1113, 0, 0, 0, 0, 0
154, 34023155, 2, 3282, 0, 0, 0, 410, 410, 410, 410, -2376, -3098, -485, -37, -43, -11, -3914, -4020, 15596, 1113, 0, 0, 0, 0, 0
155, 34033236, 2, 3282, 0, 0, 0, 410, 410, 410, 410, -2378, -3104, -485, -42, -54, 3, -5342, -2440, 14926, 1113, 0, 0, 0, 0, 0
156, 34043293, 2, 3282, 0, 0, 0, 410, 410, 410, 410, -2378, -3109, -485, -32, -44, 11, -3772, -2028, 14824, 1113, 0, 0, 0, 0, 0
157, 34053703, 2, 3282, 0, 0, 0, 410, 410, 410, 410, -2375, -3114, -484, -28, -43, 14, -5422, -1898, 15210, 1106, 0, 0, 0, 0, 0
158, 34063440, 2, 3282, 0, 0, 0, 410, 410, 410, 410, -2373, -3115, -483, -30, -29, 16, -5578, -1680, 15200, 1106, 0, 0, 0, 0, 0
159, 34073671, 2, 3282, 0, 0, 0, 410, 410, 410, 410, -2370, -3120, -482, -30, 1, 23, -3712, -4268, 15098, 1106, 0, 0, 0, 0, 0
160, 34083593, 2, 3282, 0, 0, 0, 410, 410, 410, 410, -2374, -3118, -479, -40, 0, 33, -4944, -2748, 14452, 1106, 0, 0, 0, 0, 0
161, 34093838, 2, 3282, 0, 0, 0, 410, 410, 410, 410, -2377, -3118, -476, -40, 15, 39, -3422, -2170, 14920, 1106, 0, 0, 0, 0, 0
162, 34103737, 2, 3282, 0, 0, 0, 410, 410, 410, 410, -2377, -3116, -475, -45, -1, 34, -6588, -2180, 15472, 1099, 0, 0, 0, 0, 0
163, 34113929, 2, 3282, 0, 0, 0, 410, 410, 410, 410, -2379, -3115, -472, -52, 1, 34, -5582, -1562, 15310, 1099, 0, 0, 0, 0, 0
164, 34123912, 2, 3282, 0, 0, 0, 410, 410, 410, 410, -2377, -3118, -471, -51, 20, 37, -3614, -4182, 15100, 1099, 0, 0, 0, 0, 0
165, 34133973, 2, 3282, 0, 0, 0, 410, 410, 410, 410, -2382, -3114, -466, -54, 4, 46, -4362, -2660, 14388, 1099, 0, 0, 0, 0, 0
166, 34144055, 2, 3282, 0, 0, 0, 410, 410, 410, 410, -2386, -3114, -462, -43, 17, 57, -2644, -1602, 15272, 1099, 0, 0, 0, 0, 0
167, 34154336, 2, 3282, 0, 0, 0, 410, 410, 410, 410, -2385, -3113, -458, -43, -36, 45, -7678, -1816, 15794, 1099, 0, 0, 0, 0, 0
168, 34164192, 2, 3282, 0, 0, 0, 410, 410, 410, 410, -2385, -3113, -454, -47, -32, 45, -5294, -1598, 15154, 1099, 0, 0, 0, 0, 0
169, 34174269, 2, 3282, 0, 0, 0, 410, 410, 410, 410, -2384, -3119, -451, -47, -10, 45, -3088, -4252, 15376, 1099, 0, 0, 0, 0, 0
170, 34184352, 2, 3282, 0, 0, 0, 410, 410, 410, 410, -2388, -3114, -446, -53, -8, 49, -4414, -2670, 14332, 1099, 0, 0, 0, 0, 0
171, 34194421, 2, 3282, 0, 0, 0, 410, 410, 410, 410, -2394, -3118, -440, -47, 12, 58, -2496, -1698, 15742, 1099, 0, 0, 0, 0, 0
172, 34204520, 2, 3282, 0, 0, 0, 410, 410, 410, 410, -2395, -3116, -437, -55, -47, 37, -8194, -2346, 15558, 1106, 0, 0, 0, 0, 0
173, 34214594, 2, 3282, 0, 0, 0, 410, 410, 410, 410, -2398, -3116, -434, -60, -39, 34, -4998, -1966, 14974, 1106, 0, 0, 0, 0, 0
174, 34224660, 2, 3282, 0, 0, 0, 410, 410, 410, 410, -2400, -3124, -431, -57, -23, 29, -3160, -4288, 15620, 1106, 0, 0, 0, 0, 0
175, 34234732, 2, 3282, 0, 0, 0, 410, 410, 410, 410, -2403, -3119, -428, -54, -12, 32, -4938, -2440, 14344, 1106, 0, 0, 0, 0, 0
176, 34244811, 2, 3282, 0, 0, 0, 410, 410, 410, 410, -2407, -3128, -424, -31, -2, 45, -2390, -1326, 16126, 1106, 0, 0, 0, 0, 0
177, 34254977, 2, 3282, 0, 0, 0, 410, 410, 410, 410, -2403, -3127, -423, -26, -49, 23, -8298, -2300, 14910, 1078, 0, 0, 0, 0, 0
178, 34264980, 2, 3282, 0, 0, 0, 410, 410, 410, 410, -2400, -3128, -421, -18, -57, 26, -4840, -1998, 15208, 1078, 0, 0, 0, 0, 0
179, 34275039, 2, 3282, 0, 0, 0, 410, 410, 410, 410, -2395, -3136, -419, -5, -16, 20, -4214, -3926, 16746, 1078, 0, 0, 0, 0, 0
180, 34285191, 2, 3282, 0, 0, 0, 410, 410, 410, 410, -2391, -3132, -418, -3, -7, 19, -6212, -1900, 14428, 1078, 0, 0, 0, 0, 0
181, 34295184, 2, 3282, 0, 0, 0, 410, 410, 410, 410, -2388, -3141, -417, 7, 78, 31, -1380, -1600, 14110, 1078, 0, 0, 0, 0, 0
182, 34305575, 2, 3282, 0, 0, 0, 410, 410, 410, 410, -2383, -3139, -417, -10, -34, 6, -8234, -3182, 13746, 1085, 0, 0, 0, 0, 0
183, 34315333, 2, 3282, 0, 0, 0, 410, 410, 410, 410, -2382, -3137, -417, -25, -34, 5, -4924, -2444, 16708, 1085, 0, 0, 0, 0, 0
184, 34325546, 2, 3282, 0, 0, 0, 410, 410, 410, 410, -2380, -3143, -419, -33, 1, -4, -4812, -3936, 17942, 1085, 0, 0, 0, 0, 0
185, 34335491, 2, 3282, 0, 0, 0, 410, 410, 410, 410, -2379, -3133, -422, -47, 33, -11, -6304, -2024, 12838, 1085, 0, 0, 0, 0, 0
186, 34345585, 2, 3282, 0, 0, 0, 410, 410, 410, 410, -2382, -3141, -424, -42, 101, 4, -1024, -1514, 13764, 1085, 0, 0, 0, 0, 0
187, 34355672, 2, 3282, 0, 0, 0, 410, 410, 410, 410, -2381, -3134, -429, -56, -6, -22, -7882, -3448, 14314, 1078, 0, 0, 0, 0, 0
188, 34365705, 2, 3282, 0, 0, 0, 410, 410, 410, 410, -2381, -3127, -432, -57, 22, -11, -4080, -2388, 17050, 1078, 0, 0, 0, 0, 0
189, 34375787, 2, 3282, 0, 0, 0, 410, 410, 410, 410, -2381, -3128, -437, -46, 34, -15, -5210, -3734, 17944, 1078, 0, 0, 0, 0, 0
190, 34385864, 2, 3282, 0, 0, 0, 410, 410, 410, 410, -2379, -3115, -442, -44, 46, -20, -6498, -1898, 12432, 1078, 0, 0, 0, 0, 0
191, 34395955, 2, 3282, 0, 0, 0, 410, 410, 410, 410, -2381, -3121, -445, -25, 107, 0, -402, -1350, 13672, 1078, 0, 0, 0, 0, 0
192, 34406027, 2, 3282, 0, 0, 0, 410, 410, 410, 410, -2376, -3112, -449, -31, 1, -20, -7430, -4166, 14468, 1134, 0, 0, 0, 0, 0
193, 34416107, 2, 3282, 0, 0, 0, 410, 410, 410, 410, -2373, -3104, -452, -22, 30, -1, -3290, -2600, 17344, 1134, 0, 0, 0, 0, 0
194, 34426182, 2, 3282, 0, 0, 0, 410, 410, 410, 410, -2369, -3105, -454, -3, 15, 0, -5356, -3374, 17886, 1134, 0, 0, 0, 0, 0
195, 34436260, 2, 3282, 0, 0, 0, 410, 410, 410, 410, -2364, -3094, -456, 3, -3, -6, -7140, -1836, 12534, 1134, 0, 0, 0, 0, 0
196, 34446332, 2, 3282, 0, 0, 0, 410, 410, 410, 410, -2363, -3108, -455, 19, 32, 20, -692, -1538, 14034, 1134, 0, 0, 0, 0, 0
197, 34456409, 2, 3282, 0, 0, 0, 410, 410, 410, 410, -2354, -3106, -455, 11, -81, 5, -7034, -4978, 14594, 1120, 0, 0, 0, 0, 0
198, 34466470, 2, 3282, 0, 0, 0, 410, 410, 410, 410, -2349, -3107, -452, 19, -27, 32, -2430, -2230, 16838, 1120, 0, 0, 0, 0, 0
199, 34476560, 2, 3282, 0, 0, 0, 410, 410, 410, 410, -2343, -3116, -449, 34, -59, 33, -6170, -2570, 17408, 1120, 0, 0, 0, 0, 0
200, 34486618, 2, 3282, 0, 0, 0, 410, 410, 410, 410, -2336, -3115, -445, 33, -106, 24, -8120, -2128, 13136, 1120, 0, 0, 0, 0, 0
201, 34496772, 2, 3282, 0, 0, 0, 410, 410, 410, 410, -2333, -3135, -439, 44, -35, 50, -950, -1406, 14158, 1120, 0, 0, 0, 0, 0
202, 34506776, 2, 3282, 0, 0, 0, 410, 410, 410, 410, -2323, -3137, -435, 30, -91, 36, -6354, -4826, 13988, 1092, 0, 0, 0, 0, 0
203, 34516996, 2, 3282, 0, 0, 0, 410, 410, 410, 410, -2317, -3137, -429, 32, 3, 61, -2148, -1640, 15992, 1092, 0, 0, 0, 0, 0
204, 34526921, 2, 3282, 0, 0, 0, 410, 410, 410, 410, -2310, -3143, -424, 38, -14, 56, -6356, -2252, 16892, 1092, 0, 0, 0, 0, 0
205, 34537177, 2, 3282, 0, 0, 0, 410, 410, 410, 410, -2303, -3137, -420, 26, -45, 39, -8218, -2540, 13258, 1092, 0, 0, 0, 0, 0
206, 34547088, 2, 3282, 0, 0, 0, 410, 410, 410, 410, -2304, -3148, -414, 24, 27, 54, -1422, -1312, 14302, 1092, 0, 0, 0, 0, 0
207, 34557205, 2, 3282, 0, 0, 0, 410, 410, 410, 410, -2297, -3142, -412, 2, -5, 30, -6212, -4900, 14008, 1099, 0, 0, 0, 0, 0
208, 34567223, 2, 3282, 0, 0, 0, 410, 410, 410, 410, -2295, -3136, -409, -5, 61, 45, -2290, -1748, 15752, 1099, 0, 0, 0, 0, 0
209, 34577293, 2, 3282, 0, 0, 0, 410, 410, 410, 410, -2292, -3136, -407, -4, 47, 39, -5884, -1736, 16718, 1099, 0, 0, 0, 0, 0
210, 34587369, 2, 3282, 0, 0, 0, 410, 410, 410, 410, -2287, -3128, -407, -14, -10, 20, -8114, -2640, 13808, 1099, 0, 0, 0, 0, 0
211, 34597442, 2, 3282, 0, 0, 0, 410, 410, 410, 410, -2292, -3137, -403, -14, 4, 35, -2328, -1240, 15074, 1099, 0, 0, 0, 0, 0
212, 34607525, 2, 3282, 0, 0, 0, 410, 410, 410, 410, -2287, -3133, -403, -25, -32, 16, -5814, -4734, 14600, 1120, 0, 0, 0, 0, 0
213, 34617586, 2, 3282, 0, 0, 0, 410, 410, 410, 410, -2285, -3134, -400, -21, 18, 38, -2100, -894, 15216, 1120, 0, 0, 0, 0, 0
214, 34627680, 2, 3282, 0, 0, 0, 410, 410, 410, 410, -2282, -3139, -398, -10, 9, 38, -5376, -1274, 16194, 1120, 0, 0, 0, 0, 0
215, 34637747, 2, 3282, 0, 0, 0, 410, 410, 410, 410, -2276, -3134, -396, -14, -47, 24, -7706, -3066, 14108, 1120, 0, 0, 0, 0, 0
216, 34647821, 2, 3282, 0, 0, 0, 410, 410, 410, 410, -2281, -3142, -391, -10, -41, 38, -2884, -1516, 15792, 1120, 0, 0, 0, 0, 0
217, 34657895, 2, 3282, 0, 0, 0, 410, 410, 410, 410, -2276, -3139, -390, -13, -21, 23, -5168, -4484, 14838, 1092, 0, 0, 0, 0, 0
218, 34667971, 2, 3282, 0, 0, 0, 410, 410, 410, 410, -2273, -3139, -386, -7, 29, 46, -2412, -1014, 15066, 1092, 0, 0, 0, 0, 0
219, 34678032, 2, 3282, 0, 0, 0, 410, 410, 410, 410, -2268, -3141, -384, 4, 18, 48, -5072, -1232, 15694, 1092, 0, 0, 0, 0, 0
220, 34688117, 2, 3282, 0, 0, 0, 410, 410, 410, 410, -2260, -3133, -382, 1, -22, 34, -7310, -2954, 14478, 1092, 0, 0, 0, 0, 0
221, 34698198, 2, 3282, 0, 0, 0, 410, 410, 410, 410, -2263, -3134, -378, 0, -5, 41, -3914, -1636, 16370, 1092, 0, 0, 0, 0, 0
222, 34708341, 2, 3282, 0, 0, 0, 410, 410, 410, 410, -2257, -3129, -376, -9, 18, 28, -5018, -4572, 15088, 1127, 0, 0, 0, 0, 0
223, 34718345, 2, 3282, 0, 0, 0, 410, 410, 410, 410, -2254, -3128, -374, -11, 64, 45, -2816, -698, 14388, 1127, 0, 0, 0, 0, 0
224, 34728559, 2, 3282, 0, 0, 0, 410, 410, 410, 410, -2251, -3130, -371, -8, 12, 47, -5118, -962, 15438, 1127, 0, 0, 0, 0, 0
225, 34738509, 2, 3282, 0, 0, 0, 410, 410, 410, 410, -2243, -3126, -370, -18, -48, 34, -6248, -3100, 14674, 1127, 0, 0, 0, 0, 0
226, 34748748, 2, 3282, 0, 0, 0, 410, 410, 410, 410, -2247, -3129, -364, -21, -46, 42, -4260, -1560, 16240, 1127, 0, 0, 0, 0, 0
227, 34758661, 2, 3282, 0, 0, 0, 410, 410, 410, 410, -2244, -3131, -361, -24, -50, 34, -4920, -3938, 15494, 1127, 0, 0, 0, 0, 0
228, 34768810, 2, 3282, 0, 0, 0, 410, 410, 410, 410, -2243, -3138, -356, -24, -22, 47, -3766, -716, 14754, 1127, 0, 0, 0, 0, 0
229, 34778802, 2, 3282, 0, 0, 0, 410, 410, 410, 410, -2241, -3147, -351, -20, -54, 54, -5162, -1150, 15366, 1127, 0, 0, 0, 0, 0
230, 34788903, 2, 3282, 0, 0, 0, 410, 410, 410, 410, -2234, -3150, -348, -22, -67, 51, -5546, -3164, 14626, 1127, 0, 0, 0, 0, 0
231, 34798971, 2, 3282, 0, 0, 0, 410, 410, 410, 410, -2238, -3155, -341, -21, -55, 58, -4910, -1274, 15382, 1127, 0, 0, 0, 0, 0
232, 34809012, 2, 3282, 0, 0, 0, 410, 410, 410, 410, -2237, -3156, -336, -21, -21, 50, -4142, -4142, 14866, 1099, 0, 0, 0, 0, 0
233, 34819086, 2, 3282, 0, 0, 0, 410, 410, 410, 410, -2237, -3157, -330, -23, 20, 60, -3736, -1242, 14720, 1099, 0, 0, 0, 0, 0
234, 34829175, 2, 3282, 0, 0, 0, 410, 410, 410, 410, -2236, -3155, -324, -19, 10, 68, -5388, -974, 15510, 1099, 0, 0, 0, 0, 0
235, 34839261, 2, 3282, 0, 0, 0, 410, 410, 410, 410, -2229, -3152, -321, -25, 6, 63, -5300, -2962, 15588, 1099, 0, 0, 0, 0, 0
236, 34849338, 2, 3282, 0, 0, 0, 410, 410, 410, 410, -2232, -3146, -315, -32, 14, 64, -4774, -1288, 14924, 1099, 0, 0, 0, 0, 0
237, 34859407, 2, 3282, 0, 0, 0, 410, 410, 410, 410, -2233, -3140, -311, -35, 30, 59, -2762, -4368, 14888, 1085, 0, 0, 0, 0, 0
238, 34869446, 2, 3282, 0, 0, 0, 410, 410, 410, 410, -2237, -3135, -304, -41, 20, 61, -4322, -1096, 15448, 1085, 0, 0, 0, 0, 0
239, 34879531, 2, 3282, 0, 0, 0, 410, 410, 410, 410, -2239, -3130, -299, -38, -5, 60, -5440, -1152, 15698, 1085, 0, 0, 0, 0, 0
240, 34889581, 2, 3282, 0, 0, 0, 410, 410, 410, 410, -2232, -3132, -296, -40, -6, 57, -3998, -3418, 15982, 1085, 0, 0, 0, 0, 0
241, 34899645, 2, 3282, 0, 0, 0, 410, 410, 410, 410, -2235, -3130, -291, -38, -24, 56, -4794, -850, 14288, 1085, 0, 0, 0, 0, 0
242, 34909693, 2, 3282, 0, 0, 0, 410, 410, 410, 410, -2235, -3130, -286, -22, -47, 47, -3086, -3824, 15290, 1078, 0, 0, 0, 0, 0
243, 34919941, 2, 3282, 0, 0, 0, 410, 410, 410, 410, -2238, -3131, -279, -17, -74, 41, -5154, -1108, 15876, 1078, 0, 0, 0, 0, 0
244, 34929829, 2, 3282, 0, 0, 0, 410, 410, 410, 410, -2234, -3134, -275, -7, -89, 42, -5336, -1174, 16022, 1078, 0, 0, 0, 0, 0
245, 34939987, 2, 3282, 0, 0, 0, 410, 410, 410, 410, -2221, -3150, -273, -1, -63, 42, -3322, -3436, 15484, 1078, 0, 0, 0, 0, 0
246, 34949932, 2, 3282, 0, 0, 0, 410, 410, 410, 410, -2219, -3158, -267, 1, -106, 36, -5856, -106, 12988, 1078, 0, 0, 0, 0, 0
247, 34960162, 2, 3282, 0, 0, 0, 410, 410, 410, 410, -2214, -3171, -263, 11, -117, 27, -3836, -3314, 15024, 1113, 0, 0, 0, 0, 0
248, 34970063, 2, 3282, 0, 0, 0, 410, 410, 410, 410, -2213, -3184, -258, -1, -164, 14, -7014, -1748, 16506, 1113, 0, 0, 0, 0, 0
249, 34980242, 2, 3282, 0, 0, 0, 410, 410, 410, 410, -2208, -3194, -256, -8, -133, 11, -5762, -1124, 15780, 1113, 0, 0, 0, 0, 0
250, 34990180, 2, 3282, 0, 0, 0, 410, 410, 410, 410, -2196, -3217, -257, -14, -63, 13, -2722, -2918, 14752, 1113, 0, 0, 0, 0, 0
251, 35000256, 2, 3282, 0, 0, 0, 410, 410, 410, 410, -2194, -3225, -255, -28, -89, 2, -6804, 238, 12470, 1113, 0, 0, 0, 0, 0
252, 35010309, 2, 3282, 0, 0, 0, 410, 410, 410, 410, -2192, -3238, -256, -33, -77, -3, -3616, -3688, 15052, 1078, 0, 0, 0, 0, 0
253, 35020350, 2, 3282, 0, 0, 0, 410, 410, 410, 410, -2195, -3245, -257, -55, -98, -18, -7338, -2356, 16222, 1078, 0, 0, 0, 0, 0
254, 35030419, 2, 3282, 0, 0, 0, 410, 410, 410, 410, -2197, -3246, -258, -64, -41, -17, -5332, -816, 15226, 1078, 0, 0, 0, 0, 0
255, 35040477, 2, 3282, 0, 0, 0, 410, 410, 410, 410, -2192, -3259, -264, -70, 38, -9, -1952, -3164, 15324, 1078, 0, 0, 0, 0, 0
256, 35050534, 2, 3282, 0, 0, 0, 410, 410, 410, 410, -2195, -3254, -267, -85, 8, -13, -7390, -454, 12872, 1078, 0, 0, 0, 0, 0
257, 35060579, 2, 3282, 0, 0, 0, 410, 410, 410, 410, -2197, -3258, -271, -75, 7, -8, -3650, -3654, 15724, 1113, 0, 0, 0, 0, 0
258, 35070658, 2, 3282, 0, 0, 0, 410, 410, 410, 410, -2202, -3258, -273, -75, -27, -16, -7530, -2624, 15798, 1113, 0, 0, 0, 0, 0
259, 35080719, 2, 3282, 0, 0, 0, 410, 410, 410, 410, -2208, -3253, -273, -65, 9, -1, -4662, -1230, 14314, 1113, 0, 0, 0, 0, 0
260, 35090773, 2, 3282, 0, 0, 0, 410, 410, 410, 410, -2204, -3265, -276, -48, 37, 19, -1204, -3698, 15696, 1113, 0, 0, 0, 0, 0
261, 35100850, 2, 3282, 0, 0, 0, 410, 410, 410, 410, -2205, -3257, -275, -44, -21, 15, -8328, -452, 13250, 1113, 0, 0, 0, 0, 0
262, 35110918, 2, 3282, 0, 0, 0, 410, 410, 410, 410, -2204, -3264, -273, -22, -35, 31, -3990, -3074, 16988, 1127, 0, 0, 0, 0, 0
263, 35120983, 2, 3282, 0, 0, 0, 410, 410, 410, 410, -2202, -3269, -271, -22, -61, 25, -7950, -3092, 16258, 1127, 0, 0, 0, 0, 0
264, 35131071, 2, 3282, 0, 0, 0, 410, 410, 410, 410, -2204, -3268, -266, -13, -36, 34, -4540, -1236, 12920, 1127, 0, 0, 0, 0, 0
265, 35141067, 2, 3282, 0, 0, 0, 410, 410, 410, 410, -2197, -3284, -264, 3, 23, 49, 100, -3136, 14872, 1127, 0, 0, 0, 0, 0
266, 35151237, 2, 3282, 0, 0, 0, 410, 410, 410, 410, -2194, -3277, -259, -2, -55, 38, -8912, -252, 14190, 1127, 0, 0, 0, 0, 0
267, 35161215, 2, 3282, 0, 0, 0, 410, 410, 410, 410, -2185, -3283, -256, 11, -33, 48, -3844, -2788, 17676, 1120, 0, 0, 0, 0, 0
268, 35171415, 2, 3282, 0, 0, 0, 410, 410, 410, 410, -2180, -3290, -253, 1, -75, 33, -7626, -3080, 16466, 1120, 0, 0, 0, 0, 0
269, 35181327, 2, 3282, 0, 0, 0, 410, 410, 410, 410, -2181, -3287, -249, -8, -32, 32, -5064, -990, 11788, 1120, 0, 0, 0, 0, 0
270, 35191533, 2, 3282, 0, 0, 0, 410, 410, 410, 410, -2176, -3303, -247, -12, 43, 44, 44, -3120, 14498, 1120, 0, 0, 0, 0, 0
271, 35201436, 2, 3282, 0, 0, 0, 410, 410, 410, 410, -2177, -3293, -244, -45, -54, 22, -9566, -732, 15004, 1120, 0, 0, 0, 0, 0
272, 35211542, 2, 3282, 0, 0, 0, 410, 410, 410, 410, -2174, -3295, -243, -50, -15, 36, -3000, -3310, 18426, 1127, 0, 0, 0, 0, 0
273, 35221552, 2, 3282, 0, 0, 0, 410, 410, 410, 410, -2176, -3299, -242, -65, -25, 28, -6868, -3162, 16636, 1127, 0, 0, 0, 0, 0
274, 35231620, 2, 3282, 0, 0, 0, 410, 410, 410, 410, -2185, -3292, -238, -75, 20, 25, -6640, -582, 10820, 1127, 0, 0, 0, 0, 0
275, 35241664, 2, 3282, 0, 0, 0, 410, 410, 410, 410, -2188, -3311, -237, -68, 56, 37, -744, -3604, 14502, 1127, 0, 0, 0, 0, 0
276, 35251740, 2, 3282, 0, 0, 0, 410, 410, 410, 410, -2194, -3301, -235, -87, -52, 15, -9668, -1538, 14396, 1127, 0, 0, 0, 0, 0
277, 35261793, 2, 3282, 0, 0, 0, 410, 410, 410, 410, -2195, -3300, -235, -72, 19, 33, -2226, -2970, 18166, 1064, 0, 0, 0, 0, 0
278, 35271859, 2, 3282, 0, 0, 0, 410, 410, 410, 410, -2197, -3302, -234, -67, 17, 32, -6348, -2628, 17278, 1064, 0, 0, 0, 0, 0
279, 35281905, 2, 3282, 0, 0, 0, 410, 410, 410, 410, -2204, -3291, -232, -68, 9, 22, -8184, -606, 12028, 1064, 0, 0, 0, 0, 0
280, 35291989, 2, 3282, 0, 0, 0, 410, 410, 410, 410, -2206, -3309, -230, -55, 43, 38, -1032, -3740, 14266, 1064, 0, 0, 0, 0, 0
281, 35302057, 2, 3282, 0, 0, 0, 410, 410, 410, 410, -2210, -3304, -228, -70, -65, 23, -8594, -1992, 13284, 1064, 0, 0, 0, 0, 0
282, 35312104, 2, 3282, 0, 0, 0, 410, 410, 410, 410, -2211, -3303, -225, -51, 15, 45, -1498, -2256, 17332, 1099, 0, 0, 0, 0, 0
283, 35322161, 2, 3282, 0, 0, 0, 410, 410, 410, 410, -2209, -3305, -223, -41, -3, 44, -5954, -2062, 18362, 1099, 0, 0, 0, 0, 0
284, 35332226, 2, 3282, 0, 0, 0, 410, 410, 410, 410, -2212, -3293, -220, -46, -38, 30, -9118, -588, 14016, 1099, 0, 0, 0, 0, 0
285, 35342287, 2, 3282, 0, 0, 0, 410, 410, 410, 410, -2210, -3308, -217, -38, 55, 51, -760, -4328, 14438, 1099, 0, 0, 0, 0, 0
286, 35352346, 2, 3282, 0, 0, 0, 410, 410, 410, 410, -2216, -3303, -213, -59, -21, 38, -7910, -2538, 12460, 1099, 0, 0, 0, 0, 0
287, 35362446, 2, 3282, 0, 0, 0, 410, 410, 410, 410, -2219, -3298, -209, -51, 47, 52, -2380, -1958, 16066, 1085, 0, 0, 0, 0, 0
288, 35372472, 2, 3282, 0, 0, 0, 410, 410, 410, 410, -2220, -3297, -207, -50, 25, 53, -5564, -2048, 18646, 1085, 0, 0, 0, 0, 0
289, 35382650, 2, 3282, 0, 0, 0, 410, 410, 410, 410, -2223, -3280, -204, -62, -7, 40, -9166, -758, 14796, 1085, 0, 0, 0, 0, 0
290, 35392591, 2, 3355, 0, 0, 0, 410, 410, 410, 410, -2223, -3289, -201, -57, 75, 66, -886, -4536, 14910, 1085, 0, 0, 0, 0, 0
291, 35402811, 2, 3355, 0, 0, 0, 419, 419, 419, 419, -2228, -3285, -195, -72, -5, 62, -7390, -2716, 12718, 1071, 0, 0, 0, 0, 0
292, 35412708, 2, 3311, 0, 0, 0, 419, 419, 419, 419, -2235, -3283, -187, -57, 16, 79, -2986, -1292, 14278, 1071, 0, 0, 0, 0, 0
293, 35422858, 2, 3311, 0, 0, 0, 413, 413, 413, 413, -2239, -3291, -179, -48, -43, 84, -5824, -1958, 17858, 1071, 0, 0, 0, 0, 0
294, 35432834, 2, 3311, 0, 0, 0, 413, 413, 413, 413, -2243, -3281, -171, -60, -69, 71, -8956, -1368, 14776, 1071, 0, 0, 0, 0, 0
295, 35442875, 2, 3311, 0, 0, 0, 413, 413, 413, 413, -2243, -3295, -163, -52, 9, 98, -736, -4660, 15934, 1071, 0, 0, 0, 0, 0
296, 35453276, 2, 3311, 0, 0, 0, 413, 413, 413, 413, -2249, -3293, -153, -60, -16, 94, -6828, -2892, 13472, 1085, 0, 0, 0, 0, 0
297, 35463000, 2, 3311, 0, 0, 0, 413, 413, 413, 413, -2258, -3289, -142, -46, 16, 104, -4054, -996, 13966, 1085, 0, 0, 0, 0, 0
298, 35473074, 2, 3311, 0, 0, 0, 413, 413, 413, 413, -2262, -3292, -132, -42, 3, 103, -5870, -2346, 16798, 1085, 0, 0, 0, 0, 0
299, 35483112, 2, 3311, 0, 0, 0, 413, 413, 413, 413, -2266, -3277, -125, -61, 32, 81, -7628, -1662, 13328, 1085, 0, 0, 0, 0, 0
300, 35493185, 2, 3311, 0, 0, 0, 413, 413, 413, 413, -2268, -3277, -117, -58, 107, 99, 132, -4650, 14612, 1085, 0, 0, 0, 0, 0
301, 35503237, 2, 3311, 0, 0, 0, 413, 413, 413, 413, -2274, -3264, -110, -71, 78, 94, -5546, -2564, 13830, 1127, 0, 0, 0, 0, 0
302, 35513296, 2, 3311, 0, 0, 0, 413, 413, 413, 413, -2282, -3249, -102, -61, 77, 91, -5304, -160, 15516, 1127, 0, 0, 0, 0, 0
303, 35523362, 2, 3311, 0, 0, 0, 413, 413, 413, 413, -2283, -3248, -96, -58, 22, 83, -6402, -2390, 17616, 1127, 0, 0, 0, 0, 0
304, 35533598, 2, 3311, 0, 0, 0, 413, 413, 413, 413, -2286, -3236, -91, -72, -2, 63, -6394, -2274, 13262, 1127, 0, 0, 0, 0, 0
305, 35543500, 2, 3311, 0, 0, 0, 413, 413, 413, 413, -2289, -3237, -86, -61, 71, 76, -130, -3838, 14322, 1127, 0, 0, 0, 0, 0
306, 35553825, 2, 3311, 0, 0, 0, 413, 413, 413, 413, -2293, -3231, -80, -61, 4, 64, -5362, -1864, 14770, 1106, 0, 0, 0, 0, 0
307, 35563625, 2, 3311, 0, 0, 0, 413, 413, 413, 413, -2297, -3224, -74, -50, -13, 54, -5464, -120, 16304, 1106, 0, 0, 0, 0, 0
308, 35573723, 2, 3311, 0, 0, 0, 413, 413, 413, 413, -2295, -3231, -71, -51, -54, 49, -6238, -3062, 17798, 1106, 0, 0, 0, 0, 0
309, 35583737, 2, 3311, 0, 0, 0, 413, 413, 413, 413, -2295, -3231, -69, -70, -68, 30, -6622, -2498, 14132, 1106, 0, 0, 0, 0, 0
310, 35593929, 2, 3311, 0, 0, 0, 413, 413, 413, 413, -2298, -3241, -66, -67, 14, 30, -1492, -2996, 13498, 1106, 0, 0, 0, 0, 0
311, 35603881, 2, 3311, 0, 0, 0, 413, 413, 413, 413, -2305, -3244, -63, -75, -49, 23, -5204, -1902, 14262, 1078, 0, 0, 0, 0, 0
312, 35614088, 2, 3311, 0, 0, 0, 413, 413, 413, 413, -2313, -3243, -60, -81, -52, 17, -5482, -1120, 15950, 1078, 0, 0, 0, 0, 0
313, 35623983, 2, 3311, 0, 0, 0, 413, 413, 413, 413, -2314, -3252, -60, -91, -63, 14, -5360, -3780, 17696, 1078, 0, 0, 0, 0, 0
314, 35634170, 2, 3311, 0, 0, 0, 413, 413, 413, 413, -2319, -3252, -61, -104, -44, 8, -6072, -2498, 14676, 1078, 0, 0, 0, 0, 0
315, 35644106, 2, 3311, 0, 0, 0, 413, 413, 413, 413, -2326, -3260, -60, -95, 26, 14, -3038, -2346, 13986, 1078, 0, 0, 0, 0, 0
316, 35654345, 2, 3311, 0, 0, 0, 413, 413, 413, 413, -2334, -3260, -59, -91, -12, 20, -5494, -2476, 13962, 1071, 0, 0, 0, 0, 0
317, 35664208, 2, 3311, 0, 0, 0, 413, 413, 413, 413, -2343, -3256, -57, -85, -4, 25, -5070, -1546, 14648, 1071, 0, 0, 0, 0, 0
318, 35674280, 2, 3311, 0, 0, 0, 413, 413, 413, 413, -2346, -3257, -56, -78, 7, 28, -4974, -3712, 16554, 1071, 0, 0, 0, 0, 0
319, 35684338, 2, 3282, 3, 0, 95, 413, 413, 413, 413, -2348, -3252, -55, -74, 17, 31, -5766, -2436, 15454, 1071, 0, 0, 0, 0, 0
320, 35694404, 2, 3282, 3, 0, 95, 398, 421, 398, 422, -2351, -3254, -53, -54, 46, 41, -4762, -1176, 15774, 1071, 0, 0, 0, 0, 0
321, 35704472, 2, 3282, 27, 0, 226, 398, 421, 398, 422, -2351, -3252, -50, -48, 7, 46, -6426, -2588, 14964, 1106, 0, 0, 0, 0, 0
322, 35714542, 2, 3282, 27, 0, 226, 382, 435, 382, 441, -2353, -3251, -47, -50, 9, 51, -4534, -2494, 15336, 1106, 0, 0, 0, 0, 0
323, 35724605, 2, 3282, 42, 0, 295, 382, 435, 382, 441, -2355, -3249, -43, -44, 17, 48, -5040, -3576, 15170, 1106, 0, 0, 0, 0, 0
324, 35734674, 2, 3282, 42, 0, 295, 373, 441, 373, 452, -2357, -3245, -40, -43, 20, 45, -5426, -1948, 15392, 1106, 0, 0, 0, 0, 0
325, 35744727, 2, 3282, 77, 0, 448, 373, 441, 373, 452, -2359, -3243, -36, -37, 48, 44, -4122, -1686, 14968, 1106, 0, 0, 0, 0, 0
326, 35754902, 2, 3282, 77, 0, 448, 354, 456, 354, 475, -2359, -3237, -35, -48, 34, 42, -6296, -2924, 15518, 1120, 0, 0, 0, 0, 0
327, 35764832, 2, 3282, 125, 34, 511, 354, 456, 354, 475, -2359, -3232, -35, -63, 64, 35, -3940, -2622, 15280, 1120, 0, 0, 0, 0, 0
328, 35774916, 2, 3282, 125, 34, 511, 350, 458, 342, 489, -2363, -3223, -35, -73, 61, 21, -5638, -2852, 15366, 1120, 0, 0, 0, 0, 0
329, 35785008, 2, 3282, 172, 74, 511, 350, 458, 342, 489, -2367, -3214, -35, -84, 58, 19, -4918, -2344, 15356, 1120, 0, 0, 0, 0, 0
330, 35795017, 2, 3282, 172, 74, 511, 355, 452, 337, 495, -2375, -3208, -36, -93, 71, 19, -3588, -1958, 15126, 1120, 0, 0, 0, 0, 0
331, 35805190, 2, 3282, 172, 74, 511, 355, 452, 337, 495, -2380, -3200, -38, -109, 43, 14, -5528, -3258, 15268, 1134, 0, 0, 0, 0, 0
332, 35815154, 2, 3282, 255, 132, 511, 355, 452, 337, 495, -2386, -3196, -40, -119, 61, 15, -3764, -2512, 15432, 1134, 0, 0, 0, 0, 0
333, 35825349, 2, 3282, 255, 132, 511, 362, 442, 329, 506, -2396, -3192, -40, -120, 9, 3, -7346, -2072, 15766, 1134, 0, 0, 0, 0, 0
334, 35835266, 2, 3282, 255, 162, 511, 362, 442, 329, 506, -2404, -3188, -41, -120, 17, 20, -4184, -3490, 14590, 1134, 0, 0, 0, 0, 0
335, 35845487, 2, 3282, 255, 162, 511, 366, 442, 326, 506, -2418, -3188, -38, -116, 57, 43, -2182, -2794, 14552, 1134, 0, 0, 0, 0, 0
336, 35855438, 2, 3282, 255, 195, 511, 366, 442, 326, 506, -2429, -3179, -33, -109, 18, 58, -6594, -3414, 14746, 1092, 0, 0, 0, 0, 0
337, 35865491, 2, 3282, 255, 195, 511, 370, 442, 322, 506, -2438, -3177, -27, -97, 3, 83, -4972, -2628, 16680, 1092, 0, 0, 0, 0, 0
338, 35875524, 2, 3282, 255, 198, 511, 370, 442, 322, 506, -2447, -3175, -18, -81, 1, 95, -6242, -3054, 15384, 1092, 0, 0, 0, 0, 0
339, 35885613, 2, 3282, 255, 198, 511, 371, 442, 321, 506, -2454, -3171, -5, -66, 37, 138, -4236, -4012, 12976, 1092, 0, 0, 0, 0, 0
340, 35895674, 2, 3282, 255, 160, 511, 371, 442, 321, 506, -2466, -3175, 13, -42, 18, 174, -4076, -1622, 15086, 1092, 0, 0, 0, 0, 0
341, 35905749, 2, 3282, 255, 160, 511, 366, 442, 326, 506, -2471, -3167, 32, -28, -23, 186, -7864, -2590, 14084, 1085, 0, 0, 0, 0, 0
342, 35915845, 2, 3282, 255, 148, 511, 366, 442, 326, 506, -2475, -3163, 53, -13, 0, 209, -4218, -3612, 14216, 1085, 0, 0, 0, 0, 0
343, 35925930, 2, 3282, 255, 148, 511, 364, 442, 327, 506, -2480, -3161, 77, 7, 47, 228, -3340, -3172, 14362, 1085, 0, 0, 0, 0, 0
344, 35936020, 2, 3282, 255, 132, 511, 364, 442, 327, 506, -2485, -3150, 103, 23, 29, 235, -6316, -2538, 13120, 1085, 0, 0, 0, 0, 0
345, 35946101, 2, 3282, 255, 132, 511, 362, 442, 329, 506, -2486, -3144, 127, 40, 14, 230, -5406, -3878, 15824, 1085, 0, 0, 0, 0, 0
346, 35956151, 2, 3282, 255, 132, 511, 362, 442, 329, 506, -2484, -3136, 151, 57, 66, 222, -3886, -3396, 14758, 1071, 0, 0, 0, 0, 0
347, 35966217, 2, 3282, 255, 132, 511, 362, 442, 329, 506, -2482, -3124, 173, 87, 80, 221, -5918, -2560, 15200, 1071, 0, 0, 0, 0, 0
348, 35976301, 2, 3282, 255, 125, 511, 362, 442, 329, 506, -2475, -3109, 192, 111, 82, 191, -5606, -3252, 16556, 1071, 0, 0, 0, 0, 0
349, 35986373, 2, 3282, 255, 125, 511, 362, 442, 330, 506, -2460, -3092, 207, 145, 141, 163, -4390, -3224, 16100, 1071, 0, 0, 0, 0, 0
350, 35996477, 2, 3282, 255, 121, 511, 362, 442, 330, 506, -2442, -3072, 219, 189, 205, 154, -4218, -2252, 15378, 1071, 0, 0, 0, 0, 0
351, 36006518, 2, 3282, 255, 121, 511, 361, 442, 331, 506, -2416, -3047, 227, 237, 178, 124, -5886, -2286, 16276, 1099, 0, 0, 0, 0, 0
352, 36016640, 2, 3282, 255, 126, 511, 361, 442, 331, 506, -2386, -3023, 232, 272, 177, 82, -5544, -2854, 15098, 1099, 0, 0, 0, 0, 0
353, 36026651, 2, 3282, 255, 126, 511, 362, 442, 330, 506, -2350, -2998, 235, 317, 213, 64, -2718, -4390, 14024, 1099, 0, 0, 0, 0, 0
354, 36036872, 2, 3282, 255, 126, 511, 362, 442, 330, 506, -2316, -2975, 238, 362, 209, 65, -4986, -2194, 15152, 1099, 0, 0, 0, 0, 0
355, 36046799, 2, 3282, 255, 134, 511, 362, 442, 330, 506, -2274, -2953, 238, 404, 101, 33, -6814, -2794, 16784, 1099, 0, 0, 0, 0, 0
356, 36057035, 2, 3282, 255, 134, 511, 363, 442, 329, 506, -2222, -2939, 236, 434, 89, 14, -4070, -3856, 15670, 1099, 0, 0, 0, 0, 0
357, 36066937, 2, 3282, 255, 134, 511, 363, 442, 329, 506, -2165, -2937, 237, 484, 95, 27, -888, -3494, 14678, 1099, 0, 0, 0, 0, 0
358, 36077100, 2, 3282, 255, 134, 511, 363, 442, 329, 506, -2110, -2930, 239, 532, 38, 34, -7428, -1976, 15696, 1099, 0, 0, 0, 0, 0
359, 36087089, 2, 3282, 255, 130, 511, 363, 442, 329, 506, -2045, -2935, 240, 567, -106, 5, -5142, -3758, 18038, 1099, 0, 0, 0, 0, 0
360, 36097168, 2, 3282, 255, 130, 511, 362, 442, 330, 506, -1976, -2944, 240, 605, 10, 0, -2116, -2948, 13674, 1099, 0, 0, 0, 0, 0
361, 36107241, 2, 3282, 255, 113, 511, 362, 442, 330, 506, -1904, -2949, 241, 650, 20, 12, -3056, -3250, 12132, 1092, 0, 0, 0, 0, 0
362, 36117323, 2, 3282, 255, 113, 511, 360, 442, 332, 506, -1832, -2951, 241, 695, 9, -6, -7626, -2332, 16364, 1092, 0, 0, 0, 0, 0
363, 36127372, 2, 3282, 255, 107, 511, 360, 442, 332, 506, -1750, -2951, 236, 723, -61, -53, -3272, -4100, 19172, 1092, 0, 0, 0, 0, 0
364, 36137464, 2, 3282, 255, 107, 511, 359, 442, 333, 506, -1666, -2937, 231, 773, 105, -37, -2092, -3038, 12080, 1092, 0, 0, 0, 0, 0
365, 36147693, 2, 3282, 255, 72, 511, 359, 442, 333, 506, -1580, -2925, 227, 835, 121, -31, -2430, -3164, 13078, 1092, 0, 0, 0, 0, 0
366, 36157592, 2, 3282, 255, 72, 511, 355, 442, 337, 506, -1492, -2908, 223, 902, 7, -53, -9282, -3278, 18020, 1092, 0, 0, 0, 0, 0
367, 36167670, 2, 3282, 255, 46, 511, 355, 442, 337, 506, -1389, -2898, 218, 963, -89, -64, -698, -6110, 19436, 1092, 0, 0, 0, 0, 0
368, 36177766, 2, 3282, 255, 46, 511, 352, 442, 340, 506, -1290, -2880, 219, 1056, 106, -15, -1778, -2742, 10120, 1092, 0, 0, 0, 0, 0
369, 36187826, 2, 3282, 152, 0, 511, 352, 442, 340, 506, -1180, -2879, 220, 1142, -93, -30, -6530, -3334, 16256, 1092, 0, 0, 0, 0, 0
370, 36197904, 2, 3282, 152, 0, 511, 346, 455, 346, 493, -1058, -2881, 220, 1222, -227, -59, -6824, -5628, 18670, 1092, 0, 0, 0, 0, 0
371, 36207950, 2, 3282, 75, 0, 511, 346, 455, 346, 493, -926, -2896, 218, 1295, -231, -69, 3306, -6950, 20898, 1099, 0, 0, 0, 0, 0
372, 36218024, 2, 3282, 75, 0, 511, 346, 464, 346, 483, -796, -2882, 219, 1382, -60, -34, -5620, -1856, 8000, 1099, 0, 0, 0, 0, 0
373, 36228164, 2, 3282, 11, 0, 511, 346, 464, 346, 483, -650, -2917, 213, 1427, -339, -108, -5248, -6110, 18876, 1099, 0, 0, 0, 0, 0
374, 36238184, 2, 3282, 11, 0, 511, 346, 472, 346, 475, -507, -2942, 206, 1473, -351, -152, -4730, -7646, 17506, 1099, 0, 0, 0, 0, 0
375, 36248389, 2, 3282, 11, 0, 511, 346, 472, 346, 475, -355, -2970, 194, 1520, -41, -172, 3064, -7302, 14614, 1099, 0, 0, 0, 0, 0
376, 36258325, 2, 3282, 0, -2, 432, 346, 472, 346, 475, -210, -2968, 182, 1598, -24, -168, -8682, -2644, 4898, 1106, 0, 0, 0, 0, 0
377, 36268593, 2, 3282, 0, -2, 432, 356, 464, 356, 464, -38, -3034, 160, 1650, -472, -258, -6872, -5358, 17782, 1106, 0, 0, 0, 0, 0
378, 36278482, 2, 3282, 0, 0, 385, 356, 464, 356, 464, 141, -3078, 137, 1733, -339, -268, -4210, -6172, 15826, 1106, 0, 0, 0, 0, 0
379, 36288692, 2, 3282, 0, 0, 385, 362, 458, 362, 458, 336, -3117, 111, 1842, 150, -258, 1294, 924, 9318, 1106, 0, 0, 0, 0, 0
380, 36298643, 2, 3282, 0, 0, 401, 362, 458, 362, 458, 541, -3127, 84, 1943, -152, -234, -15302, 3496, 9760, 1106, 0, 0, 0, 0, 0
381, 36308723, 2, 3282, 0, 0, 401, 360, 460, 360, 460, 782, -3200, 46, 1978, -589, -306, -5000, -162, 21090, 1113, 0, 0, 0, 0, 0
382, 36318795, 2, 3282, 0, 0, 353, 360, 460, 360, 460, 1012, -3244, 15, 2004, -372, -262, -1020, 2016, 15664, 1113, 0, 0, 0, 0, 0
383, 36328867, 2, 3282, 0, 0, 353, 366, 454, 366, 454, 1246, -3286, -18, 2003, -167, -225, -3332, 6612, 5574, 1113, 0, 0, 0, 0, 0
384, 36338949, 2, 3282, 0, 0, 237, 366, 454, 366, 454, 1468, -3272, -49, 1930, 412, -262, -8928, 4068, 8548, 1113, 0, 0, 0, 0, 0
385, 36349002, 2, 3282, 0, 0, 237, 380, 439, 380, 439, 1705, -3361, -93, 1794, -703, -279, -1168, -86, 17968, 1113, 0, 0, 0, 0, 0
386, 36359092, 2, 3282, -4, 0, 121, 380, 439, 380, 439, 1892, -3409, -126, 1656, -612, -205, -6028, 5976, 13110, 1106, 0, 0, 0, 0, 0
387, 36369156, 2, 3282, -4, 0, 121, 395, 425, 395, 424, 2078, -3472, -166, 1484, -569, -209, -4508, 4206, 13006, 1106, 0, 0, 0, 0, 0
388, 36379235, 2, 3282, -22, 0, 121, 395, 425, 395, 424, 2240, -3524, -204, 1278, -542, -220, -10120, 1386, 15552, 1106, 0, 0, 0, 0, 0
389, 36389312, 2, 3282, -22, 0, 121, 395, 428, 395, 422, 2376, -3575, -236, 1076, -546, -192, -4330, 2352, 13140, 1106, 0, 0, 0, 0, 0
390, 36399383, 2, 3282, -10, 0, 105, 395, 428, 395, 422, 2484, -3615, -265, 885, -333, -159, -5136, 4594, 11040, 1106, 0, 0, 0, 0, 0
391, 36409465, 2, 3282, -10, 0, 105, 397, 424, 397, 422, 2582, -3658, -297, 690, -472, -156, -4786, 456, 17378, 1092, 0, 0, 0, 0, 0
392, 36419531, 2, 3282, 0, 0, 42, 397, 424, 397, 422, 2643, -3685, -315, 520, -295, -89, -5662, 4906, 10348, 1092, 0, 0, 0, 0, 0
393, 36429621, 2, 3282, 0, 0, 42, 405, 415, 405, 415, 2697, -3716, -337, 384, -387, -92, -7432, 2548, 18476, 1092, 0, 0, 0, 0, 0
394, 36439725, 2, 3282, -1, 0, 0, 405, 415, 405, 415, 2730, -3747, -346, 273, -290, -6, -2752, 2416, 12676, 1092, 0, 0, 0, 0, 0
395, 36449754, 2, 3282, -1, 0, 0, 410, 410, 410, 410, 2749, -3780, -349, 212, -280, 57, -9114, 4088, 14100, 1092, 0, 0, 0, 0, 0
396, 36459912, 2, 3282, -1, 0, 0, 410, 410, 410, 410, 2770, -3817, -346, 179, -320, 118, -7118, 3798, 14694, 1113, 0, 0, 0, 0, 0
397, 36469893, 2, 3282, -47, 0, 0, 410, 410, 410, 410, 2787, -3862, -334, 183, -242, 194, -3740, 1876, 13886, 1113, 0, 0, 0, 0, 0
398, 36480147, 2, 3282, -47, 0, 0, 410, 416, 410, 404, 2796, -3896, -313, 194, -249, 276, -8844, 5862, 14070, 1113, 0, 0, 0, 0, 0
399, 36490065, 2, 3282, -62, 0, 0, 410, 416, 410, 404, 2811, -3934, -285, 183, -225, 331, -6756, 2692, 14570, 1113, 0, 0, 0, 0, 0
400, 36500286, 2, 3282, -62, 0, 0, 410, 418, 410, 402, 2816, -3974, -247, 130, -157, 411, -4570, 4410, 13296, 1113, 0, 0, 0, 0, 0
401, 36510228, 2, 3282, -44, 0, 0, 410, 418, 410, 402, 2809, -4008, -200, 30, -150, 486, -7206, 6336, 12210, 1078, 0, 0, 0, 0, 0
402, 36520330, 2, 3282, -44, 0, 0, 410, 415, 410, 404, 2792, -4046, -148, -114, -180, 560, -6010, 5330, 12982, 1078, 0, 0, 0, 0, 0
403, 36530377, 2, 3282, -12, 0, 42, 410, 415, 410, 404, 2753, -4092, -89, -283, -256, 634, -6974, 8210, 15240, 1078, 0, 0, 0, 0, 0
404, 36540447, 2, 3282, -12, 0, 42, 405, 417, 405, 414, 2701, -4140, -24, -452, -314, 721, -5768, 5288, 14526, 1078, 0, 0, 0, 0, 0
405, 36550535, 2, 3282, 0, 0, 158, 405, 417, 405, 414, 2619, -4201, 53, -592, -334, 826, -4172, 8134, 12722, 1078, 0, 0, 0, 0, 0
406, 36560603, 2, 3282, 0, 0, 158, 390, 430, 390, 430, 2531, -4269, 135, -691, -459, 920, -9192, 7402, 14462, 1127, 0, 0, 0, 0, 0
407, 36570685, 2, 3282, 0, 0, 121, 390, 430, 390, 430, 2423, -4342, 232, -782, -441, 1010, -7432, 7674, 12308, 1127, 0, 0, 0, 0, 0
408, 36580736, 2, 3282, 0, 0, 121, 395, 425, 395, 425, 2300, -4417, 343, -843, -327, 1107, -5730, 4974, 13496, 1127, 0, 0, 0, 0, 0
409, 36590819, 2, 3282, 0, 0, 0, 395, 425, 395, 425, 2163, -4476, 466, -931, -228, 1160, -11372, 4756, 13678, 1127, 0, 0, 0, 0, 0
410, 36600913, 2, 3282, 0, 0, 0, 410, 410, 410, 410, 2009, -4517, 603, -1016, 3, 1199, -8064, 6620, 12222, 1127, 0, 0, 0, 0, 0
411, 36610965, 2, 3282, 0, 0, 0, 410, 410, 410, 410, 1844, -4531, 747, -1093, 322, 1228, -5298, 4812, 12010, 1085, 0, 0, 0, 0, 0
412, 36621049, 2, 3282, 0, 0, 0, 410, 410, 410, 410, 1654, -4509, 901, -1185, 537, 1229, -9586, 7872, 11876, 1085, 0, 0, 0, 0, 0
413, 36631106, 2, 3282, 0, 0, -37, 410, 410, 410, 410, 1471, -4465, 1051, -1243, 747, 1217, -8456, 1830, 14528, 1085, 0, 0, 0, 0, 0
414, 36641214, 2, 3282, 0, 0, -37, 414, 405, 414, 405, 1288, -4395, 1203, -1263, 742, 1210, -11586, 2956, 14924, 1085, 0, 0, 0, 0, 0
415, 36651310, 2, 3282, 0, 0, -53, 414, 405, 414, 405, 1103, -4320, 1359, -1186, 844, 1221, -6750, 6570, 17372, 1085, 0, 0, 0, 0, 0
416, 36661338, 2, 3282, 0, 0, -53, 416, 403, 416, 403, 931, -4243, 1517, -1052, 913, 1297, -2108, 6026, 12262, 1092, 0, 0, 0, 0, 0
417, 36671485, 2, 3282, 0, 0, -53, 416, 403, 416, 403, 767, -4175, 1677, -936, 913, 1332, -7100, 4868, 8626, 1092, 0, 0, 0, 0, 0
418, 36681485, 2, 3282, 0, 0, 0, 416, 403, 416, 403, 634, -4131, 1832, -796, 585, 1326, -10558, -1074, 16892, 1092, 0, 0, 0, 0, 0
419, 36691691, 2, 3282, 0, 0, 0, 410, 410, 410, 410, 504, -4102, 1996, -650, 234, 1361, -11656, 3924, 18836, 1092, 0, 0, 0, 0, 0
420, 36701617, 2, 3282, 0, 0, 0, 410, 410, 410, 410, 387, -4079, 2163, -502, 274, 1402, -4482, 3442, 13924, 1092, 0, 0, 0, 0, 0
421, 36711863, 2, 3282, 0, 0, 0, 410, 410, 410, 410, 289, -4063, 2326, -404, 297, 1405, -5258, 1486, 14932, 1092, 0, 0, 0, 0, 0
422, 36721772, 2, 3355, 0, 0, 0, 410, 410, 410, 410, 189, -4039, 2491, -353, 171, 1376, -8806, 3396, 15632, 1092, 0, 0, 0, 0, 0
423, 36731904, 2, 3355, 0, 0, 0, 419, 419, 419, 419, 106, -4022, 2649, -315, 206, 1352, -5222, 1282, 16456, 1092, 0, 0, 0, 0, 0
424, 36741924, 2, 3311, 0, 0, 0, 419, 419, 419, 419, 29, -3998, 2802, -307, 209, 1328, -7142, 4724, 15146, 1092, 0, 0, 0, 0, 0
425, 36752000, 2, 3311, 0, 0, 0, 413, 413, 413, 413, -41, -3973, 2949, -290, 206, 1272, -4982, 2308, 14528, 1092, 0, 0, 0, 0, 0
426, 36762227, 2, 3311, 0, 0, 0, 413, 413, 413, 413, -110, -3952, 3094, -268, 197, 1248, -4312, 3204, 14838, 1092, 0, 0, 0, 0, 0
427, 36772142, 2, 3311, 0, 0, 0, 413, 413, 413, 413, -184, -3927, 3235, -258, 141, 1216, -7514, 5258, 15114, 1092, 0, 0, 0, 0, 0
428, 36782217, 2, 3311, 0, 0, 0, 413, 413, 413, 413, -236, -3916, 3365, -253, 130, 1167, -5758, 684, 16058, 1092, 0, 0, 0, 0, 0
429, 36792300, 2, 3311, 0, 0, 0, 413, 413, 413, 413, -296, -3904, 3493, -272, 110, 1123, -7504, 4548, 13996, 1092, 0, 0, 0, 0, 0
430, 36802374, 2, 3311, 0, 0, 0, 413, 413, 413, 413, -357, -3894, 3615, -289, 90, 1058, -6918, 2026, 14354, 1092, 0, 0, 0, 0, 0
431, 36812451, 2, 3311, 0, 0, 0, 413, 413, 413, 413, -422, -3886, 3732, -341, 88, 1012, -6318, 1956, 15068, 1106, 0, 0, 0, 0, 0
432, 36822518, 2, 3311, 0, 0, 0, 413, 413, 413, 413, -500, -3870, 3844, -407, 103, 960, -8498, 3806, 15336, 1106, 0, 0, 0, 0, 0
433, 36832610, 2, 3311, 0, 0, 0, 413, 413, 413, 413, -569, -3863, 3944, -469, 162, 901, -6452, 1038, 16024, 1106, 0, 0, 0, 0, 0
434, 36842677, 2, 3311, 0, 0, 0, 413, 413, 413, 413, -643, -3848, 4038, -529, 156, 849, -7678, 3146, 13380, 1106, 0, 0, 0, 0, 0
435, 36853206, 2, 3311, 0, 0, 0, 413, 413, 413, 413, -718, -3835, 4127, -534, 163, 800, -5642, 1414, 14872, 1113, 0, 0, 0, 0, 0
436, 36862802, 2, 3311, 0, 0, 0, 413, 413, 413, 413, -793, -3819, 4212, -505, 122, 766, -8810, 2656, 16428, 1113, 0, 0, 0, 0, 0
437, 36872865, 2, 3311, 0, 0, 0, 413, 413, 413, 413, -868, -3799, 4297, -461, 113, 742, -8428, 3370, 15954, 1113, 0, 0, 0, 0, 0
438, 36883089, 2, 3311, 0, 0, 0, 413, 413, 413, 413, -920, -3793, 4373, -400, 161, 730, -3942, -1316, 16070, 1113, 0, 0, 0, 0, 0
439, 36893118, 2, 3311, 0, 0, 0, 413, 413, 413, 413, -973, -3774, 4451, -341, 140, 714, -9160, 2848, 13456, 1113, 0, 0, 0, 0, 0
440, 36903311, 2, 3311, 0, 0, 0, 413, 413, 413, 413, -1018, -3764, 4527, -263, 116, 698, -7764, 3120, 16086, 1092, 0, 0, 0, 0, 0
441, 36913245, 2, 3311, 0, 0, 0, 413, 413, 413, 413, -1054, -3750, 4600, -222, 114, 681, -9192, 1270, 15876, 1092, 0, 0, 0, 0, 0
442, 36923473, 2, 3311, 0, 0, 0, 413, 413, 413, 413, -1092, -3728, 4672, -213, 187, 657, -6572, 1150, 14680, 1092, 0, 0, 0, 0, 0
443, 36933373, 2, 3311, 0, 0, 0, 413, 413, 413, 413, -1122, -3711, 4738, -205, 286, 641, -3584, -1292, 15312, 1092, 0, 0, 0, 0, 0
444, 36943546, 2, 3311, 0, 0, 0, 413, 413, 413, 413, -1157, -3674, 4804, -218, 271, 613, -10080, 2878, 13602, 1092, 0, 0, 0, 0, 0
445, 36953745, 2, 3311, 0, 0, 0, 413, 413, 413, 413, -1189, -3641, 4864, -214, 305, 589, -6250, 3422, 15770, 1106, 0, 0, 0, 0, 0
446, 36963540, 2, 3311, 0, 0, 0, 413, 413, 413, 413, -1215, -3604, 4919, -226, 320, 560, -9158, 928, 15792, 1106, 0, 0, 0, 0, 0
447, 36973613, 2, 3311, 0, 0, 0, 413, 413, 413, 413, -1247, -3559, 4974, -243, 389, 544, -4702, 716, 13136, 1106, 0, 0, 0, 0, 0
448, 36983670, 2, 3311, 0, 0, 0, 413, 413, 413, 413, -1275, -3524, 5025, -234, 448, 534, -1794, -1752, 14426, 1106, 0, 0, 0, 0, 0
449, 36993723, 2, 3311, 0, 0, 0, 413, 413, 413, 413, -1309, -3468, 5075, -238, 373, 502, -10552, 2540, 14800, 1106, 0, 0, 0, 0, 0
450, 37003787, 2, 3311, 0, 0, 0, 413, 413, 413, 413, -1338, -3425, 5123, -221, 381, 490, -5728, 3110, 17622, 1120, 0, 0, 0, 0, 0
451, 37013836, 2, 3311, 0, 0, 0, 413, 413, 413, 413, -1360, -3383, 5165, -234, 340, 461, -7856, -148, 15596, 1120, 0, 0, 0, 0, 0
452, 37023893, 2, 3311, 0, 0, 0, 413, 413, 413, 413, -1387, -3333, 5206, -256, 433, 444, -3380, 164, 11354, 1120, 0, 0, 0, 0, 0
453, 37033971, 2, 3311, 0, 0, 0, 413, 413, 413, 413, -1414, -3297, 5246, -248, 443, 436, -1092, -1050, 14488, 1120, 0, 0, 0, 0, 0
454, 37044036, 2, 3311, 0, 0, 0, 413, 413, 413, 413, -1445, -3241, 5285, -251, 294, 405, -10262, 2204, 16218, 1120, 0, 0, 0, 0, 0
455, 37054298, 2, 3311, 0, 0, 0, 413, 413, 413, 413, -1471, -3199, 5323, -224, 310, 408, -3244, 1714, 18088, 1113, 0, 0, 0, 0, 0
456, 37064140, 2, 3311, 0, 0, 0, 413, 413, 413, 413, -1490, -3163, 5357, -207, 302, 390, -6402, -858, 15508, 1113, 0, 0, 0, 0, 0
457, 37074181, 2, 3311, 0, 0, 0, 413, 413, 413, 413, -1507, -3123, 5392, -184, 317, 380, -4978, 418, 10768, 1113, 0, 0, 0, 0, 0
458, 37084276, 2, 3311, 0, 0, 0, 413, 413, 413, 413, -1522, -3107, 5428, -127, 286, 383, -1640, 176, 13966, 1113, 0, 0, 0, 0, 0
459, 37094343, 2, 3311, -42, 0, 0, 413, 413, 413, 413, -1533, -3071, 5465, -95, 127, 368, -8372, 1254, 15118, 1113, 0, 0, 0, 0, 0
460, 37104386, 2, 3311, -42, 0, 0, 413, 419, 413, 408, -1538, -3043, 5500, -55, 205, 377, -1668, 838, 17118, 1064, 0, 0, 0, 0, 0
461, 37114557, 2, 3311, -42, 0, 0, 413, 419, 413, 408, -1537, -3021, 5532, -39, 176, 345, -5886, -412, 17068, 1064, 0, 0, 0, 0, 0
462, 37124511, 2, 3311, -72, 0, 0, 413, 419, 413, 408, -1537, -2987, 5563, -40, 171, 318, -6228, 692, 12052, 1064, 0, 0, 0, 0, 0
463, 37134728, 2, 3311, -72, 0, 0, 413, 422, 413, 404, -1538, -2977, 5593, -29, 235, 316, -20, 162, 13238, 1064, 0, 0, 0, 0, 0
464, 37144641, 2, 3311, -137, 0, -53, 413, 422, 413, 404, -1540, -2947, 5619, -49, 114, 278, -6988, 792, 13138, 1064, 0, 0, 0, 0, 0
465, 37154989, 2, 3311, -137, 0, -53, 420, 424, 420, 390, -1541, -2921, 5643, -58, 165, 258, -922, 1000, 16206, 1106, 0, 0, 0, 0, 0
466, 37164746, 2, 3282, -230, -16, -154, 420, 424, 420, 390, -1541, -2902, 5663, -76, 154, 223, -4302, -218, 17826, 1106, 0, 0, 0, 0, 0
