index_log, time_stamp, mode, thrust, roll, pitch, yaw, ae[0], ae[1], ae[2], ae[3], phi, theta, psi, sp, sq, sr, sax, say, saz, bat_volt, P, P1, P2, temperature, pressure
0, 19130603, 0, 2687, 0, 0, 0, 0, 0, 0, 0, 559, -1158, 4602, -5, 2, -1, -1732, 766, 15098, 602, 0, 0, 0, 0, 0
1, 19140576, 0, 2687, 0, 0, 0, 0, 0, 0, 0, 559, -1158, 4602, 1, 0, -1, -1768, 756, 15066, 602, 0, 0, 0, 0, 0
2, 19150551, 0, 2687, 0, 0, 0, 0, 0, 0, 0, 559, -1158, 4602, -1, 2, 0, -1786, 742, 15094, 602, 0, 0, 0, 0, 0
3, 19160543, 0, 2687, 0, 0, 0, 0, 0, 0, 0, 558, -1159, 4602, -4, 1, 0, -1740, 738, 15016, 595, 0, 0, 0, 0, 0
4, 19170525, 0, 2687, 0, 0, 0, 0, 0, 0, 0, 558, -1159, 4602, -3, 1, 0, -1778, 730, 15170, 595, 0, 0, 0, 0, 0
5, 19180508, 0, 2687, 0, 0, 0, 0, 0, 0, 0, 558, -1159, 4602, 5, 1, 1, -1702, 772, 15046, 595, 0, 0, 0, 0, 0
6, 19190479, 0, 2687, 0, 0, 0, 0, 0, 0, 0, 559, -1159, 4602, 6, 1, 1, -1730, 868, 15062, 595, 0, 0, 0, 0, 0
7, 19200452, 0, 2687, 0, 0, 0, 0, 0, 0, 0, 559, -1160, 4602, -1, 1, 1, -1684, 908, 15012, 595, 0, 0, 0, 0, 0
8, 19210441, 0, 2687, 0, 0, 0, 0, 0, 0, 0, 560, -1160, 4602, -3, 1, 0, -1712, 918, 15112, 602, 0, 0, 0, 0, 0
9, 19220412, 0, 2687, 0, 0, 0, 0, 0, 0, 0, 560, -1160, 4602, 1, 1, 0, -1674, 946, 15096, 602, 0, 0, 0, 0, 0
10, 19230398, 0, 2687, 0, 0, 0, 0, 0, 0, 0, 561, -1160, 4602, 3, 1, 0, -1662, 974, 15068, 602, 0, 0, 0, 0, 0
11, 19240381, 0, 2687, 0, 0, 0, 0, 0, 0, 0, 563, -1159, 4601, -1, 2, -1, -1672, 1012, 15058, 602, 0, 0, 0, 0, 0
12, 19250443, 0, 2687, 0, 0, 0, 0, 0, 0, 0, 563, -1159, 4601, -10, 1, -2, -1662, 970, 15044, 602, 0, 0, 0, 0, 0
13, 19260325, 0, 2687, 0, 0, 0, 0, 0, 0, 0, 563, -1160, 4602, -4, 0, -2, -1700, 904, 15180, 595, 0, 0, 0, 0, 0
14, 19270470, 0, 2687, 0, 0, 0, 0, 0, 0, 0, 563, -1159, 4602, 3, 1, -1, -1682, 932, 15078, 595, 0, 0, 0, 0, 0
15, 19280280, 0, 2687, 0, 0, 0, 0, 0, 0, 0, 564, -1160, 4602, 0, 0, -1, -1716, 962, 15052, 595, 0, 0, 0, 0, 0
16, 19290401, 0, 2687, 0, 0, 0, 0, 0, 0, 0, 564, -1160, 4602, -7, 1, -1, -1732, 908, 15038, 595, 0, 0, 0, 0, 0
17, 19300248, 0, 2687, 0, 0, 0, 0, 0, 0, 0, 564, -1160, 4602, -5, 1, -1, -1762, 864, 15102, 595, 0, 0, 0, 0, 0
18, 19310253, 0, 2687, 0, 0, 0, 0, 0, 0, 0, 564, -1161, 4602, 1, 1, -1, -1782, 868, 15110, 602, 0, 0, 0, 0, 0
19, 19320207, 0, 2687, 0, 0, 0, 0, 0, 0, 0, 565, -1161, 4602, 1, 1, -1, -1776, 878, 15010, 602, 0, 0, 0, 0, 0
20, 19330180, 0, 2687, 0, 0, 0, 0, 0, 0, 0, 565, -1162, 4602, -4, 1, -1, -1798, 864, 15052, 602, 0, 0, 0, 0, 0
21, 19340160, 0, 2687, 0, 0, 0, 0, 0, 0, 0, 565, -1162, 4602, -7, 1, -1, -1766, 804, 15070, 602, 0, 0, 0, 0, 0
22, 19350144, 0, 2687, 0, 0, 0, 0, 0, 0, 0, 564, -1163, 4602, -2, 1, -1, -1754, 788, 15104, 602, 0, 0, 0, 0, 0
23, 19360118, 0, 2687, 0, 0, 0, 0, 0, 0, 0, 564, -1163, 4602, 1, 1, 0, -1714, 806, 15052, 595, 0, 0, 0, 0, 0
24, 19370264, 0, 2687, 0, 0, 0, 0, 0, 0, 0, 564, -1163, 4602, -2, 2, 0, -1690, 822, 15038, 595, 0, 0, 0, 0, 0
25, 19380097, 0, 2687, 0, 0, 0, 0, 0, 0, 0, 564, -1163, 4602, -5, 1, 0, -1676, 812, 15076, 595, 0, 0, 0, 0, 0
26, 19390073, 0, 2687, 0, 0, 0, 0, 0, 0, 0, 564, -1163, 4602, -1, 2, 1, -1664, 824, 15080, 595, 0, 0, 0, 0, 0
27, 19400046, 0, 2687, 0, 0, 0, 0, 0, 0, 0, 564, -1163, 4602, 3, 1, 1, -1666, 876, 15068, 595, 0, 0, 0, 0, 0
28, 19410021, 0, 2687, 0, 0, 0, 0, 0, 0, 0, 565, -1163, 4602, 1, 1, 1, -1656, 956, 15040, 602, 0, 0, 0, 0, 0
29, 19420009, 0, 2687, 0, 0, 0, 0, 0, 0, 0, 566, -1162, 4601, -2, 2, 1, -1686, 964, 15090, 602, 0, 0, 0, 0, 0
30, 19429988, 0, 2687, 0, 0, 0, 0, 0, 0, 0, 566, -1162, 4601, -1, 2, 0, -1694, 972, 15098, 602, 0, 0, 0, 0, 0
31, 19439999, 0, 2687, 0, 0, 0, 0, 0, 0, 0, 567, -1162, 4601, 0, 1, 0, -1712, 976, 15074, 602, 0, 0, 0, 0, 0
32, 19449925, 0, 2687, 0, 0, 0, 0, 0, 0, 0, 568, -1162, 4601, -1, 2, -1, -1728, 992, 15072, 602, 0, 0, 0, 0, 0
33, 19460028, 0, 2687, 0, 0, 0, 0, 0, 0, 0, 569, -1163, 4601, -5, 2, -2, -1720, 948, 15082, 595, 0, 0, 0, 0, 0
34, 19469895, 0, 2687, 0, 0, 0, 0, 0, 0, 0, 568, -1163, 4601, -6, 2, -2, -1730, 884, 15100, 595, 0, 0, 0, 0, 0
35, 19480039, 0, 2687, 0, 0, 0, 0, 0, 0, 0, 568, -1163, 4602, -4, 2, -2, -1734, 846, 15116, 595, 0, 0, 0, 0, 0
36, 19489846, 0, 2687, 0, 0, 0, 0, 0, 0, 0, 568, -1163, 4602, -2, 2, -1, -1758, 836, 15090, 595, 0, 0, 0, 0, 0
37, 19499937, 0, 2687, 0, 0, 0, 0, 0, 0, 0, 568, -1163, 4602, -3, 1, 0, -1752, 838, 15034, 595, 0, 0, 0, 0, 0
38, 19509805, 0, 2687, 0, 0, 0, 0, 0, 0, 0, 568, -1164, 4602, -4, 1, 0, -1732, 826, 15060, 602, 0, 0, 0, 0, 0
39, 19519788, 0, 2687, 0, 0, 0, 0, 0, 0, 0, 568, -1164, 4601, -1, 2, 1, -1740, 846, 15064, 602, 0, 0, 0, 0, 0
40, 19529777, 0, 2687, 0, 0, 0, 0, 0, 0, 0, 568, -1164, 4601, 0, 1, 1, -1748, 866, 15030, 602, 0, 0, 0, 0, 0
41, 19539747, 0, 2687, 0, 0, 0, 0, 0, 0, 0, 568, -1164, 4601, -1, 1, 1, -1738, 894, 15044, 602, 0, 0, 0, 0, 0
42, 19549741, 0, 2687, 0, 0, 0, 0, 0, 0, 0, 569, -1165, 4601, -3, 1, 1, -1714, 898, 15058, 602, 0, 0, 0, 0, 0
43, 19559716, 0, 2687, 0, 0, 0, 0, 0, 0, 0, 569, -1165, 4601, -1, 1, 0, -1708, 904, 15058, 595, 0, 0, 0, 0, 0
44, 19569673, 0, 2687, 0, 0, 0, 0, 0, 0, 0, 569, -1165, 4601, 1, 0, -1, -1680, 916, 15040, 595, 0, 0, 0, 0, 0
45, 19579674, 0, 2687, 0, 0, 0, 0, 0, 0, 0, 570, -1165, 4601, -1, 1, -1, -1680, 930, 15066, 595, 0, 0, 0, 0, 0
46, 19589649, 0, 2687, 0, 0, 0, 0, 0, 0, 0, 571, -1165, 4601, -2, 1, -1, -1660, 906, 15062, 595, 0, 0, 0, 0, 0
47, 19599625, 0, 2687, 0, 0, 0, 0, 0, 0, 0, 571, -1165, 4601, -1, 1, -1, -1670, 928, 15066, 595, 0, 0, 0, 0, 0
48, 19609595, 0, 2687, 0, 0, 0, 0, 0, 0, 0, 571, -1165, 4601, -1, 1, -1, -1690, 932, 15090, 602, 0, 0, 0, 0, 0
49, 19619594, 0, 2687, 0, 0, 0, 0, 0, 0, 0, 572, -1165, 4601, 0, 0, -1, -1684, 954, 15062, 602, 0, 0, 0, 0, 0
50, 19629570, 0, 2687, 0, 0, 0, 0, 0, 0, 0, 573, -1165, 4601, -2, 2, -1, -1690, 962, 15062, 602, 0, 0, 0, 0, 0
51, 19639541, 0, 2687, 0, 0, 0, 0, 0, 0, 0, 573, -1165, 4601, -3, 1, -1, -1714, 928, 15052, 602, 0, 0, 0, 0, 0
52, 19649566, 0, 2687, 0, 0, 0, 0, 0, 0, 0, 573, -1165, 4601, -2, 1, -1, -1710, 922, 15066, 602, 0, 0, 0, 0, 0
53, 19659509, 0, 2687, 0, 0, 0, 0, 0, 0, 0, 573, -1165, 4601, -2, 1, -1, -1734, 894, 15050, 595, 0, 0, 0, 0, 0
54, 19669605, 0, 2687, 0, 0, 0, 0, 0, 0, 0, 573, -1165, 4601, -3, 2, -2, -1748, 860, 15054, 595, 0, 0, 0, 0, 0
55, 19679458, 0, 2687, 0, 0, 0, 0, 0, 0, 0, 573, -1166, 4601, -4, 1, -2, -1758, 822, 15072, 595, 0, 0, 0, 0, 0
56, 19689593, 0, 2687, 0, 0, 0, 0, 0, 0, 0, 573, -1166, 4602, -3, 2, -2, -1736, 788, 15066, 595, 0, 0, 0, 0, 0
57, 19699425, 0, 2687, 0, 0, 0, 0, 0, 0, 0, 572, -1166, 4602, -2, 2, -2, -1728, 792, 15070, 595, 0, 0, 0, 0, 0
58, 19709484, 0, 2687, 0, 0, 0, 0, 0, 0, 0, 572, -1166, 4602, -2, 1, -1, -1716, 782, 15074, 602, 0, 0, 0, 0, 0
59, 19719379, 0, 2687, 0, 0, 0, 0, 0, 0, 0, 572, -1167, 4602, -2, 1, -1, -1718, 794, 15086, 602, 0, 0, 0, 0, 0
60, 19729360, 0, 2687, 0, 0, 0, 0, 0, 0, 0, 571, -1167, 4602, -1, 2, 0, -1720, 802, 15070, 602, 0, 0, 0, 0, 0
61, 19739343, 0, 2687, 0, 0, 0, 0, 0, 0, 0, 571, -1167, 4602, -1, 1, 0, -1710, 824, 15082, 602, 0, 0, 0, 0, 0
62, 19749320, 0, 2687, 0, 0, 0, 0, 0, 0, 0, 572, -1167, 4602, 0, 1, 0, -1676, 834, 15086, 602, 0, 0, 0, 0, 0
63, 19759295, 0, 2687, 0, 0, 0, 0, 0, 0, 0, 572, -1167, 4602, -1, 3, 0, -1664, 880, 15044, 595, 0, 0, 0, 0, 0
64, 19769280, 0, 2687, 0, 0, 0, 0, 0, 0, 0, 572, -1166, 4602, -6, 2, 0, -1674, 892, 15000, 595, 0, 0, 0, 0, 0
65, 19779262, 0, 2687, 0, 0, 0, 0, 0, 0, 0, 571, -1166, 4602, -6, 1, 0, -1674, 864, 15072, 595, 0, 0, 0, 0, 0
66, 19789231, 0, 2687, 0, 0, 0, 0, 0, 0, 0, 571, -1166, 4602, 3, 1, 0, -1684, 890, 15104, 595, 0, 0, 0, 0, 0
67, 19799218, 0, 2687, 0, 0, 0, 0, 0, 0, 0, 573, -1166, 4602, 5, 1, 0, -1706, 954, 15056, 595, 0, 0, 0, 0, 0
68, 19809205, 0, 2687, 0, 0, 0, 0, 0, 0, 0, 573, -1166, 4602, -2, 2, -1, -1710, 972, 15022, 602, 0, 0, 0, 0, 0
69, 19819172, 0, 2687, 0, 0, 0, 0, 0, 0, 0, 573, -1166, 4602, -7, 1, -1, -1718, 934, 15072, 602, 0, 0, 0, 0, 0
70, 19829151, 0, 2687, 0, 0, 0, 0, 0, 0, 0, 574, -1166, 4602, -2, 2, -1, -1734, 920, 15120, 602, 0, 0, 0, 0, 0
71, 19839135, 0, 2687, 0, 0, 0, 0, 0, 0, 0, 574, -1167, 4602, 3, 1, -1, -1744, 942, 15066, 602, 0, 0, 0, 0, 0
72, 19849111, 0, 2687, 0, 0, 0, 0, 0, 0, 0, 575, -1167, 4602, -1, 1, -1, -1746, 964, 15024, 602, 0, 0, 0, 0, 0
73, 19859173, 0, 2687, 0, 0, 0, 0, 0, 0, 0, 575, -1167, 4602, -9, 2, -2, -1764, 920, 15068, 595, 0, 0, 0, 0, 0
74, 19869065, 0, 2687, 0, 0, 0, 0, 0, 0, 0, 574, -1167, 4602, -8, 1, -1, -1754, 874, 15104, 595, 0, 0, 0, 0, 0
75, 19879187, 0, 2687, 0, 0, 0, 0, 0, 0, 0, 574, -1168, 4602, -1, 1, -1, -1738, 868, 15102, 595, 0, 0, 0, 0, 0
76, 19889026, 0, 2687, 0, 0, 0, 0, 0, 0, 0, 575, -1168, 4602, 0, 1, 0, -1736, 910, 15034, 595, 0, 0, 0, 0, 0
77, 19899178, 0, 2687, 0, 0, 0, 0, 0, 0, 0, 575, -1168, 4602, -4, 1, -1, -1724, 892, 15038, 595, 0, 0, 0, 0, 0
78, 19909000, 0, 2687, 0, 0, 0, 0, 0, 0, 0, 575, -1168, 4602, -7, 1, -1, -1726, 848, 15088, 602, 0, 0, 0, 0, 0
79, 19918998, 0, 2687, 0, 0, 0, 0, 0, 0, 0, 574, -1168, 4602, -1, 2, -1, -1704, 834, 15102, 602, 0, 0, 0, 0, 0
80, 19928944, 0, 2687, 0, 0, 0, 0, 0, 0, 0, 575, -1168, 4602, 2, 1, -1, -1672, 868, 15050, 602, 0, 0, 0, 0, 0
81, 19938921, 0, 2687, 0, 0, 0, 0, 0, 0, 0, 575, -1168, 4602, -2, 2, -1, -1656, 858, 15032, 602, 0, 0, 0, 0, 0
82, 19948901, 0, 2687, 0, 0, 0, 0, 0, 0, 0, 575, -1168, 4602, -6, 1, -1, -1680, 804, 15076, 602, 0, 0, 0, 0, 0
83, 19958875, 0, 2687, 0, 0, 0, 0, 0, 0, 0, 574, -1168, 4602, -2, 1, 0, -1696, 784, 15110, 595, 0, 0, 0, 0, 0
84, 19968874, 0, 2687, 0, 0, 0, 0, 0, 0, 0, 574, -1168, 4602, 3, 1, 1, -1688, 828, 15060, 595, 0, 0, 0, 0, 0
85, 19979009, 0, 2687, 0, 0, 0, 0, 0, 0, 0, 575, -1168, 4602, 1, 1, 1, -1716, 888, 15006, 595, 0, 0, 0, 0, 0
86, 19988825, 0, 2687, 0, 0, 0, 0, 0, 0, 0, 575, -1168, 4602, -3, 2, 1, -1740, 908, 15042, 595, 0, 0, 0, 0, 0
87, 19998788, 0, 2687, 0, 0, 0, 0, 0, 0, 0, 575, -1168, 4602, -4, 1, 0, -1748, 930, 15058, 595, 0, 0, 0, 0, 0
88, 20008782, 0, 2687, 0, 0, 0, 0, 0, 0, 0, 576, -1169, 4602, 0, 1, 0, -1758, 966, 15078, 602, 0, 0, 0, 0, 0
89, 20018757, 0, 2687, 0, 0, 0, 0, 0, 0, 0, 576, -1169, 4602, -1, 1, 0, -1750, 978, 15064, 602, 0, 0, 0, 0, 0
90, 20028740, 0, 2687, 0, 0, 0, 0, 0, 0, 0, 577, -1169, 4602, -4, 2, -1, -1762, 978, 15068, 602, 0, 0, 0, 0, 0
91, 20038723, 0, 2687, 0, 0, 0, 0, 0, 0, 0, 577, -1169, 4602, -6, 1, -1, -1748, 932, 15086, 602, 0, 0, 0, 0, 0
92, 20048718, 0, 2687, 0, 0, 0, 0, 0, 0, 0, 577, -1170, 4602, -2, 1, -1, -1742, 898, 15088, 602, 0, 0, 0, 0, 0
93, 20058669, 0, 2687, 0, 0, 0, 0, 0, 0, 0, 577, -1170, 4602, -1, 1, -1, -1722, 896, 15066, 595, 0, 0, 0, 0, 0
94, 20068736, 0, 2687, 0, 0, 0, 0, 0, 0, 0, 578, -1170, 4602, -2, 1, -1, -1702, 902, 15058, 595, 0, 0, 0, 0, 0
95, 20078641, 0, 2687, 0, 0, 0, 0, 0, 0, 0, 577, -1170, 4602, -4, 2, 0, -1684, 892, 15076, 595, 0, 0, 0, 0, 0
96, 20088777, 0, 2687, 0, 0, 0, 0, 0, 0, 0, 578, -1170, 4602, -2, 2, 0, -1684, 886, 15088, 595, 0, 0, 0, 0, 0
97, 20098593, 0, 2687, 0, 0, 0, 0, 0, 0, 0, 578, -1170, 4602, 0, 1, 0, -1698, 900, 15068, 595, 0, 0, 0, 0, 0
98, 20108701, 0, 2687, 0, 0, 0, 0, 0, 0, 0, 578, -1170, 4602, -1, 2, 0, -1698, 928, 15056, 602, 0, 0, 0, 0, 0
99, 20118541, 0, 2382, 0, 0, 0, 0, 0, 0, 0, 578, -1170, 4602, -4, 1, -1, -1704, 884, 15066, 602, 0, 0, 0, 0, 0
100, 20128538, 0, 2382, 0, 0, 0, 0, 0, 0, 0, 578, -1170, 4602, -3, 1, -1, -1698, 888, 15100, 602, 0, 0, 0, 0, 0
101, 20138508, 0, 1787, 0, 0, 0, 0, 0, 0, 0, 578, -1170, 4602, -1, 1, -1, -1694, 876, 15072, 602, 0, 0, 0, 0, 0
102, 20148483, 0, 1787, 0, 0, 0, 0, 0, 0, 0, 579, -1170, 4602, -2, 2, -2, -1700, 852, 15084, 602, 0, 0, 0, 0, 0
103, 20158459, 0, 0, 0, 0, 0, 0, 0, 0, 0, 578, -1170, 4602, -3, 2, -1, -1700, 838, 15098, 595, 0, 0, 0, 0, 0
104, 20168436, 0, 0, 0, 0, 0, 0, 0, 0, 0, 578, -1170, 4602, -3, 1, -1, -1718, 810, 15102, 595, 0, 0, 0, 0, 0
105, 20178426, 0, 0, 0, 0, 0, 0, 0, 0, 0, 578, -1170, 4602, -1, 1, -1, -1722, 792, 15128, 595, 0, 0, 0, 0, 0
106, 20188395, 0, 0, 0, 0, 0, 0, 0, 0, 0, 578, -1170, 4602, 0, 0, 0, -1716, 828, 15056, 595, 0, 0, 0, 0, 0
107, 20198374, 0, 0, 0, 0, 0, 0, 0, 0, 0, 578, -1170, 4602, -1, 2, 0, -1758, 846, 15112, 595, 0, 0, 0, 0, 0
108, 20208351, 0, 0, 0, 0, 0, 0, 0, 0, 0, 578, -1170, 4602, -1, 2, 0, -1732, 870, 15052, 602, 0, 0, 0, 0, 0
109, 20218345, 0, 0, 0, 0, 0, 0, 0, 0, 0, 578, -1171, 4602, -1, 1, 0, -1742, 892, 15070, 602, 0, 0, 0, 0, 0
110, 20228324, 0, 0, 0, 0, 0, 0, 0, 0, 0, 578, -1171, 4602, -1, 1, 0, -1746, 934, 15022, 602, 0, 0, 0, 0, 0
111, 20238292, 0, 0, 0, 0, 0, 0, 0, 0, 0, 579, -1171, 4602, -1, 2, 0, -1734, 958, 15058, 602, 0, 0, 0, 0, 0
112, 20248264, 0, 0, 0, 0, 0, 0, 0, 0, 0, 579, -1171, 4602, -2, 2, 0, -1730, 970, 15066, 602, 0, 0, 0, 0, 0
113, 20258287, 0, 0, 0, 0, 0, 0, 0, 0, 0, 580, -1171, 4602, -2, 2, 0, -1724, 968, 15040, 595, 0, 0, 0, 0, 0
114, 20268226, 0, 0, 0, 0, 0, 0, 0, 0, 0, 580, -1171, 4602, -2, 2, 0, -1726, 952, 15062, 595, 0, 0, 0, 0, 0
115, 20278306, 0, 0, 0, 0, 0, 0, 0, 0, 0, 581, -1171, 4602, -3, 1, -1, -1696, 934, 15046, 595, 0, 0, 0, 0, 0
116, 20288170, 0, 0, 0, 0, 0, 0, 0, 0, 0, 581, -1171, 4602, -3, 2, -1, -1716, 900, 15070, 595, 0, 0, 0, 0, 0
117, 20298320, 0, 0, 0, 0, 0, 0, 0, 0, 0, 581, -1171, 4602, -3, 2, -1, -1706, 876, 15036, 595, 0, 0, 0, 0, 0
118, 20308121, 0, 0, 0, 0, 0, 0, 0, 0, 0, 581, -1171, 4602, -2, 1, -1, -1700, 876, 15066, 602, 0, 0, 0, 0, 0
119, 20318233, 0, 0, 0, 0, 0, 0, 0, 0, 0, 581, -1171, 4602, -2, 2, -1, -1710, 838, 15034, 602, 0, 0, 0, 0, 0
120, 20328090, 0, 0, 0, 0, 0, 0, 0, 0, 0, 581, -1172, 4602, -3, 1, -1, -1706, 834, 15042, 602, 0, 0, 0, 0, 0
121, 20338062, 0, 0, 0, 0, 0, 0, 0, 0, 0, 580, -1172, 4602, -2, 1, -1, -1704, 806, 15024, 602, 0, 0, 0, 0, 0
122, 20348055, 0, 0, 0, 0, 0, 0, 0, 0, 0, 580, -1172, 4602, 1, 0, 0, -1682, 860, 15012, 602, 0, 0, 0, 0, 0
123, 20358031, 0, 0, 0, 0, 0, 0, 0, 0, 0, 581, -1172, 4602, -2, 1, 0, -1718, 888, 15056, 595, 0, 0, 0, 0, 0
124, 20368005, 5, 0, 0, 0, 0, 0, 0, 0, 0, 581, -1172, 4602, -2, 2, 0, -1692, 910, 15030, 595, 0, 0, 0, 0, 0
125, 20377989, 5, 0, 0, 0, 0, 0, 0, 0, 0, 581, -1172, 4602, 0, 0, 0, -1728, 940, 15098, 595, 0, 0, 0, 0, 0
126, 20387956, 5, 0, 0, 0, 0, 0, 0, 0, 0, 581, -1172, 4602, -4, 2, -1, -1704, 898, 15036, 595, 0, 0, 0, 0, 0
127, 20397927, 5, 0, 0, 0, 0, 0, 0, 0, 0, 581, -1172, 4602, -3, 1, -1, -1734, 898, 15076, 595, 0, 0, 0, 0, 0
128, 20407928, 5, 0, 0, 0, 0, 0, 0, 0, 0, 581, -1172, 4602, -3, 2, -1, -1718, 864, 15054, 602, 0, 0, 0, 0, 0
129, 20417897, 5, 0, 0, 0, 0, 0, 0, 0, 0, 581, -1172, 4602, -2, 1, -1, -1742, 832, 15076, 602, 0, 0, 0, 0, 0
130, 20427869, 5, 0, 0, 0, 0, 0, 0, 0, 0, 581, -1172, 4602, -1, 1, 0, -1734, 840, 15054, 602, 0, 0, 0, 0, 0
131, 20437868, 5, 0, 0, 0, 0, 0, 0, 0, 0, 581, -1173, 4602, -2, 2, 0, -1728, 834, 15088, 602, 0, 0, 0, 0, 0
132, 20447852, 5, 0, 0, 0, 0, 0, 0, 0, 0, 581, -1173, 4602, -1, 2, 0, -1746, 848, 15144, 602, 0, 0, 0, 0, 0
133, 20457820, 5, 0, 0, 0, 0, 0, 0, 0, 0, 581, -1173, 4602, 0, 1, 0, -1700, 892, 15056, 595, 0, 0, 0, 0, 0
134, 20467860, 5, 0, 0, 0, 0, 0, 0, 0, 0, 581, -1173, 4602, -1, 1, 0, -1714, 890, 15084, 595, 0, 0, 0, 0, 0
135, 20477773, 5, 0, 0, 0, 0, 0, 0, 0, 0, 582, -1173, 4602, -1, 2, 0, -1708, 904, 15060, 595, 0, 0, 0, 0, 0
136, 20487874, 5, 0, 0, 0, 0, 0, 0, 0, 0, 582, -1173, 4602, -1, 1, 0, -1726, 922, 15040, 595, 0, 0, 0, 0, 0
137, 20497725, 5, 0, 0, 0, 0, 0, 0, 0, 0, 582, -1173, 4602, -1, 1, -1, -1734, 946, 15066, 595, 0, 0, 0, 0, 0
138, 20507865, 5, 0, 0, 0, 0, 0, 0, 0, 0, 583, -1173, 4602, -1, 2, -1, -1696, 948, 15034, 602, 0, 0, 0, 0, 0
139, 20517692, 5, 0, 0, 0, 0, 0, 0, 0, 0, 583, -1173, 4602, -4, 2, -1, -1710, 922, 15084, 602, 0, 0, 0, 0, 0
140, 20527745, 5, 0, 0, 0, 0, 0, 0, 0, 0, 583, -1173, 4602, -5, 2, -1, -1688, 888, 15056, 602, 0, 0, 0, 0, 0
141, 20537634, 5, 0, 0, 0, 0, 0, 0, 0, 0, 583, -1173, 4602, -2, 1, -1, -1714, 874, 15116, 602, 0, 0, 0, 0, 0
142, 20547622, 5, 0, 0, 0, 0, 0, 0, 0, 0, 583, -1173, 4602, -1, 2, -1, -1716, 856, 15044, 602, 0, 0, 0, 0, 0
143, 20557607, 5, 0, 0, 0, 0, 0, 0, 0, 0, 583, -1173, 4602, -2, 0, -1, -1724, 838, 15046, 595, 0, 0, 0, 0, 0
144, 20567576, 5, 0, 0, 0, 0, 0, 0, 0, 0, 583, -1173, 4602, -3, 1, -1, -1740, 844, 15066, 595, 0, 0, 0, 0, 0
145, 20577557, 5, 0, 0, 0, 0, 0, 0, 0, 0, 583, -1174, 4602, 0, 0, -1, -1726, 864, 15038, 595, 0, 0, 0, 0, 0
146, 20587700, 5, 0, 0, 0, 0, 0, 0, 0, 0, 583, -1174, 4602, 0, 1, -1, -1744, 892, 15078, 595, 0, 0, 0, 0, 0
147, 20597518, 5, 0, 0, 0, 0, 0, 0, 0, 0, 583, -1174, 4602, -1, 2, 0, -1736, 916, 14992, 595, 0, 0, 0, 0, 0
148, 20607495, 5, 0, 0, 0, 0, 0, 0, 0, 0, 583, -1174, 4602, -3, 1, 0, -1742, 926, 15070, 602, 0, 0, 0, 0, 0
149, 20617466, 5, 0, 0, 0, 0, 0, 0, 0, 0, 584, -1174, 4602, -2, 2, 0, -1720, 910, 15046, 602, 0, 0, 0, 0, 0
150, 20627440, 5, 0, 0, 0, 0, 0, 0, 0, 0, 584, -1175, 4602, -1, 1, 0, -1746, 920, 15076, 602, 0, 0, 0, 0, 0
151, 20637418, 5, 0, 0, 0, 0, 0, 0, 0, 0, 584, -1175, 4602, -2, 2, 0, -1720, 916, 15084, 602, 0, 0, 0, 0, 0
152, 20647396, 5, 0, 0, 0, 0, 0, 0, 0, 0, 584, -1175, 4602, -4, 2, -1, -1706, 892, 15076, 602, 0, 0, 0, 0, 0
153, 20657392, 5, 0, 0, 0, 0, 0, 0, 0, 0, 584, -1175, 4602, -4, 2, -1, -1688, 878, 15106, 595, 0, 0, 0, 0, 0
154, 20667359, 5, 0, 0, 0, 0, 0, 0, 0, 0, 584, -1174, 4602, -1, 2, -1, -1684, 862, 15052, 595, 0, 0, 0, 0, 0
155, 20677396, 5, 0, 0, 0, 0, 0, 0, 0, 0, 584, -1174, 4602, -1, 2, 0, -1694, 874, 15028, 595, 0, 0, 0, 0, 0
156, 20687314, 5, 0, 0, 0, 0, 0, 0, 0, 0, 584, -1174, 4602, -3, 1, 0, -1714, 888, 15114, 595, 0, 0, 0, 0, 0
157, 20697421, 5, 0, 0, 0, 0, 0, 0, 0, 0, 584, -1174, 4602, -3, 3, -1, -1634, 886, 14886, 595, 0, 0, 0, 0, 0
158, 20707280, 5, 2426, 0, 0, 0, 0, 0, 0, 0, 584, -1174, 4602, 0, -2, 0, -1810, 894, 15228, 602, 0, 0, 0, 0, 0
159, 20717415, 5, 2426, 0, 0, 0, 303, 303, 303, 303, 585, -1174, 4602, -1, 2, -1, -1658, 898, 14930, 602, 0, 0, 0, 0, 0
160, 20727230, 5, 2687, 0, 0, 0, 303, 303, 303, 303, 585, -1175, 4602, -1, 0, -1, -1814, 908, 15186, 602, 0, 0, 0, 0, 0
161, 20737243, 5, 2687, 0, 0, 0, 335, 335, 335, 335, 585, -1175, 4602, -3, 3, -1, -1688, 878, 14970, 602, 0, 0, 0, 0, 0
162, 20747180, 5, 2687, 0, 0, 0, 335, 335, 335, 335, 585, -1175, 4603, 0, 0, -1, -1782, 860, 15150, 602, 0, 0, 0, 0, 0
163, 20757154, 5, 2687, 0, 0, 0, 335, 335, 335, 335, 585, -1175, 4603, -1, 3, -1, -1726, 854, 15034, 595, 0, 0, 0, 0, 0
164, 20767124, 5, 2687, 0, 0, 0, 335, 335, 335, 335, 585, -1176, 4603, -2, 0, 0, -1748, 856, 15062, 595, 0, 0, 0, 0, 0
165, 20777109, 5, 2687, 0, 0, 0, 335, 335, 335, 335, 584, -1176, 4603, -5, 3, 0, -1734, 828, 15044, 595, 0, 0, 0, 0, 0
166, 20787085, 5, 2687, 0, 0, 0, 335, 335, 335, 335, 584, -1176, 4603, -2, 1, 0, -1718, 836, 15006, 595, 0, 0, 0, 0, 0
167, 20797077, 5, 2687, 0, 0, 0, 335, 335, 335, 335, 584, -1176, 4602, -1, 1, 0, -1712, 876, 15048, 595, 0, 0, 0, 0, 0
168, 20807046, 5, 2687, 0, 0, 0, 335, 335, 335, 335, 584, -1176, 4602, -1, 1, 1, -1684, 902, 14982, 602, 0, 0, 0, 0, 0
169, 20817024, 5, 2687, 0, 0, 0, 335, 335, 335, 335, 584, -1176, 4602, -2, 1, 1, -1724, 916, 15074, 602, 0, 0, 0, 0, 0
170, 20826997, 5, 2687, 0, 0, 0, 335, 335, 335, 335, 585, -1176, 4602, -2, 2, 0, -1690, 924, 15014, 602, 0, 0, 0, 0, 0
171, 20836994, 5, 2687, 0, 0, 0, 335, 335, 335, 335, 585, -1176, 4602, -1, 1, 0, -1712, 910, 15104, 602, 0, 0, 0, 0, 0
172, 20846966, 5, 2687, 0, 0, 0, 335, 335, 335, 335, 585, -1176, 4602, -1, 2, 0, -1664, 894, 15042, 602, 0, 0, 0, 0, 0
173, 20856940, 5, 2687, 0, 0, 0, 335, 335, 335, 335, 585, -1176, 4602, -2, 0, 0, -1680, 886, 15084, 595, 0, 0, 0, 0, 0
174, 20866941, 5, 2687, 0, 0, 0, 335, 335, 335, 335, 585, -1176, 4602, -2, 1, 0, -1672, 858, 15074, 595, 0, 0, 0, 0, 0
175, 20876890, 5, 2687, 0, 0, 0, 335, 335, 335, 335, 585, -1176, 4602, 0, 0, 0, -1676, 872, 15076, 595, 0, 0, 0, 0, 0
176, 20886979, 5, 2687, 0, 0, 0, 335, 335, 335, 335, 586, -1176, 4602, 0, 0, 0, -1710, 896, 15094, 595, 0, 0, 0, 0, 0
177, 20896853, 5, 2687, 0, 0, 0, 335, 335, 335, 335, 586, -1176, 4602, -1, 1, 0, -1720, 920, 15052, 595, 0, 0, 0, 0, 0
178, 20906999, 5, 2687, 0, 0, 0, 335, 335, 335, 335, 586, -1176, 4602, -1, 1, 0, -1772, 954, 15108, 602, 0, 0, 0, 0, 0
179, 20916831, 5, 2687, 0, 0, 0, 335, 335, 335, 335, 587, -1176, 4602, -1, 1, -1, -1776, 988, 15048, 602, 0, 0, 0, 0, 0
180, 20926929, 5, 2687, 0, 0, 0, 335, 335, 335, 335, 587, -1177, 4602, -2, 1, -1, -1808, 1008, 15074, 602, 0, 0, 0, 0, 0
181, 20936770, 5, 2687, 0, 0, 0, 335, 335, 335, 335, 588, -1177, 4602, -4, 2, -2, -1772, 986, 15004, 602, 0, 0, 0, 0, 0
182, 20946781, 5, 2687, 0, 0, 0, 335, 335, 335, 335, 588, -1178, 4602, -3, 1, -3, -1768, 968, 15030, 602, 0, 0, 0, 0, 0
183, 20956724, 5, 2687, 0, 0, 0, 335, 335, 335, 335, 589, -1178, 4602, -2, 2, -2, -1764, 934, 15064, 595, 0, 0, 0, 0, 0
184, 20966709, 5, 2687, 0, 0, 0, 335, 335, 335, 335, 589, -1178, 4602, -2, 2, -2, -1724, 894, 15018, 595, 0, 0, 0, 0, 0
185, 20976681, 5, 2687, 0, 0, 0, 335, 335, 335, 335, 589, -1178, 4602, -3, 2, -2, -1712, 860, 15060, 595, 0, 0, 0, 0, 0
186, 20986661, 5, 2687, 0, 0, 0, 335, 335, 335, 335, 588, -1178, 4603, -5, 2, -2, -1680, 810, 15052, 595, 0, 0, 0, 0, 0
187, 20996635, 5, 2687, 0, 0, 0, 335, 335, 335, 335, 588, -1178, 4603, -4, 2, -2, -1674, 774, 15066, 595, 0, 0, 0, 0, 0
188, 21006628, 5, 2687, 0, 0, 0, 335, 335, 335, 335, 587, -1178, 4603, -2, 2, -1, -1674, 776, 15072, 602, 0, 0, 0, 0, 0
189, 21016597, 5, 2687, 0, 0, 0, 335, 335, 335, 335, 587, -1178, 4603, -3, 1, -1, -1680, 750, 15066, 602, 0, 0, 0, 0, 0
190, 21026580, 5, 2687, 0, 0, 0, 335, 335, 335, 335, 586, -1178, 4603, -4, 2, -1, -1678, 730, 15082, 602, 0, 0, 0, 0, 0
191, 21036552, 5, 2687, 0, 0, 0, 335, 335, 335, 335, 585, -1177, 4603, -3, 2, 0, -1698, 718, 15088, 602, 0, 0, 0, 0, 0
192, 21046544, 5, 2687, 0, 0, 0, 335, 335, 335, 335, 584, -1177, 4603, -1, 1, 0, -1728, 750, 15144, 602, 0, 0, 0, 0, 0
193, 21056527, 5, 2687, 0, 0, 0, 335, 335, 335, 335, 584, -1177, 4603, 0, 1, 0, -1728, 794, 15054, 595, 0, 0, 0, 0, 0
194, 21066493, 5, 2687, 0, 0, 0, 335, 335, 335, 335, 584, -1178, 4603, 0, 0, 0, -1760, 834, 15110, 595, 0, 0, 0, 0, 0
195, 21076526, 5, 2687, 0, 0, 0, 335, 335, 335, 335, 584, -1178, 4603, -1, 1, 0, -1750, 872, 15066, 595, 0, 0, 0, 0, 0
196, 21086468, 5, 2687, 0, 0, 0, 335, 335, 335, 335, 584, -1178, 4603, 0, 1, 0, -1758, 924, 15074, 595, 0, 0, 0, 0, 0
197, 21096558, 5, 2687, 0, 0, 0, 335, 335, 335, 335, 585, -1178, 4603, -1, 1, 0, -1756, 976, 15044, 595, 0, 0, 0, 0, 0
198, 21106428, 5, 2687, 0, 0, 0, 335, 335, 335, 335, 586, -1178, 4603, -2, 1, 0, -1748, 994, 15056, 602, 0, 0, 0, 0, 0
199, 21116543, 5, 2687, 0, 0, 0, 335, 335, 335, 335, 586, -1179, 4603, -2, 2, -1, -1732, 966, 15066, 602, 0, 0, 0, 0, 0
200, 21126359, 5, 2687, 0, 0, 0, 335, 335, 335, 335, 587, -1179, 4603, -1, 1, 0, -1670, 982, 15028, 602, 0, 0, 0, 0, 0
201, 21136438, 5, 2687, 0, 0, 0, 335, 335, 335, 335, 587, -1179, 4603, -1, 1, -1, -1660, 986, 15062, 602, 0, 0, 0, 0, 0
202, 21146324, 5, 2687, 0, 0, 0, 335, 335, 335, 335, 588, -1178, 4603, -2, 1, -1, -1656, 974, 15030, 602, 0, 0, 0, 0, 0
203, 21156306, 5, 2687, 0, 0, 0, 335, 335, 335, 335, 588, -1178, 4603, -3, 1, -1, -1672, 944, 15072, 595, 0, 0, 0, 0, 0
204, 21166275, 5, 2687, 0, 0, 0, 335, 335, 335, 335, 588, -1178, 4603, -1, 1, -1, -1676, 918, 15056, 595, 0, 0, 0, 0, 0
205, 21176258, 5, 2687, 0, 0, 0, 335, 335, 335, 335, 589, -1178, 4603, 0, 0, -1, -1702, 916, 15086, 595, 0, 0, 0, 0, 0
206, 21186227, 5, 2687, 0, 0, 0, 335, 335, 335, 335, 589, -1178, 4603, -2, 2, -1, -1706, 920, 15066, 595, 0, 0, 0, 0, 0
207, 21196385, 5, 2687, 0, 0, 0, 335, 335, 335, 335, 589, -1178, 4603, -4, 1, -1, -1712, 874, 15072, 595, 0, 0, 0, 0, 0
208, 21206227, 5, 2687, 0, 0, 0, 335, 335, 335, 335, 589, -1178, 4603, -3, 1, -1, -1740, 860, 15122, 602, 0, 0, 0, 0, 0
209, 21216162, 5, 2687, 0, 0, 0, 335, 335, 335, 335, 589, -1178, 4604, -2, 2, -1, -1730, 858, 15076, 602, 0, 0, 0, 0, 0
210, 21226139, 5, 2687, 0, 0, 0, 335, 335, 335, 335, 588, -1178, 4604, -3, 1, -1, -1746, 852, 15094, 602, 0, 0, 0, 0, 0
211, 21236125, 5, 2687, 0, 0, 0, 335, 335, 335, 335, 588, -1178, 4604, -4, 2, -1, -1728, 822, 15096, 602, 0, 0, 0, 0, 0
212, 21246106, 5, 2687, 0, 0, 0, 335, 335, 335, 335, 588, -1179, 4604, -3, 1, -1, -1710, 780, 15086, 602, 0, 0, 0, 0, 0
213, 21256081, 5, 2687, 0, 0, 0, 335, 335, 335, 335, 587, -1178, 4604, -1, 2, -1, -1702, 782, 15078, 595, 0, 0, 0, 0, 0
214, 21266062, 5, 2687, 0, 0, 0, 335, 335, 335, 335, 587, -1178, 4604, -1, 1, 0, -1680, 800, 15076, 595, 0, 0, 0, 0, 0
215, 21276032, 5, 2687, 0, 0, 0, 335, 335, 335, 335, 587, -1178, 4604, -1, 1, 0, -1678, 838, 15066, 595, 0, 0, 0, 0, 0
216, 21286083, 5, 2687, 0, 0, 0, 335, 335, 335, 335, 587, -1178, 4604, 0, 0, 1, -1652, 870, 15058, 595, 0, 0, 0, 0, 0
217, 21295985, 5, 2687, 0, 0, 0, 335, 335, 335, 335, 587, -1178, 4604, 1, 0, 1, -1670, 904, 15100, 595, 0, 0, 0, 0, 0
218, 21306120, 5, 2687, 0, 0, 0, 335, 335, 335, 335, 588, -1178, 4604, 0, 1, 0, -1688, 952, 15064, 602, 0, 0, 0, 0, 0
219, 21315937, 5, 2687, 0, 0, 0, 335, 335, 335, 335, 588, -1178, 4603, -1, 2, 0, -1688, 992, 15028, 602, 0, 0, 0, 0, 0
220, 21326085, 5, 2687, 0, 0, 0, 335, 335, 335, 335, 589, -1178, 4603, -3, 1, -1, -1758, 988, 15106, 602, 0, 0, 0, 0, 0
221, 21335892, 5, 2687, 0, 0, 0, 335, 335, 335, 335, 589, -1177, 4603, -3, 3, -1, -1664, 978, 14916, 602, 0, 0, 0, 0, 0
222, 21345964, 5, 2687, 0, 0, 0, 335, 335, 335, 335, 590, -1178, 4603, -2, 1, -1, -1810, 958, 15162, 602, 0, 0, 0, 0, 0
223, 21355857, 1, 2687, 0, 0, 0, 335, 335, 335, 335, 590, -1178, 4604, -3, 2, -1, -1708, 932, 14930, 595, 0, 0, 0, 0, 0
224, 21365830, 1, 2687, 0, 0, 0, 409, 409, 409, 409, 590, -1178, 4604, -4, 1, -1, -1808, 908, 15128, 595, 0, 0, 0, 0, 0
225, 21375792, 1, 2687, 0, 0, 0, 409, 409, 409, 409, 590, -1178, 4604, -3, 3, -1, -1702, 884, 14972, 595, 0, 0, 0, 0, 0
226, 21385783, 1, 2687, 0, 0, 0, 409, 409, 409, 409, 590, -1179, 4604, -2, 0, -1, -1784, 890, 15124, 595, 0, 0, 0, 0, 0
227, 21395765, 1, 2687, 0, 0, 0, 409, 409, 409, 409, 590, -1179, 4604, -3, 3, -1, -1686, 868, 14978, 595, 0, 0, 0, 0, 0
228, 21405804, 1, 2687, 0, 0, 0, 409, 409, 409, 409, 589, -1179, 4604, -2, 0, -1, -1716, 844, 15086, 602, 0, 0, 0, 0, 0
229, 21415725, 1, 2687, 0, 0, 0, 409, 409, 409, 409, 589, -1179, 4604, -2, 3, -1, -1662, 828, 15014, 602, 0, 0, 0, 0, 0
230, 21425702, 1, 2687, 0, 0, 0, 409, 409, 409, 409, 589, -1179, 4604, -2, 1, 0, -1712, 800, 15104, 602, 0, 0, 0, 0, 0
231, 21435675, 1, 2687, 0, 0, 0, 409, 409, 409, 409, 588, -1178, 4604, -2, 4, 0, -1658, 786, 15028, 602, 0, 0, 0, 0, 0
232, 21445654, 1, 2687, 0, 0, 0, 409, 409, 409, 409, 588, -1178, 4604, -1, 1, 0, -1666, 816, 15070, 602, 0, 0, 0, 0, 0
233, 21455641, 1, 2687, 0, 0, 0, 409, 409, 409, 409, 588, -1178, 4604, -1, 3, 0, -1686, 806, 15116, 595, 0, 0, 0, 0, 0
234, 21465615, 1, 2687, 0, 0, 0, 409, 409, 409, 409, 588, -1178, 4604, 0, 0, 1, -1692, 834, 15048, 595, 0, 0, 0, 0, 0
235, 21475605, 1, 2687, 0, 0, 0, 409, 409, 409, 409, 588, -1178, 4604, 0, 1, 1, -1752, 884, 15126, 595, 0, 0, 0, 0, 0
236, 21485576, 1, 2687, 0, 0, 0, 409, 409, 409, 409, 588, -1178, 4604, 2, 1, 1, -1724, 948, 14990, 595, 0, 0, 0, 0, 0
237, 21495568, 1, 2687, 0, 0, 0, 409, 409, 409, 409, 589, -1178, 4603, 0, 0, 1, -1768, 1014, 15068, 595, 0, 0, 0, 0, 0
238, 21505598, 1, 2687, 0, 0, 0, 409, 409, 409, 409, 590, -1178, 4603, -2, 2, 0, -1748, 1032, 15004, 602, 0, 0, 0, 0, 0
239, 21515503, 1, 2687, 0, 0, 0, 409, 409, 409, 409, 591, -1179, 4603, -2, 1, 0, -1776, 1044, 15092, 602, 0, 0, 0, 0, 0
240, 21525491, 1, 2687, 0, 0, 0, 409, 409, 409, 409, 591, -1179, 4603, -2, 2, -1, -1732, 1022, 15052, 602, 0, 0, 0, 0, 0
241, 21535478, 1, 2687, 0, 0, 0, 409, 409, 409, 409, 592, -1179, 4603, -3, 1, -1, -1702, 980, 15062, 602, 0, 0, 0, 0, 0
242, 21545434, 1, 2687, 0, 0, 0, 409, 409, 409, 409, 592, -1179, 4603, -5, 2, -1, -1684, 934, 15070, 602, 0, 0, 0, 0, 0
243, 21555417, 1, 2687, 0, 0, 0, 409, 409, 409, 409, 592, -1179, 4603, -5, 1, -1, -1660, 888, 15048, 595, 0, 0, 0, 0, 0
244, 21565392, 1, 2687, 0, 0, 0, 409, 409, 409, 409, 592, -1179, 4603, -3, 1, -1, -1670, 840, 15090, 595, 0, 0, 0, 0, 0
245, 21575368, 1, 2687, 0, 0, 0, 409, 409, 409, 409, 591, -1178, 4603, -2, 2, -1, -1650, 820, 15070, 595, 0, 0, 0, 0, 0
246, 21585357, 1, 2687, 0, 0, 0, 409, 409, 409, 409, 591, -1178, 4604, -3, 1, -1, -1674, 794, 15102, 595, 0, 0, 0, 0, 0
247, 21595339, 1, 2687, 0, 0, 0, 409, 409, 409, 409, 590, -1178, 4604, -3, 2, -1, -1666, 780, 15098, 595, 0, 0, 0, 0, 0
248, 21605437, 1, 2687, 0, 0, 0, 409, 409, 409, 409, 590, -1178, 4604, -2, 1, -1, -1686, 784, 15138, 602, 0, 0, 0, 0, 0
249, 21615290, 1, 2687, 0, 0, 0, 409, 409, 409, 409, 589, -1178, 4604, -1, 2, -1, -1710, 800, 15098, 602, 0, 0, 0, 0, 0
250, 21625275, 1, 2687, 0, 0, 0, 409, 409, 409, 409, 589, -1178, 4604, -1, 1, -1, -1738, 818, 15052, 602, 0, 0, 0, 0, 0
251, 21635261, 1, 2687, 0, 0, 0, 409, 409, 409, 409, 589, -1178, 4604, -1, 2, 0, -1764, 852, 15066, 602, 0, 0, 0, 0, 0
252, 21645228, 1, 2687, 0, 0, 0, 409, 409, 409, 409, 589, -1178, 4604, -1, 1, 0, -1762, 890, 15060, 602, 0, 0, 0, 0, 0
253, 21655206, 1, 2687, 0, 0, 0, 409, 409, 409, 409, 590, -1178, 4604, 0, 1, 1, -1776, 896, 15084, 595, 0, 0, 0, 0, 0
254, 21665197, 1, 2687, 0, 0, 0, 409, 409, 409, 409, 590, -1178, 4604, 0, 1, 1, -1758, 962, 15046, 595, 0, 0, 0, 0, 0
255, 21675174, 1, 2687, 0, 0, 0, 409, 409, 409, 409, 591, -1179, 4604, -1, 1, 0, -1762, 976, 15066, 595, 0, 0, 0, 0, 0
256, 21685147, 1, 2687, 0, 0, 0, 409, 409, 409, 409, 591, -1179, 4603, -1, 2, 0, -1754, 968, 15052, 595, 0, 0, 0, 0, 0
257, 21695124, 1, 2687, 0, 0, 0, 409, 409, 409, 409, 592, -1179, 4603, -2, 2, 0, -1712, 1000, 15036, 595, 0, 0, 0, 0, 0
258, 21705247, 1, 2687, 0, 0, 0, 409, 409, 409, 409, 592, -1179, 4603, -3, 1, -1, -1706, 954, 15036, 602, 0, 0, 0, 0, 0
259, 21715078, 1, 2687, 0, 0, 0, 409, 409, 409, 409, 592, -1179, 4603, -5, 2, -1, -1666, 912, 15016, 602, 0, 0, 0, 0, 0
260, 21725065, 1, 2687, 0, 0, 0, 409, 409, 409, 409, 592, -1179, 4604, -5, 2, -1, -1678, 886, 15068, 602, 0, 0, 0, 0, 0
261, 21735034, 1, 2687, 0, 0, 0, 409, 409, 409, 409, 592, -1179, 4604, -3, 2, -2, -1662, 844, 15056, 602, 0, 0, 0, 0, 0
262, 21745014, 1, 2687, 0, 0, 0, 409, 409, 409, 409, 591, -1178, 4604, -3, 2, -2, -1682, 832, 15050, 602, 0, 0, 0, 0, 0
263, 21754987, 1, 2687, 0, 0, 0, 409, 409, 409, 409, 591, -1178, 4604, -3, 2, -2, -1710, 820, 15080, 595, 0, 0, 0, 0, 0
264, 21764961, 1, 2687, 0, 0, 0, 409, 409, 409, 409, 590, -1178, 4604, -4, 1, -1, -1748, 796, 15074, 595, 0, 0, 0, 0, 0
265, 21774957, 1, 2687, 0, 0, 0, 409, 409, 409, 409, 590, -1178, 4604, -2, 2, 0, -1724, 810, 15028, 595, 0, 0, 0, 0, 0
266, 21784925, 1, 2687, 0, 0, 0, 409, 409, 409, 409, 590, -1179, 4604, 0, -1, 0, -1762, 872, 15090, 595, 0, 0, 0, 0, 0
267, 21794927, 1, 2687, 0, 0, 0, 409, 409, 409, 409, 590, -1179, 4604, 0, 1, 0, -1736, 882, 15084, 595, 0, 0, 0, 0, 0
268, 21805199, 1, 2687, 0, 0, 0, 409, 409, 409, 409, 590, -1179, 4604, -1, 2, -1, -1738, 886, 15044, 602, 0, 0, 0, 0, 0
269, 21814873, 1, 2687, 0, 0, 0, 409, 409, 409, 409, 590, -1179, 4604, -3, 1, 0, -1750, 880, 15056, 602, 0, 0, 0, 0, 0
270, 21824851, 1, 2687, 0, 0, 0, 409, 409, 409, 409, 590, -1179, 4604, -3, 1, -1, -1716, 904, 15026, 602, 0, 0, 0, 0, 0
271, 21834823, 1, 2687, 0, 0, 0, 409, 409, 409, 409, 590, -1179, 4604, -1, 1, 0, -1714, 920, 15124, 602, 0, 0, 0, 0, 0
272, 21844816, 1, 2687, 0, 0, 0, 409, 409, 409, 409, 591, -1179, 4604, 2, 1, 0, -1706, 946, 15058, 602, 0, 0, 0, 0, 0
273, 21854794, 1, 2687, 0, 0, 0, 409, 409, 409, 409, 592, -1179, 4604, 0, 1, -1, -1710, 978, 15084, 595, 0, 0, 0, 0, 0
274, 21864763, 1, 2687, 0, 0, 0, 409, 409, 409, 409, 592, -1179, 4604, -6, 2, -2, -1684, 958, 15036, 595, 0, 0, 0, 0, 0
275, 21874736, 1, 2687, 0, 0, 0, 409, 409, 409, 409, 592, -1179, 4604, -7, 1, -1, -1718, 914, 15120, 595, 0, 0, 0, 0, 0
276, 21884728, 1, 2687, 0, 0, 0, 409, 409, 409, 409, 592, -1179, 4604, -1, 2, -1, -1704, 892, 15102, 595, 0, 0, 0, 0, 0
277, 21894708, 1, 2687, 0, 0, 0, 409, 409, 409, 409, 592, -1179, 4604, 0, 1, -1, -1682, 912, 15042, 595, 0, 0, 0, 0, 0
278, 21904843, 1, 2687, 0, 0, 0, 409, 409, 409, 409, 592, -1179, 4605, -5, 1, -1, -1700, 892, 15052, 602, 0, 0, 0, 0, 0
279, 21914646, 1, 2687, 0, 0, 0, 409, 409, 409, 409, 591, -1179, 4605, -8, 1, -1, -1714, 838, 15050, 602, 0, 0, 0, 0, 0
280, 21924625, 1, 2687, 0, 0, 0, 409, 409, 409, 409, 591, -1179, 4605, -3, 2, -1, -1730, 804, 15088, 602, 0, 0, 0, 0, 0
281, 21934604, 1, 2687, 0, 0, 0, 409, 409, 409, 409, 591, -1179, 4605, 1, 1, 0, -1718, 842, 15046, 602, 0, 0, 0, 0, 0
282, 21944586, 1, 2687, 0, 0, 0, 409, 409, 409, 409, 591, -1179, 4605, -1, 1, -1, -1730, 872, 15062, 602, 0, 0, 0, 0, 0
283, 21954567, 1, 2687, 0, 0, 0, 409, 409, 409, 409, 590, -1179, 4605, -5, 1, 0, -1726, 850, 15070, 595, 0, 0, 0, 0, 0
284, 21964531, 1, 2687, 0, 0, 0, 409, 409, 409, 409, 590, -1179, 4605, -2, 1, 0, -1730, 842, 15110, 595, 0, 0, 0, 0, 0
285, 21974522, 1, 2687, 0, 0, 0, 409, 409, 409, 409, 590, -1180, 4605, 1, 1, 0, -1716, 892, 15106, 595, 0, 0, 0, 0, 0
286, 21984496, 1, 2687, 0, 0, 0, 409, 409, 409, 409, 591, -1180, 4605, 0, 1, 0, -1700, 922, 15046, 595, 0, 0, 0, 0, 0
287, 21994475, 1, 2687, 0, 0, 0, 409, 409, 409, 409, 591, -1179, 4605, -2, 2, 0, -1722, 926, 15078, 595, 0, 0, 0, 0, 0
288, 22004659, 1, 2687, 0, 0, 0, 409, 409, 409, 409, 591, -1179, 4605, -2, 1, 0, -1698, 918, 15062, 602, 0, 0, 0, 0, 0
289, 22014427, 1, 2687, 0, 0, 0, 409, 409, 409, 409, 592, -1179, 4605, -1, 1, -1, -1710, 918, 15086, 602, 0, 0, 0, 0, 0
290, 22024415, 1, 2687, 0, 0, 0, 409, 409, 409, 409, 592, -1179, 4605, -1, 2, -1, -1710, 924, 15078, 602, 0, 0, 0, 0, 0
291, 22034383, 1, 2687, 0, 0, 0, 409, 409, 409, 409, 592, -1179, 4605, -4, 2, -1, -1698, 906, 15052, 602, 0, 0, 0, 0, 0
292, 22044381, 1, 2687, 0, 0, 0, 409, 409, 409, 409, 592, -1179, 4605, -4, 2, -1, -1688, 892, 15090, 602, 0, 0, 0, 0, 0
293, 22054337, 1, 2687, 0, 0, 0, 409, 409, 409, 409, 592, -1179, 4605, -2, 2, -1, -1688, 892, 15060, 595, 0, 0, 0, 0, 0
294, 22064326, 1, 2687, 0, 0, 0, 409, 409, 409, 409, 592, -1179, 4605, -1, 2, -1, -1718, 912, 15076, 595, 0, 0, 0, 0, 0
295, 22074322, 1, 2687, 0, 0, 0, 409, 409, 409, 409, 592, -1179, 4605, -2, 2, -1, -1716, 898, 15102, 595, 0, 0, 0, 0, 0
296, 22084306, 1, 2687, 0, 0, 0, 409, 409, 409, 409, 592, -1179, 4605, -3, 2, -1, -1716, 890, 15074, 595, 0, 0, 0, 0, 0
297, 22094281, 1, 2687, 0, 0, 0, 409, 409, 409, 409, 592, -1179, 4605, -3, 1, -1, -1704, 864, 15088, 595, 0, 0, 0, 0, 0
298, 22104478, 1, 2687, 0, 0, 0, 409, 409, 409, 409, 591, -1179, 4605, -3, 2, -1, -1730, 832, 15094, 602, 0, 0, 0, 0, 0
299, 22114228, 1, 2687, 0, 0, 0, 409, 409, 409, 409, 591, -1179, 4605, -3, 2, -1, -1712, 830, 15086, 602, 0, 0, 0, 0, 0
300, 22124224, 1, 2687, 0, 0, 0, 409, 409, 409, 409, 591, -1179, 4605, -4, 2, -1, -1694, 824, 15086, 602, 0, 0, 0, 0, 0
301, 22134189, 1, 2687, 0, 0, 0, 409, 409, 409, 409, 590, -1179, 4606, -2, 2, -1, -1710, 814, 15066, 602, 0, 0, 0, 0, 0
302, 22144165, 1, 2687, 0, 0, 0, 409, 409, 409, 409, 590, -1179, 4606, -1, 1, 0, -1682, 862, 15054, 602, 0, 0, 0, 0, 0
303, 22154158, 1, 2687, 0, 0, 0, 409, 409, 409, 409, 590, -1179, 4605, 1, 0, 0, -1672, 900, 15064, 595, 0, 0, 0, 0, 0
304, 22164130, 1, 2687, 0, 0, 0, 409, 409, 409, 409, 591, -1178, 4605, 0, 1, 0, -1672, 916, 15064, 595, 0, 0, 0, 0, 0
305, 22174104, 1, 2687, 0, 0, 0, 409, 409, 409, 409, 591, -1178, 4605, -1, 1, -1, -1696, 912, 15052, 595, 0, 0, 0, 0, 0
306, 22184081, 1, 2687, 0, 0, 0, 409, 409, 409, 409, 591, -1178, 4605, -1, 1, -1, -1704, 910, 15052, 595, 0, 0, 0, 0, 0
307, 22194061, 1, 2687, 0, 0, 0, 409, 409, 409, 409, 592, -1178, 4606, -1, 2, -1, -1712, 906, 15064, 595, 0, 0, 0, 0, 0
308, 22204291, 1, 2687, 0, 0, 0, 409, 409, 409, 409, 592, -1178, 4606, -2, 1, -1, -1732, 916, 15072, 602, 0, 0, 0, 0, 0
309, 22214025, 1, 2687, 0, 0, 0, 409, 409, 409, 409, 592, -1178, 4606, -2, 2, -1, -1714, 928, 15044, 602, 0, 0, 0, 0, 0
310, 22223999, 1, 2687, 0, 0, 0, 409, 409, 409, 409, 592, -1178, 4606, -2, 1, -1, -1740, 912, 15052, 602, 0, 0, 0, 0, 0
311, 22233967, 1, 2687, 0, 0, 0, 409, 409, 409, 409, 592, -1179, 4606, -2, 1, -1, -1730, 912, 15072, 602, 0, 0, 0, 0, 0
312, 22243945, 1, 2687, 0, 0, 0, 409, 409, 409, 409, 592, -1179, 4606, -2, 2, -1, -1744, 892, 15072, 602, 0, 0, 0, 0, 0
313, 22253938, 1, 2687, 0, 0, 0, 409, 409, 409, 409, 592, -1179, 4606, -2, 2, -1, -1744, 878, 15080, 595, 0, 0, 0, 0, 0
314, 22263912, 1, 2687, 0, 0, 0, 409, 409, 409, 409, 592, -1179, 4606, -3, 2, -1, -1758, 868, 15064, 595, 0, 0, 0, 0, 0
315, 22273894, 1, 2687, 0, 0, 0, 409, 409, 409, 409, 592, -1179, 4606, -2, 2, -1, -1758, 862, 15070, 595, 0, 0, 0, 0, 0
316, 22283879, 1, 2687, 0, 0, 0, 409, 409, 409, 409, 592, -1179, 4606, -2, 2, 0, -1734, 862, 15084, 595, 0, 0, 0, 0, 0
317, 22293848, 1, 2687, 0, 0, 0, 409, 409, 409, 409, 592, -1179, 4606, -1, 1, 0, -1728, 870, 15078, 595, 0, 0, 0, 0, 0
318, 22304082, 1, 2687, 0, 0, 0, 409, 409, 409, 409, 592, -1180, 4606, -2, 1, 0, -1710, 890, 15070, 602, 0, 0, 0, 0, 0
319, 22313806, 1, 2687, 0, 0, 0, 409, 409, 409, 409, 592, -1180, 4606, -3, 1, 0, -1696, 894, 15060, 602, 0, 0, 0, 0, 0
320, 22323781, 1, 2687, 0, 0, 0, 409, 409, 409, 409, 592, -1180, 4606, -2, 2, -1, -1684, 872, 15064, 602, 0, 0, 0, 0, 0
321, 22333764, 1, 2687, 0, 0, 0, 409, 409, 409, 409, 592, -1179, 4606, -1, 2, -1, -1682, 870, 15068, 602, 0, 0, 0, 0, 0
322, 22343755, 1, 2687, 0, 0, 0, 409, 409, 409, 409, 592, -1179, 4606, -2, 2, -1, -1690, 864, 15056, 602, 0, 0, 0, 0, 0
323, 22353717, 1, 2687, 0, 0, 0, 409, 409, 409, 409, 592, -1179, 4606, -2, 2, -1, -1712, 860, 15056, 595, 0, 0, 0, 0, 0
324, 22363699, 1, 2687, 0, 0, 0, 409, 409, 409, 409, 592, -1179, 4606, -2, 2, 0, -1726, 872, 15054, 595, 0, 0, 0, 0, 0
325, 22373673, 1, 2687, 0, 0, 0, 409, 409, 409, 409, 592, -1179, 4606, -1, 2, 0, -1752, 878, 15054, 595, 0, 0, 0, 0, 0
326, 22383656, 1, 2687, 0, 0, 0, 409, 409, 409, 409, 592, -1179, 4606, -1, 2, 0, -1742, 922, 15048, 595, 0, 0, 0, 0, 0
327, 22393638, 1, 2687, 0, 0, 0, 409, 409, 409, 409, 592, -1179, 4606, -1, 1, -1, -1748, 946, 15070, 595, 0, 0, 0, 0, 0
328, 22403917, 1, 2687, 0, 0, 0, 409, 409, 409, 409, 593, -1180, 4606, -2, 1, -1, -1748, 940, 15076, 602, 0, 0, 0, 0, 0
329, 22413759, 1, 2687, 0, 0, 0, 409, 409, 409, 409, 593, -1180, 4606, -2, 1, -2, -1734, 934, 15080, 602, 0, 0, 0, 0, 0
330, 22423557, 1, 2687, 0, 0, 0, 409, 409, 409, 409, 593, -1180, 4606, -4, 1, -1, -1720, 872, 15076, 602, 0, 0, 0, 0, 0
331, 22433545, 1, 2687, 0, 0, 0, 409, 409, 409, 409, 592, -1180, 4606, -4, 1, -1, -1716, 838, 15070, 602, 0, 0, 0, 0, 0
332, 22443524, 1, 2687, 0, 0, 0, 409, 409, 409, 409, 592, -1180, 4606, -4, 1, -1, -1708, 838, 15100, 602, 0, 0, 0, 0, 0
333, 22453505, 1, 2687, 0, 0, 0, 409, 409, 409, 409, 592, -1180, 4607, -2, 1, -1, -1710, 852, 15106, 595, 0, 0, 0, 0, 0
334, 22463484, 1, 2687, 0, 0, 0, 409, 409, 409, 409, 592, -1180, 4607, -1, 2, 0, -1704, 848, 15088, 595, 0, 0, 0, 0, 0
335, 22473470, 1, 2687, 0, 0, 0, 409, 409, 409, 409, 591, -1180, 4607, -1, 2, 0, -1708, 856, 15078, 595, 0, 0, 0, 0, 0
336, 22483441, 1, 2687, 0, 0, 0, 409, 409, 409, 409, 591, -1180, 4607, -2, 2, 0, -1716, 856, 15080, 595, 0, 0, 0, 0, 0
337, 22493413, 1, 2687, 0, 0, 0, 409, 409, 409, 409, 591, -1180, 4607, -1, 2, -1, -1710, 894, 15108, 595, 0, 0, 0, 0, 0
338, 22503716, 1, 2687, 0, 0, 0, 409, 409, 409, 409, 591, -1180, 4607, -1, 1, -1, -1706, 888, 15084, 602, 0, 0, 0, 0, 0
339, 22513384, 1, 2687, 0, 0, 0, 409, 409, 409, 409, 592, -1180, 4607, -1, 2, 0, -1698, 900, 15054, 602, 0, 0, 0, 0, 0
340, 22523361, 1, 2687, 0, 0, 0, 409, 409, 409, 409, 592, -1180, 4607, -2, 2, 0, -1698, 918, 15082, 602, 0, 0, 0, 0, 0
341, 22533335, 1, 2687, 0, 0, 0, 409, 409, 409, 409, 592, -1180, 4607, -2, 1, 0, -1692, 926, 15084, 602, 0, 0, 0, 0, 0
342, 22543310, 1, 2687, 0, 0, 0, 409, 409, 409, 409, 592, -1180, 4607, -1, 2, 0, -1700, 918, 15068, 602, 0, 0, 0, 0, 0
343, 22553301, 1, 2687, 0, 0, 0, 409, 409, 409, 409, 593, -1180, 4606, 0, 0, 0, -1700, 912, 15066, 595, 0, 0, 0, 0, 0
344, 22563273, 1, 2687, 0, 0, 0, 409, 409, 409, 409, 593, -1180, 4606, -1, 2, 0, -1710, 910, 15046, 595, 0, 0, 0, 0, 0
345, 22573247, 1, 2687, 0, 0, 0, 409, 409, 409, 409, 593, -1179, 4606, -2, 2, 0, -1722, 908, 15058, 595, 0, 0, 0, 0, 0
346, 22583229, 1, 2687, 0, 0, 0, 409, 409, 409, 409, 593, -1180, 4606, -2, 2, -1, -1746, 878, 15066, 595, 0, 0, 0, 0, 0
347, 22593201, 1, 2687, 0, 0, 0, 409, 409, 409, 409, 593, -1180, 4606, -2, 2, -1, -1754, 874, 15086, 595, 0, 0, 0, 0, 0
348, 22603623, 1, 2687, 0, 0, 0, 409, 409, 409, 409, 593, -1180, 4606, -1, 2, -1, -1752, 892, 15084, 602, 0, 0, 0, 0, 0
349, 22613165, 1, 2687, 0, 0, 0, 409, 409, 409, 409, 593, -1180, 4606, -1, 2, -1, -1742, 898, 15048, 602, 0, 0, 0, 0, 0
350, 22623141, 1, 2687, 0, 0, 0, 409, 409, 409, 409, 593, -1180, 4606, -1, 1, -1, -1736, 900, 15052, 602, 0, 0, 0, 0, 0
351, 22633135, 1, 2687, 0, 0, 0, 409, 409, 409, 409, 594, -1180, 4606, -1, 1, -1, -1730, 892, 15064, 602, 0, 0, 0, 0, 0
352, 22643109, 1, 2687, 0, 0, 0, 409, 409, 409, 409, 594, -1180, 4606, -1, 1, 0, -1706, 884, 15040, 602, 0, 0, 0, 0, 0
353, 22653077, 1, 2687, 0, 0, 0, 409, 409, 409, 409, 594, -1180, 4606, -1, 2, 0, -1696, 892, 15032, 595, 0, 0, 0, 0, 0
354, 22663062, 1, 2687, 0, 0, 0, 409, 409, 409, 409, 594, -1180, 4606, -1, 2, 0, -1686, 894, 15028, 595, 0, 0, 0, 0, 0
355, 22673029, 1, 2687, 0, 0, 0, 409, 409, 409, 409, 594, -1180, 4606, -1, 2, 0, -1696, 878, 15050, 595, 0, 0, 0, 0, 0
356, 22683019, 1, 2687, 0, 0, 0, 409, 409, 409, 409, 595, -1180, 4606, -1, 1, 0, -1684, 874, 15088, 595, 0, 0, 0, 0, 0
357, 22692988, 1, 2687, 0, 0, 0, 409, 409, 409, 409, 595, -1179, 4606, -1, 1, 0, -1672, 868, 15098, 595, 0, 0, 0, 0, 0
358, 22703585, 1, 2687, 0, 0, 0, 409, 409, 409, 409, 595, -1179, 4606, -1, 1, 0, -1668, 858, 15078, 602, 0, 0, 0, 0, 0
359, 22712961, 1, 2687, 0, 0, 0, 409, 409, 409, 409, 595, -1179, 4606, -1, 1, 0, -1686, 858, 15070, 602, 0, 0, 0, 0, 0
360, 22722933, 1, 2687, 0, 0, 0, 409, 409, 409, 409, 595, -1179, 4606, -1, 1, 0, -1704, 866, 15092, 602, 0, 0, 0, 0, 0
361, 22732907, 1, 2687, 0, 0, 0, 409, 409, 409, 409, 595, -1179, 4606, -1, 1, 0, -1738, 868, 15070, 602, 0, 0, 0, 0, 0
362, 22742897, 1, 2687, 0, 0, 0, 409, 409, 409, 409, 595, -1179, 4605, 0, 1, 0, -1740, 892, 15064, 602, 0, 0, 0, 0, 0
363, 22752871, 1, 2687, 0, 0, 0, 409, 409, 409, 409, 595, -1179, 4605, -1, 1, 0, -1744, 920, 15078, 602, 0, 0, 0, 0, 0
364, 22762840, 1, 2687, 0, 0, 0, 409, 409, 409, 409, 596, -1179, 4605, -1, 2, -1, -1730, 926, 15058, 602, 0, 0, 0, 0, 0
365, 22772821, 1, 2687, 0, 0, 0, 409, 409, 409, 409, 596, -1179, 4605, -1, 2, -1, -1732, 928, 15098, 602, 0, 0, 0, 0, 0
366, 22782803, 1, 2687, 0, 0, 0, 409, 409, 409, 409, 596, -1179, 4605, -1, 2, -1, -1720, 928, 15102, 602, 0, 0, 0, 0, 0
367, 22792771, 1, 2687, 0, 0, 0, 409, 409, 409, 409, 597, -1179, 4605, -1, 2, -1, -1730, 920, 15106, 602, 0, 0, 0, 0, 0
368, 22802748, 1, 2687, 0, 0, 0, 409, 409, 409, 409, 597, -1179, 4605, -2, 2, -1, -1726, 898, 15080, 602, 0, 0, 0, 0, 0
369, 22812741, 1, 2687, 0, 0, 0, 409, 409, 409, 409, 597, -1179, 4605, -2, 2, 0, -1718, 900, 15104, 595, 0, 0, 0, 0, 0
370, 22822709, 1, 2687, 0, 0, 0, 409, 409, 409, 409, 597, -1179, 4605, -1, 2, 0, -1716, 878, 15100, 595, 0, 0, 0, 0, 0
371, 22832685, 1, 2687, 0, 0, 0, 409, 409, 409, 409, 597, -1179, 4605, -1, 2, 0, -1710, 860, 15080, 595, 0, 0, 0, 0, 0
372, 22842659, 1, 2687, 0, 0, 0, 409, 409, 409, 409, 597, -1179, 4605, -1, 1, 0, -1714, 854, 15086, 595, 0, 0, 0, 0, 0
373, 22852643, 1, 2687, 0, 0, 0, 409, 409, 409, 409, 597, -1179, 4605, 0, 0, -1, -1712, 866, 15078, 595, 0, 0, 0, 0, 0
374, 22862632, 1, 2687, 0, 0, 0, 409, 409, 409, 409, 597, -1179, 4605, 0, 0, -1, -1704, 884, 15076, 602, 0, 0, 0, 0, 0
375, 22872602, 1, 2687, 0, 0, 0, 409, 409, 409, 409, 597, -1179, 4605, -1, 1, -1, -1724, 900, 15080, 602, 0, 0, 0, 0, 0
376, 22882569, 1, 2687, 0, 0, 0, 409, 409, 409, 409, 597, -1179, 4605, -1, 2, -1, -1718, 874, 15058, 602, 0, 0, 0, 0, 0
377, 22892550, 1, 2687, 0, 0, 0, 409, 409, 409, 409, 597, -1179, 4605, -1, 1, 0, -1700, 868, 15060, 602, 0, 0, 0, 0, 0
378, 22902527, 1, 2687, 0, 0, 0, 409, 409, 409, 409, 597, -1179, 4605, -1, 1, 0, -1692, 884, 15062, 602, 0, 0, 0, 0, 0
379, 22912515, 1, 2687, 0, 0, 0, 409, 409, 409, 409, 597, -1179, 4605, -1, 1, 0, -1702, 882, 15066, 595, 0, 0, 0, 0, 0
380, 22922488, 1, 2687, 0, 0, 0, 409, 409, 409, 409, 597, -1179, 4605, -1, 1, 0, -1708, 882, 15052, 595, 0, 0, 0, 0, 0
381, 22932460, 1, 2687, 0, 0, 0, 409, 409, 409, 409, 597, -1179, 4605, -1, 1, 0, -1700, 896, 15066, 595, 0, 0, 0, 0, 0
382, 22942429, 1, 2687, 0, 0, 0, 409, 409, 409, 409, 598, -1179, 4605, -1, 1, 0, -1714, 920, 15062, 595, 0, 0, 0, 0, 0
383, 22952403, 1, 2687, 0, 0, 0, 409, 409, 409, 409, 598, -1179, 4605, -1, 1, 0, -1726, 904, 15044, 595, 0, 0, 0, 0, 0
384, 22962401, 1, 2687, 0, 0, 0, 409, 409, 409, 409, 598, -1180, 4605, 0, 0, 0, -1726, 914, 15046, 602, 0, 0, 0, 0, 0
385, 22972378, 1, 2687, 0, 0, 0, 409, 409, 409, 409, 598, -1180, 4605, -1, 1, -1, -1728, 926, 15072, 602, 0, 0, 0, 0, 0
386, 22982346, 1, 2687, 0, 0, 0, 409, 409, 409, 409, 599, -1180, 4605, -1, 2, -1, -1722, 904, 15086, 602, 0, 0, 0, 0, 0
387, 22992315, 1, 2687, 0, 0, 0, 409, 409, 409, 409, 599, -1180, 4605, -1, 2, -1, -1722, 906, 15064, 602, 0, 0, 0, 0, 0
388, 23002302, 1, 2687, 0, 0, 0, 409, 409, 409, 409, 599, -1180, 4605, -1, 1, 0, -1718, 894, 15074, 602, 0, 0, 0, 0, 0
389, 23012296, 1, 2687, 0, 0, 0, 409, 409, 409, 409, 599, -1180, 4605, -1, 2, 0, -1692, 882, 15056, 595, 0, 0, 0, 0, 0
390, 23022410, 1, 2687, 0, 0, 0, 409, 409, 409, 409, 599, -1180, 4605, -1, 1, -1, -1706, 886, 15040, 595, 0, 0, 0, 0, 0
391, 23032243, 1, 2687, 0, 0, 0, 409, 409, 409, 409, 599, -1180, 4605, -1, 2, 0, -1714, 868, 15036, 595, 0, 0, 0, 0, 0
392, 23042224, 1, 2687, 0, 0, 0, 409, 409, 409, 409, 599, -1180, 4605, -1, 2, 0, -1716, 858, 15050, 595, 0, 0, 0, 0, 0
393, 23052196, 1, 2687, 0, 0, 0, 409, 409, 409, 409, 599, -1180, 4605, -1, 1, 0, -1718, 878, 15074, 595, 0, 0, 0, 0, 0
394, 23062188, 1, 2687, 0, 0, 0, 409, 409, 409, 409, 599, -1180, 4604, 0, 0, 0, -1688, 894, 15066, 602, 0, 0, 0, 0, 0
395, 23072160, 1, 2687, 0, 0, 0, 409, 409, 409, 409, 600, -1180, 4604, 0, 0, 0, -1698, 902, 15068, 602, 0, 0, 0, 0, 0
396, 23082115, 1, 2687, 0, 0, 0, 409, 409, 409, 409, 600, -1180, 4604, -1, 2, 0, -1712, 906, 15070, 602, 0, 0, 0, 0, 0
397, 23092088, 1, 2687, 0, 0, 0, 409, 409, 409, 409, 600, -1180, 4604, -1, 1, 0, -1718, 908, 15044, 602, 0, 0, 0, 0, 0
398, 23102080, 1, 2687, 0, 0, 0, 409, 409, 409, 409, 600, -1180, 4604, -1, 1, 0, -1732, 906, 15058, 602, 0, 0, 0, 0, 0
399, 23112053, 1, 2687, 0, 0, 0, 409, 409, 409, 409, 600, -1180, 4604, -1, 1, 0, -1730, 906, 15050, 595, 0, 0, 0, 0, 0
400, 23122048, 1, 2687, 0, 0, 0, 409, 409, 409, 409, 601, -1180, 4604, 0, 0, -1, -1722, 912, 15054, 595, 0, 0, 0, 0, 0
401, 23132018, 1, 2687, 0, 0, 0, 409, 409, 409, 409, 601, -1180, 4604, -1, 1, -1, -1740, 902, 15064, 595, 0, 0, 0, 0, 0
402, 23141995, 1, 2687, 0, 0, 0, 409, 409, 409, 409, 601, -1180, 4604, -1, 2, -1, -1722, 892, 15086, 595, 0, 0, 0, 0, 0
403, 23151985, 1, 2687, 0, 0, 0, 409, 409, 409, 409, 601, -1180, 4604, -1, 1, -1, -1710, 892, 15084, 595, 0, 0, 0, 0, 0
404, 23161961, 1, 2687, 0, 0, 0, 409, 409, 409, 409, 601, -1180, 4604, -1, 2, 0, -1706, 886, 15086, 602, 0, 0, 0, 0, 0
405, 23171936, 1, 2687, 0, 0, 0, 409, 409, 409, 409, 601, -1180, 4604, -1, 2, 0, -1706, 870, 15094, 602, 0, 0, 0, 0, 0
406, 23181908, 1, 2687, 0, 0, 0, 409, 409, 409, 409, 601, -1180, 4604, -2, 2, 0, -1712, 874, 15040, 602, 0, 0, 0, 0, 0
407, 23191883, 1, 2687, 0, 0, 0, 409, 409, 409, 409, 601, -1180, 4604, -1, 1, 0, -1714, 862, 15030, 602, 0, 0, 0, 0, 0
408, 23201878, 1, 2687, 0, 0, 0, 409, 409, 409, 409, 601, -1180, 4604, -1, 2, 0, -1694, 840, 15048, 602, 0, 0, 0, 0, 0
409, 23211856, 1, 2687, 0, 0, 0, 409, 409, 409, 409, 601, -1180, 4604, -1, 2, -1, -1692, 838, 15046, 595, 0, 0, 0, 0, 0
410, 23221818, 1, 2687, 0, 0, 0, 409, 409, 409, 409, 601, -1180, 4604, -1, 1, -1, -1688, 852, 15048, 595, 0, 0, 0, 0, 0
411, 23231809, 1, 2687, 0, 0, 0, 409, 409, 409, 409, 601, -1180, 4604, -1, 2, 0, -1672, 852, 15044, 595, 0, 0, 0, 0, 0
412, 23241802, 1, 2687, 0, 0, 0, 409, 409, 409, 409, 601, -1180, 4604, -1, 1, 0, -1678, 874, 15056, 595, 0, 0, 0, 0, 0
413, 23251758, 1, 2687, 0, 0, 0, 409, 409, 409, 409, 601, -1179, 4604, -1, 1, 0, -1688, 888, 15050, 595, 0, 0, 0, 0, 0
414, 23261752, 1, 2687, 0, 0, 0, 409, 409, 409, 409, 601, -1179, 4604, -1, 1, 0, -1702, 888, 15060, 602, 0, 0, 0, 0, 0
415, 23271736, 1, 2687, 0, 0, 0, 409, 409, 409, 409, 601, -1179, 4604, 0, 0, -1, -1710, 908, 15034, 602, 0, 0, 0, 0, 0
416, 23281710, 1, 2687, 0, 0, 0, 409, 409, 409, 409, 602, -1179, 4604, -1, 1, 0, -1698, 914, 15020, 602, 0, 0, 0, 0, 0
417, 23291669, 1, 2687, 0, 0, 0, 409, 409, 409, 409, 602, -1179, 4604, -1, 1, -1, -1706, 918, 15062, 602, 0, 0, 0, 0, 0
418, 23301644, 1, 2687, 0, 0, 0, 409, 409, 409, 409, 602, -1179, 4604, -1, 2, -1, -1700, 900, 15082, 602, 0, 0, 0, 0, 0
419, 23311638, 1, 2687, 0, 0, 0, 409, 409, 409, 409, 602, -1179, 4604, -1, 2, -1, -1692, 896, 15046, 595, 0, 0, 0, 0, 0
420, 23321611, 1, 2687, 0, 0, 0, 409, 409, 409, 409, 602, -1179, 4604, -1, 1, 0, -1694, 926, 15058, 595, 0, 0, 0, 0, 0
421, 23331600, 1, 2687, 0, 0, 0, 409, 409, 409, 409, 602, -1179, 4604, -1, 2, 0, -1718, 912, 15084, 595, 0, 0, 0, 0, 0
422, 23341567, 1, 2687, 0, 0, 0, 409, 409, 409, 409, 603, -1179, 4603, -1, 2, 0, -1718, 902, 15056, 595, 0, 0, 0, 0, 0
423, 23351555, 0, 2687, 0, 0, 0, 409, 409, 409, 409, 603, -1179, 4603, -1, 1, -1, -1708, 886, 15042, 595, 0, 0, 0, 0, 0
424, 23361529, 0, 2687, 0, 0, 0, 0, 0, 0, 0, 603, -1179, 4603, -1, 2, -1, -1718, 872, 15040, 602, 0, 0, 0, 0, 0
425, 23371502, 0, 2687, 0, 0, 0, 0, 0, 0, 0, 603, -1179, 4603, -1, 2, 0, -1714, 876, 15070, 602, 0, 0, 0, 0, 0
426, 23381480, 0, 2687, 0, 0, 0, 0, 0, 0, 0, 603, -1179, 4604, -1, 1, -1, -1726, 876, 15044, 602, 0, 0, 0, 0, 0
427, 23391463, 0, 2687, 0, 0, 0, 0, 0, 0, 0, 603, -1179, 4604, -1, 1, -1, -1726, 872, 15046, 602, 0, 0, 0, 0, 0
428, 23401455, 0, 2687, 0, 0, 0, 0, 0, 0, 0, 603, -1179, 4603, -1, 2, 0, -1724, 900, 15072, 602, 0, 0, 0, 0, 0
429, 23411454, 0, 2687, 0, 0, 0, 0, 0, 0, 0, 603, -1179, 4603, -1, 1, -1, -1718, 902, 15080, 595, 0, 0, 0, 0, 0
430, 23421392, 0, 2687, 0, 0, 0, 0, 0, 0, 0, 603, -1179, 4603, -2, 2, -1, -1718, 896, 15074, 595, 0, 0, 0, 0, 0
431, 23431483, 0, 2687, 0, 0, 0, 0, 0, 0, 0, 603, -1179, 4604, -1, 2, -1, -1716, 904, 15070, 595, 0, 0, 0, 0, 0
432, 23441362, 0, 2687, 0, 0, 0, 0, 0, 0, 0, 603, -1179, 4604, -1, 2, -1, -1712, 886, 15066, 595, 0, 0, 0, 0, 0
433, 23451499, 0, 2687, 0, 0, 0, 0, 0, 0, 0, 603, -1179, 4604, -1, 2, -1, -1728, 874, 15064, 595, 0, 0, 0, 0, 0
434, 23461309, 0, 2687, 0, 0, 0, 0, 0, 0, 0, 603, -1179, 4604, -1, 2, -1, -1702, 886, 15066, 602, 0, 0, 0, 0, 0
435, 23471439, 0, 2687, 0, 0, 0, 0, 0, 0, 0, 603, -1179, 4604, -1, 2, -1, -1710, 882, 15016, 602, 0, 0, 0, 0, 0
436, 23481268, 0, 2687, 0, 0, 0, 0, 0, 0, 0, 603, -1179, 4604, -1, 1, -1, -1710, 880, 15046, 602, 0, 0, 0, 0, 0
437, 23491245, 0, 2687, 0, 0, 0, 0, 0, 0, 0, 603, -1179, 4604, -1, 1, 0, -1712, 884, 15056, 602, 0, 0, 0, 0, 0
438, 23501235, 0, 2687, 0, 0, 0, 0, 0, 0, 0, 604, -1179, 4603, -1, 1, 0, -1702, 894, 15060, 602, 0, 0, 0, 0, 0
439, 23511207, 0, 2687, 0, 0, 0, 0, 0, 0, 0, 604, -1179, 4603, -1, 2, 0, -1692, 892, 15074, 595, 0, 0, 0, 0, 0
440, 23521188, 0, 2687, 0, 0, 0, 0, 0, 0, 0, 604, -1179, 4603, -1, 2, 0, -1688, 898, 15058, 595, 0, 0, 0, 0, 0
441, 23531171, 0, 2687, 0, 0, 0, 0, 0, 0, 0, 604, -1179, 4603, -1, 2, -1, -1692, 886, 15060, 595, 0, 0, 0, 0, 0
442, 23541149, 0, 2687, 0, 0, 0, 0, 0, 0, 0, 604, -1179, 4603, -1, 2, 0, -1676, 892, 15058, 595, 0, 0, 0, 0, 0
443, 23551131, 0, 2687, 0, 0, 0, 0, 0, 0, 0, 604, -1179, 4603, -1, 1, 0, -1688, 862, 15078, 595, 0, 0, 0, 0, 0
444, 23561107, 0, 2687, 0, 0, 0, 0, 0, 0, 0, 604, -1179, 4603, -2, 1, -1, -1678, 862, 15056, 602, 0, 0, 0, 0, 0
445, 23571093, 0, 2687, 0, 0, 0, 0, 0, 0, 0, 604, -1178, 4603, -2, 2, 0, -1690, 854, 15042, 602, 0, 0, 0, 0, 0
446, 23581074, 0, 2687, 0, 0, 0, 0, 0, 0, 0, 603, -1178, 4603, -1, 2, 0, -1688, 878, 15022, 602, 0, 0, 0, 0, 0
447, 23591041, 0, 2687, 0, 0, 0, 0, 0, 0, 0, 603, -1178, 4603, -1, 2, 0, -1710, 874, 15080, 602, 0, 0, 0, 0, 0
448, 23601018, 0, 2687, 0, 0, 0, 0, 0, 0, 0, 604, -1178, 4603, -1, 2, 0, -1722, 874, 15090, 602, 0, 0, 0, 0, 0
449, 23610998, 0, 2687, 0, 0, 0, 0, 0, 0, 0, 604, -1178, 4603, -1, 1, 0, -1738, 874, 15084, 595, 0, 0, 0, 0, 0
450, 23621014, 0, 2687, 0, 0, 0, 0, 0, 0, 0, 604, -1178, 4603, -1, 1, 0, -1720, 882, 15082, 595, 0, 0, 0, 0, 0
451, 23631119, 0, 2687, 0, 0, 0, 0, 0, 0, 0, 604, -1178, 4603, -1, 1, 0, -1718, 888, 15076, 595, 0, 0, 0, 0, 0
452, 23641057, 0, 2687, 0, 0, 0, 0, 0, 0, 0, 604, -1178, 4603, -1, 1, 0, -1740, 898, 15052, 595, 0, 0, 0, 0, 0
453, 23650911, 0, 2687, 0, 0, 0, 0, 0, 0, 0, 604, -1178, 4603, -1, 1, 0, -1736, 922, 15058, 595, 0, 0, 0, 0, 0
454, 23661058, 0, 2687, 0, 0, 0, 0, 0, 0, 0, 605, -1178, 4602, -1, 1, 0, -1728, 932, 15070, 602, 0, 0, 0, 0, 0
455, 23670874, 0, 2687, 0, 0, 0, 0, 0, 0, 0, 605, -1178, 4602, -1, 2, 0, -1738, 924, 15080, 602, 0, 0, 0, 0, 0
456, 23680948, 0, 2687, 0, 0, 0, 0, 0, 0, 0, 605, -1179, 4602, -1, 2, -1, -1728, 904, 15048, 602, 0, 0, 0, 0, 0
457, 23690816, 0, 2687, 0, 0, 0, 0, 0, 0, 0, 605, -1179, 4602, -1, 1, -1, -1736, 890, 15036, 602, 0, 0, 0, 0, 0
458, 23700800, 0, 2687, 0, 0, 0, 0, 0, 0, 0, 605, -1179, 4602, -1, 1, -1, -1740, 882, 15052, 602, 0, 0, 0, 0, 0
459, 23710794, 0, 2687, 0, 0, 0, 0, 0, 0, 0, 605, -1179, 4602, -2, 1, -1, -1724, 878, 15064, 595, 0, 0, 0, 0, 0
460, 23720761, 0, 2687, 0, 0, 0, 0, 0, 0, 0, 605, -1179, 4602, -1, 1, -1, -1726, 892, 15068, 595, 0, 0, 0, 0, 0
461, 23730741, 0, 2687, 0, 0, 0, 0, 0, 0, 0, 605, -1179, 4602, -1, 2, -1, -1720, 882, 15064, 595, 0, 0, 0, 0, 0
462, 23740713, 0, 2687, 0, 0, 0, 0, 0, 0, 0, 605, -1179, 4603, -1, 2, -1, -1692, 868, 15040, 595, 0, 0, 0, 0, 0
463, 23750692, 0, 2687, 0, 0, 0, 0, 0, 0, 0, 605, -1179, 4603, -1, 2, -1, -1702, 870, 15044, 595, 0, 0, 0, 0, 0
464, 23760681, 0, 2687, 0, 0, 0, 0, 0, 0, 0, 605, -1179, 4603, -1, 2, -1, -1680, 862, 15056, 602, 0, 0, 0, 0, 0
465, 23770658, 0, 2687, 0, 0, 0, 0, 0, 0, 0, 605, -1179, 4603, -1, 1, 0, -1692, 844, 15082, 602, 0, 0, 0, 0, 0
466, 23780627, 0, 2687, 0, 0, 0, 0, 0, 0, 0, 605, -1179, 4603, -2, 2, -1, -1710, 832, 15066, 602, 0, 0, 0, 0, 0
467, 23790601, 0, 2687, 0, 0, 0, 0, 0, 0, 0, 605, -1179, 4603, -1, 1, 0, -1694, 848, 15060, 602, 0, 0, 0, 0, 0
468, 23800595, 0, 2687, 0, 0, 0, 0, 0, 0, 0, 605, -1179, 4602, -1, 1, 0, -1704, 874, 15086, 602, 0, 0, 0, 0, 0
469, 23810567, 0, 2687, 0, 0, 0, 0, 0, 0, 0, 605, -1179, 4602, 1, 1, 0, -1684, 924, 15056, 595, 0, 0, 0, 0, 0
470, 23820541, 0, 2687, 0, 0, 0, 0, 0, 0, 0, 605, -1179, 4602, 1, 0, 0, -1684, 936, 15060, 595, 0, 0, 0, 0, 0
471, 23830560, 0, 2687, 0, 0, 0, 0, 0, 0, 0, 606, -1179, 4602, -1, 1, 0, -1664, 944, 15042, 595, 0, 0, 0, 0, 0
472, 23840509, 0, 2687, 0, 0, 0, 0, 0, 0, 0, 606, -1178, 4602, -2, 1, 0, -1688, 932, 15072, 595, 0, 0, 0, 0, 0
473, 23850618, 0, 2687, 0, 0, 0, 0, 0, 0, 0, 606, -1178, 4602, -1, 1, -1, -1712, 906, 15070, 595, 0, 0, 0, 0, 0
474, 23860456, 0, 2687, 0, 0, 0, 0, 0, 0, 0, 606, -1178, 4602, 0, 0, -1, -1726, 886, 15054, 602, 0, 0, 0, 0, 0
475, 23870605, 0, 2687, 0, 0, 0, 0, 0, 0, 0, 606, -1179, 4602, -2, 2, -1, -1750, 868, 15076, 602, 0, 0, 0, 0, 0
476, 23880405, 0, 2687, 0, 0, 0, 0, 0, 0, 0, 606, -1179, 4602, -4, 2, -1, -1728, 842, 15082, 602, 0, 0, 0, 0, 0
477, 23890465, 0, 2687, 0, 0, 0, 0, 0, 0, 0, 605, -1179, 4602, -3, 2, -1, -1732, 800, 15086, 602, 0, 0, 0, 0, 0
478, 23900379, 0, 2687, 0, 0, 0, 0, 0, 0, 0, 605, -1179, 4602, -2, 2, -1, -1710, 786, 15088, 602, 0, 0, 0, 0, 0
479, 23910350, 0, 2687, 0, 0, 0, 0, 0, 0, 0, 604, -1179, 4602, -2, 2, 0, -1714, 802, 15076, 595, 0, 0, 0, 0, 0
480, 23920314, 0, 2687, 0, 0, 0, 0, 0, 0, 0, 604, -1179, 4602, -2, 2, 0, -1712, 802, 15048, 595, 0, 0, 0, 0, 0
481, 23930314, 0, 2687, 0, 0, 0, 0, 0, 0, 0, 603, -1179, 4602, -2, 2, 1, -1714, 798, 15068, 595, 0, 0, 0, 0, 0
482, 23940293, 0, 2687, 0, 0, 0, 0, 0, 0, 0, 603, -1179, 4602, -1, 1, 1, -1706, 838, 15076, 595, 0, 0, 0, 0, 0
483, 23950263, 0, 2687, 0, 0, 0, 0, 0, 0, 0, 603, -1178, 4602, -1, 1, 1, -1708, 864, 15044, 595, 0, 0, 0, 0, 0
484, 23960243, 0, 2687, 0, 0, 0, 0, 0, 0, 0, 603, -1178, 4602, -1, 1, 1, -1722, 908, 15090, 602, 0, 0, 0, 0, 0
485, 23970227, 0, 2687, 0, 0, 0, 0, 0, 0, 0, 603, -1178, 4602, -1, 1, 1, -1706, 950, 15064, 602, 0, 0, 0, 0, 0
486, 23980195, 0, 2687, 0, 0, 0, 0, 0, 0, 0, 604, -1178, 4601, 0, 1, 1, -1710, 984, 15070, 602, 0, 0, 0, 0, 0
487, 23990178, 0, 2687, 0, 0, 0, 0, 0, 0, 0, 605, -1178, 4601, -1, 1, 0, -1688, 990, 15062, 602, 0, 0, 0, 0, 0
488, 24000159, 0, 2687, 0, 0, 0, 0, 0, 0, 0, 605, -1178, 4601, -1, 2, -1, -1706, 994, 15088, 602, 0, 0, 0, 0, 0
489, 24010130, 0, 2687, 0, 0, 0, 0, 0, 0, 0, 606, -1178, 4601, -2, 1, -1, -1702, 976, 15080, 595, 0, 0, 0, 0, 0
490, 24020123, 0, 2687, 0, 0, 0, 0, 0, 0, 0, 606, -1178, 4601, -1, 1, -1, -1706, 948, 15070, 595, 0, 0, 0, 0, 0
491, 24030087, 0, 2687, 0, 0, 0, 0, 0, 0, 0, 607, -1178, 4601, -1, 2, -1, -1714, 938, 15052, 595, 0, 0, 0, 0, 0
492, 24040135, 0, 2687, 0, 0, 0, 0, 0, 0, 0, 607, -1178, 4601, -2, 2, -1, -1722, 918, 15034, 595, 0, 0, 0, 0, 0
493, 24050057, 0, 2687, 0, 0, 0, 0, 0, 0, 0, 607, -1178, 4601, -2, 2, -1, -1722, 918, 15048, 595, 0, 0, 0, 0, 0
494, 24060171, 0, 2687, 0, 0, 0, 0, 0, 0, 0, 607, -1178, 4601, -3, 2, -1, -1716, 878, 15042, 602, 0, 0, 0, 0, 0
495, 24070009, 0, 2687, 0, 0, 0, 0, 0, 0, 0, 606, -1178, 4601, -2, 2, -1, -1704, 848, 15082, 602, 0, 0, 0, 0, 0
496, 24080145, 0, 2687, 0, 0, 0, 0, 0, 0, 0, 606, -1178, 4601, -3, 2, -1, -1712, 830, 15064, 602, 0, 0, 0, 0, 0
497, 24089969, 0, 2687, 0, 0, 0, 0, 0, 0, 0, 606, -1178, 4601, -3, 1, -1, -1720, 798, 15076, 602, 0, 0, 0, 0, 0
498, 24099987, 0, 2687, 0, 0, 0, 0, 0, 0, 0, 605, -1178, 4601, -3, 1, -1, -1718, 778, 15080, 602, 0, 0, 0, 0, 0
499, 24109921, 0, 2687, 0, 0, 0, 0, 0, 0, 0, 604, -1178, 4601, -1, 1, 0, -1694, 798, 15060, 595, 0, 0, 0, 0, 0
500, 24119916, 0, 2687, 0, 0, 0, 0, 0, 0, 0, 604, -1178, 4601, -1, 1, 0, -1706, 820, 15058, 595, 0, 0, 0, 0, 0
501, 24129879, 0, 2687, 0, 0, 0, 0, 0, 0, 0, 604, -1178, 4601, -1, 1, 0, -1706, 838, 15070, 595, 0, 0, 0, 0, 0
502, 24139865, 0, 2687, 0, 0, 0, 0, 0, 0, 0, 604, -1178, 4601, -1, 1, 0, -1710, 848, 15076, 595, 0, 0, 0, 0, 0
503, 24149839, 0, 2687, 0, 0, 0, 0, 0, 0, 0, 604, -1178, 4601, 0, 1, 0, -1700, 894, 15078, 595, 0, 0, 0, 0, 0
504, 24159810, 0, 2687, 0, 0, 0, 0, 0, 0, 0, 605, -1178, 4601, 0, 1, 0, -1700, 924, 15070, 602, 0, 0, 0, 0, 0
505, 24169792, 0, 2687, 0, 0, 0, 0, 0, 0, 0, 605, -1178, 4601, -1, 1, 0, -1698, 960, 15062, 602, 0, 0, 0, 0, 0
506, 24179780, 0, 2687, 0, 0, 0, 0, 0, 0, 0, 605, -1178, 4601, -1, 1, 0, -1682, 950, 15096, 602, 0, 0, 0, 0, 0
507, 24189752, 0, 2687, 0, 0, 0, 0, 0, 0, 0, 606, -1177, 4601, -1, 1, 0, -1678, 952, 15090, 602, 0, 0, 0, 0, 0
508, 24199723, 0, 2687, 0, 0, 0, 0, 0, 0, 0, 606, -1177, 4601, -1, 1, -1, -1698, 950, 15070, 602, 0, 0, 0, 0, 0
509, 24209700, 0, 2687, 0, 0, 0, 0, 0, 0, 0, 607, -1177, 4601, -1, 2, -1, -1716, 934, 15062, 595, 0, 0, 0, 0, 0
510, 24219668, 0, 2687, 0, 0, 0, 0, 0, 0, 0, 607, -1177, 4601, -2, 2, -1, -1722, 902, 15054, 595, 0, 0, 0, 0, 0
511, 24229686, 0, 2687, 0, 0, 0, 0, 0, 0, 0, 607, -1177, 4601, -2, 2, -1, -1716, 888, 15038, 595, 0, 0, 0, 0, 0
512, 24239782, 0, 2687, 0, 0, 0, 0, 0, 0, 0, 607, -1177, 4601, -2, 2, -1, -1758, 892, 15050, 595, 0, 0, 0, 0, 0
513, 24249710, 0, 2687, 0, 0, 0, 0, 0, 0, 0, 607, -1178, 4601, -2, 2, 0, -1766, 866, 15088, 595, 0, 0, 0, 0, 0
514, 24259581, 0, 2687, 0, 0, 0, 0, 0, 0, 0, 606, -1178, 4601, -2, 1, -1, -1766, 856, 15072, 602, 0, 0, 0, 0, 0
515, 24269718, 0, 2687, 0, 0, 0, 0, 0, 0, 0, 606, -1178, 4601, -1, 2, -1, -1776, 870, 15074, 602, 0, 0, 0, 0, 0
516, 24279525, 0, 2687, 0, 0, 0, 0, 0, 0, 0, 606, -1178, 4601, -2, 2, -1, -1744, 854, 15082, 602, 0, 0, 0, 0, 0
517, 24289662, 0, 2687, 0, 0, 0, 0, 0, 0, 0, 606, -1179, 4601, -1, 2, -1, -1736, 840, 15066, 602, 0, 0, 0, 0, 0
518, 24299493, 0, 2498, 0, 0, 0, 0, 0, 0, 0, 606, -1179, 4601, -1, 2, 0, -1720, 836, 15076, 602, 0, 0, 0, 0, 0
519, 24309477, 0, 2498, 0, 0, 0, 0, 0, 0, 0, 606, -1179, 4601, -1, 1, 0, -1708, 848, 15068, 595, 0, 0, 0, 0, 0
