index_log, time_stamp, mode, thrust, roll, pitch, yaw, ae[0], ae[1], ae[2], ae[3], phi, theta, psi, sp, sq, sr, sax, say, saz, bat_volt, P, P1, P2, temperature, pressure
0, 26802553, 5, 2687, 0, 0, 0, 335, 335, 335, 335, 0, 0, 4030, -39, 31, 37, -1480, 544, 15040, 595, 0, 0, 0, 0, 0
1, 26806381, 5, 2687, 0, 0, 0, 335, 335, 335, 335, 0, 0, 4030, -45, 30, 33, -1392, 616, 15000, 595, 0, 0, 0, 0, 0
2, 26810253, 5, 2687, 0, 0, 0, 335, 335, 335, 335, 0, 0, 4030, -46, 36, 35, -1480, 512, 14924, 595, 0, 0, 0, 0, 0
3, 26814113, 5, 2687, 0, 0, 0, 335, 335, 335, 335, 0, 0, 4030, -41, 29, 33, -1536, 492, 15364, 595, 0, 0, 0, 0, 0
4, 26817983, 5, 2687, 0, 0, 0, 335, 335, 335, 335, 0, 0, 4030, -44, 23, 32, -1532, 504, 15032, 595, 0, 0, 0, 0, 0
5, 26821856, 5, 2687, 0, 0, 0, 335, 335, 335, 335, 0, 0, 4030, -44, 25, 33, -1236, 388, 14596, 595, 0, 0, 0, 0, 0
6, 26825767, 5, 2687, 0, 0, 0, 335, 335, 335, 335, 0, 0, 4030, -42, 47, 33, -1424, 532, 14908, 595, 0, 0, 0, 0, 0
7, 26829579, 5, 2687, 0, 0, 0, 335, 335, 335, 335, 0, 0, 4030, -46, 31, 35, -1616, 528, 15180, 595, 0, 0, 0, 0, 0
8, 26833461, 5, 2687, 0, 0, 0, 335, 335, 335, 335, 0, 0, 4030, -43, 17, 33, -1424, 564, 14788, 595, 0, 0, 0, 0, 0
9, 26837319, 5, 2687, 0, 0, 0, 335, 335, 335, 335, 0, 0, 4030, -43, 30, 33, -1424, 508, 15008, 595, 0, 0, 0, 0, 0
10, 26841187, 5, 2687, 0, 0, 0, 335, 335, 335, 335, 0, 0, 4030, -44, 41, 33, -1424, 544, 15040, 595, 0, 0, 0, 0, 0
11, 26845048, 5, 2687, 0, 0, 0, 335, 335, 335, 335, 0, 0, 4030, -42, 33, 32, -1456, 464, 15168, 595, 0, 0, 0, 0, 0
12, 26848922, 5, 2687, 0, 0, 0, 335, 335, 335, 335, 0, 0, 4030, -44, 22, 32, -1324, 572, 15108, 595, 0, 0, 0, 0, 0
13, 26852842, 5, 2687, 0, 0, 0, 335, 335, 335, 335, 0, 0, 4030, -45, 27, 34, -1508, 452, 14764, 595, 0, 0, 0, 0, 0
14, 26856700, 5, 2687, 0, 0, 0, 335, 335, 335, 335, 0, 0, 4030, -43, 34, 34, -1448, 492, 14928, 595, 0, 0, 0, 0, 0
15, 26860521, 5, 2687, 0, 0, 0, 335, 335, 335, 335, 0, 0, 4030, -45, 32, 32, -1516, 364, 15136, 595, 0, 0, 0, 0, 0
16, 26864393, 5, 2687, 0, 0, 0, 335, 335, 335, 335, 0, 0, 4030, -43, 27, 34, -1452, 504, 14904, 595, 0, 0, 0, 0, 0
17, 26868255, 5, 2687, 0, 0, 0, 335, 335, 335, 335, 0, 0, 4030, -42, 30, 33, -1368, 472, 15044, 595, 0, 0, 0, 0, 0
18, 26872128, 5, 2687, 0, 0, 0, 335, 335, 335, 335, 0, 0, 4030, -41, 40, 31, -1520, 524, 15076, 595, 0, 0, 0, 0, 0
19, 26875995, 5, 2687, 0, 0, 0, 335, 335, 335, 335, 0, 0, 4030, -42, 31, 32, -1428, 508, 15128, 595, 0, 0, 0, 0, 0
20, 26879867, 5, 2687, 0, 0, 0, 335, 335, 335, 335, 0, 0, 4030, -40, 29, 32, -1408, 496, 15040, 595, 0, 0, 0, 0, 0
21, 26883720, 5, 2687, 0, 0, 0, 335, 335, 335, 335, 0, 0, 4030, -34, 37, 26, -1468, 480, 15184, 595, 0, 0, 0, 0, 0
22, 26887640, 5, 2687, 0, 0, 0, 335, 335, 335, 335, 0, 0, 4030, -43, 26, 35, -1428, 588, 14928, 595, 0, 0, 0, 0, 0
23, 26891452, 5, 2687, 0, 0, 0, 335, 335, 335, 335, 0, 0, 4030, -38, 45, 32, -1524, 460, 15140, 595, 0, 0, 0, 0, 0
24, 26895324, 5, 2687, 0, 0, 0, 335, 335, 335, 335, 0, 0, 4030, -38, 23, 34, -1420, 484, 15012, 595, 0, 0, 0, 0, 0
25, 26899187, 5, 2687, 0, 0, 0, 335, 335, 335, 335, 0, 0, 4030, -34, 19, 32, -1188, 452, 14708, 595, 0, 0, 0, 0, 0
26, 26903134, 5, 2687, 0, 0, 0, 335, 335, 335, 335, 0, 0, 4030, -37, 39, 32, -1472, 524, 15116, 595, 0, 0, 0, 0, 0
27, 26906923, 5, 2687, 0, 0, 0, 335, 335, 335, 335, 0, 0, 4030, -40, 36, 33, -1516, 464, 15156, 595, 0, 0, 0, 0, 0
28, 26910785, 5, 2687, 0, 0, 0, 335, 335, 335, 335, 0, 0, 4030, -39, 25, 32, -1480, 480, 15068, 595, 0, 0, 0, 0, 0
29, 26914654, 5, 2687, 0, 0, 0, 335, 335, 335, 335, 0, 0, 4030, -38, 33, 32, -1492, 552, 14956, 595, 0, 0, 0, 0, 0
30, 26918573, 5, 2687, 0, 0, 0, 335, 335, 335, 335, 0, 0, 4030, -39, 37, 32, -1536, 568, 15120, 595, 0, 0, 0, 0, 0
31, 26922393, 5, 2687, 0, 0, 0, 335, 335, 335, 335, 0, 0, 4030, -42, 24, 35, -1536, 564, 15104, 595, 0, 0, 0, 0, 0
32, 26926262, 5, 2687, 0, 0, 0, 335, 335, 335, 335, 0, 0, 4030, -31, 26, 28, -1532, 496, 15020, 595, 0, 0, 0, 0, 0
33, 26930121, 5, 2687, 0, 0, 0, 335, 335, 335, 335, 0, 0, 4030, -16, 28, 31, -1500, 252, 15240, 595, 0, 0, 0, 0, 0
34, 26933996, 5, 2687, 0, 0, 0, 335, 335, 335, 335, 0, 0, 4030, 13, 30, 25, -1564, 240, 15292, 595, 0, 0, 0, 0, 0
35, 26937853, 5, 2687, 0, 0, 0, 335, 335, 335, 335, 0, 0, 4030, 38, 29, 26, -1440, 256, 15196, 595, 0, 0, 0, 0, 0
36, 26941723, 5, 2687, 0, 0, 0, 335, 335, 335, 335, 0, 0, 4030, 52, 32, 25, -1568, 444, 15160, 595, 0, 0, 0, 0, 0
37, 26945593, 5, 2687, 0, 0, 0, 335, 335, 335, 335, 0, 0, 4030, 56, 28, 23, -1556, 404, 15176, 595, 0, 0, 0, 0, 0
38, 26949500, 5, 2687, 0, 0, 0, 335, 335, 335, 335, 0, 0, 4030, 68, 24, 24, -1524, 284, 15088, 595, 0, 0, 0, 0, 0
39, 26953365, 5, 2687, 0, 0, 0, 335, 335, 335, 335, 0, 0, 4030, 83, 27, 20, -1440, 384, 15232, 595, 0, 0, 0, 0, 0
40, 26957186, 5, 2687, 0, 0, 0, 335, 335, 335, 335, 0, 0, 4030, 107, 20, 5, -1756, 492, 15236, 595, 0, 0, 0, 0, 0
41, 26961069, 5, 2687, 0, 0, 0, 335, 335, 335, 335, 0, 0, 4030, 134, 40, -20, -1472, 484, 15088, 595, 0, 0, 0, 0, 0
42, 26964923, 5, 2687, 0, 0, 0, 335, 335, 335, 335, 0, 0, 4030, 134, 58, -24, -1676, 676, 15552, 595, 0, 0, 0, 0, 0
43, 26968793, 5, 2687, 0, 0, 0, 335, 335, 335, 335, 0, 0, 4030, 138, 39, -46, -1900, 696, 15364, 595, 0, 0, 0, 0, 0
44, 26972662, 5, 2687, 0, 0, 0, 335, 335, 335, 335, 0, 0, 4030, 132, 37, -110, -2208, 552, 15080, 595, 0, 0, 0, 0, 0
45, 26976519, 5, 2687, 0, 0, 0, 335, 335, 335, 335, 0, 0, 4030, 26, 16, -258, -3228, -908, 13256, 595, 0, 0, 0, 0, 0
46, 26980439, 5, 2687, 0, 0, 0, 335, 335, 335, 335, 0, 0, 4030, -93, 34, -399, -2984, -300, 13968, 595, 0, 0, 0, 0, 0
47, 26984259, 5, 2687, 0, 0, 0, 335, 335, 335, 335, 0, 0, 4030, -193, 30, -538, -3232, 24, 14612, 595, 0, 0, 0, 0, 0
48, 26988121, 5, 2687, 0, 0, 0, 335, 335, 335, 335, 0, 0, 4030, -258, 17, -620, -2128, 336, 14304, 595, 0, 0, 0, 0, 0
49, 26991992, 5, 2687, 0, 0, 0, 335, 335, 335, 335, 0, 0, 4030, -330, -15, -696, -1928, 1120, 14112, 595, 0, 0, 0, 0, 0
50, 26995864, 5, 2687, 0, 0, 0, 335, 335, 335, 335, 0, 0, 4030, -359, 2, -706, -2060, 1048, 13596, 595, 0, 0, 0, 0, 0
51, 26999735, 5, 2687, 0, 0, 0, 335, 335, 335, 335, 0, 0, 4030, -243, 97, -571, -160, 2140, 16340, 595, 0, 0, 0, 0, 0
52, 27003661, 5, 2687, 0, 0, 0, 335, 335, 335, 335, 0, 0, 4030, -242, 71, -498, -1488, 892, 16160, 595, 0, 0, 0, 0, 0
53, 27007460, 5, 2687, 0, 0, 0, 335, 335, 335, 335, 0, 0, 4030, -219, 14, -431, -656, 2136, 15884, 595, 0, 0, 0, 0, 0
54, 27011370, 5, 2687, 0, 0, 0, 335, 335, 335, 335, 0, 0, 4030, -200, 1, -323, 436, 1880, 14872, 595, 0, 0, 0, 0, 0
55, 27015192, 5, 2687, 0, 0, 0, 335, 335, 335, 335, 0, 0, 4030, -215, 21, -204, 340, 1040, 14104, 595, 0, 0, 0, 0, 0
56, 27019066, 5, 2687, 0, 0, 0, 335, 335, 335, 335, 0, 0, 4030, -98, -64, -96, 780, -88, 15892, 595, 0, 0, 0, 0, 0
57, 27022926, 5, 2687, 0, 0, 0, 335, 335, 335, 335, 0, 0, 4030, -64, 82, -9, 464, 20, 12312, 595, 0, 0, 0, 0, 0
58, 27026791, 5, 2687, 0, 0, 0, 335, 335, 335, 335, 0, 0, 4030, -50, 326, 60, -4232, 588, 20928, 595, 0, 0, 0, 0, 0
59, 27030662, 5, 2687, 0, 0, 0, 335, 335, 335, 335, 0, 0, 4030, -46, -10, 44, -2644, 696, 18220, 595, 0, 0, 0, 0, 0
60, 27034525, 5, 2687, 0, 0, 0, 335, 335, 335, 335, 0, 0, 4030, -44, -98, 42, -240, 392, 12948, 595, 0, 0, 0, 0, 0
61, 27038393, 5, 2687, 0, 0, 0, 335, 335, 335, 335, 0, 0, 4030, -42, 90, 81, -1492, 144, 13548, 595, 0, 0, 0, 0, 0
62, 27042312, 5, 2687, 0, 0, 0, 335, 335, 335, 335, 0, 0, 4030, -29, 139, 174, -3628, 120, 17084, 595, 0, 0, 0, 0, 0
63, 27046130, 5, 2687, 0, 0, 0, 335, 335, 335, 335, 0, 0, 4030, -29, -28, 255, -3980, 564, 16840, 595, 0, 0, 0, 0, 0
64, 27050001, 5, 2687, 0, 0, 0, 335, 335, 335, 335, 0, 0, 4030, -20, -60, 321, -1620, 428, 12836, 595, 0, 0, 0, 0, 0
65, 27053921, 5, 2687, 0, 0, 0, 335, 335, 335, 335, 0, 0, 4030, -22, 65, 375, -1836, 204, 14640, 602, 0, 0, 0, 0, 0
66, 27057737, 5, 2687, 0, 0, 0, 335, 335, 335, 335, 0, 0, 4030, -15, 104, 427, -2260, 284, 16840, 602, 0, 0, 0, 0, 0
67, 27061591, 5, 2687, 0, 0, 0, 335, 335, 335, 335, 0, 0, 4030, -22, -33, 446, -644, 680, 15660, 602, 0, 0, 0, 0, 0
68, 27065463, 5, 2687, 0, 0, 0, 335, 335, 335, 335, 0, 0, 4030, 2, -1, 436, 36, 568, 13284, 602, 0, 0, 0, 0, 0
69, 27069332, 5, 2687, 0, 0, 0, 335, 335, 335, 335, 0, 0, 4030, 6, 50, 498, -556, 1132, 15040, 602, 0, 0, 0, 0, 0
70, 27073242, 5, 2687, 0, 0, 0, 335, 335, 335, 335, 0, 0, 4030, 21, 106, 495, -1412, 820, 16108, 602, 0, 0, 0, 0, 0
71, 27077064, 5, 2687, 0, 0, 0, 335, 335, 335, 335, 0, 0, 4030, -5, -1, 476, -1456, 896, 16424, 602, 0, 0, 0, 0, 0
72, 27080937, 5, 2687, 0, 0, 0, 335, 335, 335, 335, 0, 0, 4030, -17, -34, 487, 0, 632, 13204, 602, 0, 0, 0, 0, 0
73, 27084789, 5, 2687, 0, 0, 0, 335, 335, 335, 335, 0, 0, 4030, -39, 66, 474, -152, 52, 14540, 602, 0, 0, 0, 0, 0
74, 27088659, 5, 2687, 0, 0, 0, 335, 335, 335, 335, 0, 0, 4030, -27, 103, 471, -2032, 132, 17428, 602, 0, 0, 0, 0, 0
75, 27092528, 5, 2687, 0, 0, 0, 335, 335, 335, 335, 0, 0, 4030, 46, -5, 509, -1316, 736, 15884, 602, 0, 0, 0, 0, 0
76, 27096389, 5, 2687, 0, 0, 0, 335, 335, 335, 335, 0, 0, 4030, 73, -6, 578, -168, 436, 13576, 602, 0, 0, 0, 0, 0
77, 27100594, 5, 2687, 0, 0, 0, 335, 335, 335, 335, 0, 0, 4030, 40, 59, 594, -744, 128, 14096, 595, 0, 0, 0, 0, 0
78, 27104175, 5, 2687, 0, 0, 0, 335, 335, 335, 335, 0, 0, 4030, 1, 55, 636, -1080, -336, 15320, 595, 0, 0, 0, 0, 0
79, 27107993, 5, 2687, 0, 0, 0, 335, 335, 335, 335, 0, 0, 4030, -31, 8, 663, -1556, -296, 15544, 595, 0, 0, 0, 0, 0
80, 27111865, 5, 2687, 0, 0, 0, 335, 335, 335, 335, 0, 0, 4030, -46, -3, 693, -836, -604, 14228, 595, 0, 0, 0, 0, 0
81, 27115723, 5, 2687, 0, 0, 0, 335, 335, 335, 335, 0, 0, 4030, 6, 3, 596, -1552, 260, 15384, 595, 0, 0, 0, 0, 0
82, 27119604, 5, 2687, 0, 0, 0, 335, 335, 335, 335, 0, 0, 4030, 81, 71, 509, -2760, 1236, 15592, 595, 0, 0, 0, 0, 0
83, 27123476, 5, 2687, 0, 0, 0, 335, 335, 335, 335, 0, 0, 4030, 149, 102, 450, -3004, 764, 17036, 595, 0, 0, 0, 0, 0
84, 27127337, 5, 2687, 0, 0, 0, 335, 335, 335, 335, 0, 0, 4030, 170, 6, 403, -2476, 704, 15888, 595, 0, 0, 0, 0, 0
85, 27131208, 5, 2687, 0, 0, 0, 335, 335, 335, 335, 0, 0, 4030, 161, 12, 371, -1972, 436, 14084, 595, 0, 0, 0, 0, 0
86, 27135106, 5, 2687, 0, 0, 0, 335, 335, 335, 335, 0, 0, 4030, 143, 59, 359, -2656, 460, 15268, 595, 0, 0, 0, 0, 0
87, 27138937, 5, 2687, 0, 0, 0, 335, 335, 335, 335, 0, 0, 4030, 128, 37, 360, -3188, 604, 15496, 595, 0, 0, 0, 0, 0
88, 27142797, 5, 2687, 0, 0, 0, 335, 335, 335, 335, 0, 0, 4030, 121, 1, 327, -2356, 264, 14188, 595, 0, 0, 0, 0, 0
89, 27146659, 5, 2687, 0, 0, 0, 335, 335, 335, 335, 0, 0, 4030, 143, 60, 304, -2576, 1028, 14664, 595, 0, 0, 0, 0, 0
90, 27150605, 5, 2687, 0, 0, 0, 335, 335, 335, 335, 0, 0, 4030, 172, 77, 247, -2740, 408, 16320, 595, 0, 0, 0, 0, 0
91, 27154398, 5, 2687, 0, 0, 0, 335, 335, 335, 335, 0, 0, 4030, 233, 42, 183, -2976, 1060, 16100, 595, 0, 0, 0, 0, 0
92, 27158260, 5, 2687, 0, 0, 0, 335, 335, 335, 335, 0, 0, 4030, 291, 44, 111, -2620, 1352, 15492, 595, 0, 0, 0, 0, 0
93, 27162140, 5, 2687, 0, 0, 0, 335, 335, 335, 335, 0, 0, 4030, 356, 47, 52, -1588, 1092, 15040, 595, 0, 0, 0, 0, 0
94, 27166045, 5, 2687, 0, 0, 0, 335, 335, 335, 335, 0, 0, 4030, 370, 86, 9, -2080, 2008, 15252, 595, 0, 0, 0, 0, 0
95, 27169867, 5, 2687, 0, 0, 0, 335, 335, 335, 335, 0, 0, 4030, 367, 65, -26, -728, 1916, 15220, 595, 0, 0, 0, 0, 0
96, 27173736, 5, 2687, 0, 0, 0, 335, 335, 335, 335, 0, 0, 4030, 351, 41, -23, -824, 1976, 15068, 595, 0, 0, 0, 0, 0
97, 27177607, 5, 2687, 0, 0, 0, 335, 335, 335, 335, 0, 0, 4030, 296, 8, 25, 880, 2844, 13996, 595, 0, 0, 0, 0, 0
98, 27181464, 5, 2687, 0, 0, 0, 335, 335, 335, 335, 0, 0, 4030, 193, -33, 129, 2640, 3872, 12468, 595, 0, 0, 0, 0, 0
99, 27185328, 5, 2687, 0, 0, 0, 335, 335, 335, 335, 0, 0, 4030, 109, 59, 229, 2472, 2244, 14876, 595, 0, 0, 0, 0, 0
100, 27189202, 5, 2687, 0, 0, 0, 335, 335, 335, 335, 0, 0, 4030, 99, -43, 331, 1592, -20, 17476, 595, 0, 0, 0, 0, 0
101, 27193064, 5, 2687, 0, 0, 0, 335, 335, 335, 335, 0, 0, 4030, 137, -142, 469, 1156, -1728, 18556, 595, 0, 0, 0, 0, 0
102, 27196977, 5, 2687, 0, 0, 0, 335, 335, 335, 335, 0, 0, 4030, 308, -385, 542, 780, -1296, 17776, 595, 0, 0, 0, 0, 0
103, 27200825, 5, 2687, 0, 0, 0, 335, 335, 335, 335, 0, 0, 4030, 429, -397, 668, 1108, -1792, 16040, 602, 0, 0, 0, 0, 0
104, 27204670, 5, 2687, 0, 0, 0, 335, 335, 335, 335, 0, 0, 4030, 590, -397, 777, -900, -1988, 19260, 602, 0, 0, 0, 0, 0
105, 27208522, 5, 2687, 0, 0, 0, 335, 335, 335, 335, 0, 0, 4030, 715, -490, 866, -1572, -1896, 19416, 602, 0, 0, 0, 0, 0
106, 27212394, 5, 2687, 0, 0, 0, 335, 335, 335, 335, 0, 0, 4030, 780, -709, 949, -300, -100, 16484, 602, 0, 0, 0, 0, 0
107, 27216264, 5, 2687, 0, 0, 0, 335, 335, 335, 335, 0, 0, 4030, 804, -717, 1040, 348, 496, 14580, 602, 0, 0, 0, 0, 0
108, 27220128, 5, 2687, 0, 0, 0, 335, 335, 335, 335, 0, 0, 4030, 805, -514, 1134, -268, 668, 16272, 602, 0, 0, 0, 0, 0
109, 27223996, 5, 2687, 0, 0, 0, 335, 335, 335, 335, 0, 0, 4030, 824, -402, 1225, -1284, 532, 19072, 602, 0, 0, 0, 0, 0
110, 27227904, 5, 2687, 0, 0, 0, 335, 335, 335, 335, 0, 0, 4030, 861, -455, 1306, -1332, 500, 19452, 602, 0, 0, 0, 0, 0
111, 27231725, 5, 2687, 0, 0, 0, 335, 335, 335, 335, 0, 0, 4030, 912, -484, 1417, -496, 88, 17624, 602, 0, 0, 0, 0, 0
112, 27235596, 5, 2687, 0, 0, 0, 335, 335, 335, 335, 0, 0, 4030, 979, -435, 1507, -252, -8, 17148, 602, 0, 0, 0, 0, 0
113, 27239459, 5, 2687, 0, 0, 0, 335, 335, 335, 335, 0, 0, 4030, 1050, -420, 1573, -1112, -212, 19140, 602, 0, 0, 0, 0, 0
114, 27243328, 5, 2687, 0, 0, 0, 335, 335, 335, 335, 0, 0, 4030, 1123, -531, 1635, -1628, -228, 19328, 602, 0, 0, 0, 0, 0
115, 27247203, 5, 2687, 0, 0, 0, 335, 335, 335, 335, 0, 0, 4030, 1184, -653, 1641, -1144, 168, 17648, 602, 0, 0, 0, 0, 0
116, 27251162, 5, 2687, 0, 0, 0, 335, 335, 335, 335, 0, 0, 4030, 1233, -651, 1659, -1096, 892, 16496, 595, 0, 0, 0, 0, 0
117, 27254924, 5, 2687, 0, 0, 0, 335, 335, 335, 335, 0, 0, 4030, 1271, -546, 1654, -1748, 1516, 17044, 595, 0, 0, 0, 0, 0
118, 27258845, 5, 2687, 0, 0, 0, 335, 335, 335, 335, 0, 0, 4030, 1325, -439, 1624, -2700, 2280, 18204, 595, 0, 0, 0, 0, 0
119, 27262669, 5, 2687, 0, 0, 0, 335, 335, 335, 335, 0, 0, 4030, 1389, -358, 1541, -3080, 2512, 18452, 595, 0, 0, 0, 0, 0
120, 27266529, 5, 2687, 0, 0, 0, 335, 335, 335, 335, 0, 0, 4030, 1463, -191, 1436, -2376, 2412, 16456, 595, 0, 0, 0, 0, 0
121, 27270400, 5, 2687, 0, 0, 0, 335, 335, 335, 335, 0, 0, 4030, 1536, 84, 1342, -2848, 2100, 16344, 595, 0, 0, 0, 0, 0
122, 27274262, 5, 2687, 0, 0, 0, 335, 335, 335, 335, 0, 0, 4030, 1590, 373, 1258, -3612, 1864, 17060, 595, 0, 0, 0, 0, 0
123, 27278133, 5, 2687, 0, 0, 0, 335, 335, 335, 335, 0, 0, 4030, 1628, 552, 1162, -3700, 2308, 16952, 595, 0, 0, 0, 0, 0
124, 27281995, 5, 2687, 0, 0, 0, 335, 335, 335, 335, 0, 0, 4030, 1659, 634, 1071, -3336, 2748, 15996, 595, 0, 0, 0, 0, 0
125, 27285868, 5, 2687, 0, 0, 0, 335, 335, 335, 335, 0, 0, 4030, 1684, 682, 993, -2708, 3124, 14856, 595, 0, 0, 0, 0, 0
126, 27289785, 5, 2687, 0, 0, 0, 335, 335, 335, 335, 0, 0, 4030, 1697, 684, 922, -2720, 3292, 14648, 595, 0, 0, 0, 0, 0
127, 27293600, 5, 2687, 0, 0, 0, 335, 335, 335, 335, 0, 0, 4030, 1707, 572, 849, -3168, 3308, 15560, 595, 0, 0, 0, 0, 0
128, 27297464, 5, 2687, 0, 0, 0, 335, 335, 335, 335, 0, 0, 4030, 1712, 358, 771, -3224, 3256, 15464, 595, 0, 0, 0, 0, 0
129, 27301439, 5, 2687, 0, 0, 0, 335, 335, 335, 335, 0, 0, 4030, 1721, 130, 695, -3164, 3472, 14696, 595, 0, 0, 0, 0, 0
130, 27305194, 5, 2687, 0, 0, 0, 335, 335, 335, 335, 0, 0, 4030, 1717, -34, 615, -3448, 3844, 14904, 595, 0, 0, 0, 0, 0
131, 27309078, 5, 2687, 0, 0, 0, 335, 335, 335, 335, 0, 0, 4030, 1721, -142, 534, -4080, 3868, 15948, 595, 0, 0, 0, 0, 0
132, 27312934, 5, 2687, 0, 0, 0, 335, 335, 335, 335, 0, 0, 4030, 1673, -199, 427, -4844, 4172, 16592, 595, 0, 0, 0, 0, 0
133, 27316798, 5, 2687, 0, 0, 0, 335, 335, 335, 335, 0, 0, 4030, 1701, -279, 335, -4780, 4016, 17184, 595, 0, 0, 0, 0, 0
134, 27320710, 5, 2687, 0, 0, 0, 335, 335, 335, 335, 0, 0, 4030, 1716, -312, 239, -4860, 3688, 16840, 595, 0, 0, 0, 0, 0
135, 27324534, 5, 2687, 0, 0, 0, 335, 335, 335, 335, 0, 0, 4030, 1714, -224, 155, -4924, 3528, 16532, 595, 0, 0, 0, 0, 0
136, 27328401, 5, 2687, 0, 0, 0, 335, 335, 335, 335, 0, 0, 4030, 1693, -68, 87, -5680, 3216, 17592, 595, 0, 0, 0, 0, 0
137, 27332265, 5, 2687, 0, 0, 0, 335, 335, 335, 335, 0, 0, 4030, 1657, 127, 37, -5736, 2756, 17400, 595, 0, 0, 0, 0, 0
138, 27336129, 5, 2687, 0, 0, 0, 335, 335, 335, 335, 0, 0, 4030, 1618, 357, -8, -5552, 2372, 17032, 595, 0, 0, 0, 0, 0
139, 27340005, 5, 2687, 0, 0, 0, 335, 335, 335, 335, 0, 0, 4030, 1595, 640, -40, -5148, 1948, 17096, 595, 0, 0, 0, 0, 0
140, 27343867, 5, 2687, 0, 0, 0, 335, 335, 335, 335, 0, 0, 4030, 1631, 918, -54, -5076, 2112, 17488, 595, 0, 0, 0, 0, 0
141, 27347739, 5, 2687, 0, 0, 0, 335, 335, 335, 335, 0, 0, 4030, 1677, 1150, -64, -4756, 2060, 17956, 595, 0, 0, 0, 0, 0
142, 27351693, 5, 2687, 0, 0, 0, 335, 335, 335, 335, 0, 0, 4030, 1735, 1302, -65, -4020, 2272, 18008, 595, 0, 0, 0, 0, 0
143, 27355462, 5, 2687, 0, 0, 0, 335, 335, 335, 335, 0, 0, 4030, 1807, 1358, -55, -2784, 2784, 17276, 595, 0, 0, 0, 0, 0
144, 27359333, 5, 2687, 0, 0, 0, 335, 335, 335, 335, 0, 0, 4030, 1896, 1333, -20, -1848, 3276, 16828, 595, 0, 0, 0, 0, 0
145, 27363195, 5, 2687, 0, 0, 0, 335, 335, 335, 335, 0, 0, 4030, 2012, 1245, 10, -1256, 3532, 16696, 595, 0, 0, 0, 0, 0
146, 27367069, 5, 2687, 0, 0, 0, 335, 335, 335, 335, 0, 0, 4030, 2139, 1087, 51, -532, 3696, 16288, 595, 0, 0, 0, 0, 0
147, 27370941, 5, 2687, 0, 0, 0, 335, 335, 335, 335, 0, 0, 4030, 2260, 884, 99, 128, 3592, 15488, 595, 0, 0, 0, 0, 0
148, 27374796, 5, 2687, 0, 0, 0, 335, 335, 335, 335, 0, 0, 4030, 2361, 696, 177, 500, 3468, 14564, 595, 0, 0, 0, 0, 0
149, 27378679, 5, 2687, 0, 0, 0, 335, 335, 335, 335, 0, 0, 4030, 2444, 548, 233, 888, 3980, 14032, 595, 0, 0, 0, 0, 0
150, 27382584, 5, 2687, 0, 0, 0, 335, 335, 335, 335, 0, 0, 4030, 2505, 442, 313, 612, 3888, 13860, 595, 0, 0, 0, 0, 0
151, 27386406, 5, 2687, 0, 0, 0, 335, 335, 335, 335, 0, 0, 4030, 2536, 343, 390, 196, 3732, 13888, 595, 0, 0, 0, 0, 0
152, 27390266, 5, 2687, 0, 0, 0, 335, 335, 335, 335, 0, 0, 4030, 2530, 231, 465, 148, 3776, 12916, 595, 0, 0, 0, 0, 0
153, 27394128, 5, 2687, 0, 0, 0, 335, 335, 335, 335, 0, 0, 4030, 2540, 131, 529, 228, 4392, 12608, 595, 0, 0, 0, 0, 0
154, 27398002, 5, 2687, 0, 0, 0, 335, 335, 335, 335, 0, 0, 4030, 2543, 85, 564, -252, 5364, 13124, 595, 0, 0, 0, 0, 0
155, 27401919, 5, 2687, 0, 0, 0, 335, 335, 335, 335, 0, 0, 4030, 2570, 38, 574, -816, 6256, 13468, 595, 0, 0, 0, 0, 0
156, 27405738, 5, 2687, 0, 0, 0, 335, 335, 335, 335, 0, 0, 4030, 2582, 22, 540, -1224, 6564, 13532, 595, 0, 0, 0, 0, 0
157, 27409607, 5, 2687, 0, 0, 0, 335, 335, 335, 335, 0, 0, 4030, 2572, 78, 491, -1736, 6676, 12868, 595, 0, 0, 0, 0, 0
158, 27413515, 5, 2687, 0, 0, 0, 335, 335, 335, 335, 0, 0, 4030, 2529, 212, 441, -2220, 6408, 12260, 595, 0, 0, 0, 0, 0
159, 27417338, 5, 2687, 0, 0, 0, 335, 335, 335, 335, 0, 0, 4030, 2454, 351, 397, -2772, 6280, 12644, 595, 0, 0, 0, 0, 0
160, 27421205, 5, 2687, 0, 0, 0, 335, 335, 335, 335, 0, 0, 4030, 2383, 437, 350, -3120, 6448, 12904, 595, 0, 0, 0, 0, 0
161, 27425073, 5, 2687, 0, 0, 0, 335, 335, 335, 335, 0, 0, 4030, 2333, 456, 289, -3068, 6476, 12444, 595, 0, 0, 0, 0, 0
162, 27428941, 5, 2687, 0, 0, 0, 335, 335, 335, 335, 0, 0, 4030, 2320, 405, 218, -3204, 6508, 12092, 595, 0, 0, 0, 0, 0
163, 27432804, 5, 2687, 0, 0, 0, 335, 335, 335, 335, 0, 0, 4030, 2319, 308, 148, -3344, 6248, 12252, 595, 0, 0, 0, 0, 0
164, 27436670, 5, 2687, 0, 0, 0, 335, 335, 335, 335, 0, 0, 4030, 2304, 154, 77, -3836, 5924, 12112, 595, 0, 0, 0, 0, 0
165, 27440533, 5, 2687, 0, 0, 0, 335, 335, 335, 335, 0, 0, 4030, 2308, -38, -17, -3856, 6084, 11872, 595, 0, 0, 0, 0, 0
166, 27444447, 5, 2687, 0, 0, 0, 335, 335, 335, 335, 0, 0, 4030, 2344, -235, -129, -3612, 6528, 11188, 595, 0, 0, 0, 0, 0
167, 27448270, 5, 2687, 0, 0, 0, 335, 335, 335, 335, 0, 0, 4030, 2358, -405, -246, -3592, 7056, 10604, 595, 0, 0, 0, 0, 0
168, 27452234, 5, 2687, 0, 0, 0, 335, 335, 335, 335, 0, 0, 4030, 2348, -529, -368, -3648, 7412, 10940, 595, 0, 0, 0, 0, 0
169, 27456013, 5, 2687, 0, 0, 0, 335, 335, 335, 335, 0, 0, 4030, 2314, -597, -484, -3636, 7540, 10952, 595, 0, 0, 0, 0, 0
170, 27459864, 5, 2687, 0, 0, 0, 335, 335, 335, 335, 0, 0, 4030, 2259, -598, -585, -3384, 7640, 10596, 595, 0, 0, 0, 0, 0
171, 27463738, 5, 2687, 0, 0, 0, 335, 335, 335, 335, 0, 0, 4030, 2171, -509, -679, -3188, 7488, 10672, 595, 0, 0, 0, 0, 0
172, 27467602, 5, 2687, 0, 0, 0, 335, 335, 335, 335, 0, 0, 4030, 2065, -321, -773, -3080, 7488, 10988, 595, 0, 0, 0, 0, 0
173, 27471466, 5, 2687, 0, 0, 0, 335, 335, 335, 335, 0, 0, 4030, 1957, -84, -840, -2916, 7564, 11544, 595, 0, 0, 0, 0, 0
174, 27475376, 5, 2687, 0, 0, 0, 335, 335, 335, 335, 0, 0, 4030, 1866, 173, -875, -2556, 7944, 11956, 595, 0, 0, 0, 0, 0
175, 27479200, 5, 2687, 0, 0, 0, 335, 335, 335, 335, 0, 0, 4030, 1773, 438, -901, -1852, 8504, 11640, 595, 0, 0, 0, 0, 0
176, 27483063, 5, 2687, 0, 0, 0, 335, 335, 335, 335, 0, 0, 4030, 1752, 648, -897, -1520, 8540, 12028, 595, 0, 0, 0, 0, 0
177, 27486938, 5, 2687, 0, 0, 0, 335, 335, 335, 335, 0, 0, 4030, 1742, 808, -892, -1308, 8416, 12540, 595, 0, 0, 0, 0, 0
178, 27490803, 5, 2687, 0, 0, 0, 335, 335, 335, 335, 0, 0, 4030, 1749, 928, -867, -872, 8132, 12460, 595, 0, 0, 0, 0, 0
179, 27494673, 5, 2687, 0, 0, 0, 335, 335, 335, 335, 0, 0, 4030, 1770, 1022, -833, -652, 7984, 12084, 595, 0, 0, 0, 0, 0
180, 27498542, 5, 2687, 0, 0, 0, 335, 335, 335, 335, 0, 0, 4030, 1790, 1081, -799, -308, 8052, 11796, 595, 0, 0, 0, 0, 0
181, 27502456, 5, 2687, 0, 0, 0, 335, 335, 335, 335, 0, 0, 4030, 1819, 1107, -768, -144, 8184, 11340, 595, 0, 0, 0, 0, 0
182, 27506317, 5, 2687, 0, 0, 0, 335, 335, 335, 335, 0, 0, 4030, 1853, 1055, -743, 160, 8544, 11116, 595, 0, 0, 0, 0, 0
183, 27510133, 5, 2687, 0, 0, 0, 335, 335, 335, 335, 0, 0, 4030, 1889, 929, -726, 344, 9036, 10752, 595, 0, 0, 0, 0, 0
184, 27514000, 5, 2687, 0, 0, 0, 335, 335, 335, 335, 0, 0, 4030, 1908, 770, -707, 584, 9360, 10292, 595, 0, 0, 0, 0, 0
185, 27517864, 5, 2687, 0, 0, 0, 335, 335, 335, 335, 0, 0, 4030, 1902, 590, -691, 556, 9528, 9936, 595, 0, 0, 0, 0, 0
186, 27521738, 5, 2687, 0, 0, 0, 335, 335, 335, 335, 0, 0, 4030, 1880, 415, -671, 584, 9628, 9692, 595, 0, 0, 0, 0, 0
187, 27525599, 5, 2687, 0, 0, 0, 335, 335, 335, 335, 0, 0, 4030, 1844, 251, -649, 524, 9832, 9648, 595, 0, 0, 0, 0, 0
188, 27529464, 5, 2687, 0, 0, 0, 335, 335, 335, 335, 0, 0, 4030, 1819, 114, -621, 516, 9836, 9572, 595, 0, 0, 0, 0, 0
189, 27533338, 5, 2687, 0, 0, 0, 335, 335, 335, 335, 0, 0, 4030, 1799, 13, -595, 488, 9744, 9816, 595, 0, 0, 0, 0, 0
190, 27537255, 5, 2687, 0, 0, 0, 335, 335, 335, 335, 0, 0, 4030, 1774, -61, -574, 392, 9924, 9908, 595, 0, 0, 0, 0, 0
191, 27541071, 5, 2687, 0, 0, 0, 335, 335, 335, 335, 0, 0, 4030, 1744, -102, -542, 440, 10228, 10076, 595, 0, 0, 0, 0, 0
192, 27544944, 5, 2687, 0, 0, 0, 335, 335, 335, 335, 0, 0, 4030, 1706, -126, -508, 460, 10584, 10212, 595, 0, 0, 0, 0, 0
193, 27548799, 5, 2687, 0, 0, 0, 335, 335, 335, 335, 0, 0, 4030, 1672, -133, -480, 492, 10724, 10368, 595, 0, 0, 0, 0, 0
194, 27552696, 5, 2687, 0, 0, 0, 335, 335, 335, 335, 0, 0, 4030, 1640, -116, -464, 344, 10636, 10424, 595, 0, 0, 0, 0, 0
195, 27556525, 5, 2687, 0, 0, 0, 335, 335, 335, 335, 0, 0, 4030, 1622, -77, -456, 172, 10564, 10692, 595, 0, 0, 0, 0, 0
196, 27560399, 5, 2687, 0, 0, 0, 335, 335, 335, 335, 0, 0, 4030, 1585, -22, -443, 232, 10716, 10764, 595, 0, 0, 0, 0, 0
197, 27564262, 5, 2687, 0, 0, 0, 335, 335, 335, 335, 0, 0, 4030, 1532, 28, -420, 368, 10896, 10864, 595, 0, 0, 0, 0, 0
198, 27568174, 5, 2687, 0, 0, 0, 335, 335, 335, 335, 0, 0, 4030, 1511, 76, -393, 424, 11132, 11052, 595, 0, 0, 0, 0, 0
199, 27572000, 5, 2687, 0, 0, 0, 335, 335, 335, 335, 0, 0, 4030, 1465, 131, -365, 576, 11368, 11504, 595, 0, 0, 0, 0, 0
200, 27575864, 5, 2687, 0, 0, 0, 335, 335, 335, 335, 0, 0, 4030, 1460, 188, -329, 480, 11168, 11884, 595, 0, 0, 0, 0, 0
201, 27579729, 5, 2687, 0, 0, 0, 335, 335, 335, 335, 0, 0, 4030, 1458, 230, -293, 524, 11008, 11936, 595, 0, 0, 0, 0, 0
202, 27583603, 5, 2687, 0, 0, 0, 335, 335, 335, 335, 0, 0, 4030, 1483, 267, -257, 236, 10684, 12092, 595, 0, 0, 0, 0, 0
203, 27587468, 5, 2687, 0, 0, 0, 335, 335, 335, 335, 0, 0, 4030, 1495, 296, -220, 72, 10528, 12204, 595, 0, 0, 0, 0, 0
204, 27591337, 5, 2687, 0, 0, 0, 335, 335, 335, 335, 0, 0, 4030, 1529, 331, -186, -88, 10404, 12236, 595, 0, 0, 0, 0, 0
205, 27595211, 5, 2687, 0, 0, 0, 335, 335, 335, 335, 0, 0, 4030, 1573, 351, -141, -100, 10364, 12328, 595, 0, 0, 0, 0, 0
206, 27599112, 5, 2687, 0, 0, 0, 335, 335, 335, 335, 0, 0, 4030, 1610, 368, -110, -72, 10604, 12200, 595, 0, 0, 0, 0, 0
207, 27603031, 5, 2687, 0, 0, 0, 335, 335, 335, 335, 0, 0, 4030, 1674, 358, -82, -40, 10820, 12020, 595, 0, 0, 0, 0, 0
208, 27606802, 5, 2687, 0, 0, 0, 335, 335, 335, 335, 0, 0, 4030, 1766, 294, -50, 240, 11040, 11948, 595, 0, 0, 0, 0, 0
209, 27610666, 5, 2687, 0, 0, 0, 335, 335, 335, 335, 0, 0, 4030, 1852, 222, -25, 440, 11220, 11616, 595, 0, 0, 0, 0, 0
210, 27614530, 5, 2687, 0, 0, 0, 335, 335, 335, 335, 0, 0, 4030, 1932, 153, 14, 524, 11376, 11404, 595, 0, 0, 0, 0, 0
211, 27618402, 5, 2687, 0, 0, 0, 335, 335, 335, 335, 0, 0, 4030, 2014, 101, 51, 736, 11696, 10868, 595, 0, 0, 0, 0, 0
212, 27622277, 5, 2687, 0, 0, 0, 335, 335, 335, 335, 0, 0, 4030, 2092, 64, 75, 1076, 12028, 10532, 595, 0, 0, 0, 0, 0
213, 27626133, 5, 2687, 0, 0, 0, 335, 335, 335, 335, 0, 0, 4030, 2166, 49, 96, 1476, 12272, 10084, 595, 0, 0, 0, 0, 0
214, 27630058, 5, 2687, 0, 0, 0, 335, 335, 335, 335, 0, 0, 4030, 2229, 43, 116, 1680, 12348, 9620, 595, 0, 0, 0, 0, 0
215, 27633862, 5, 2687, 0, 0, 0, 335, 335, 335, 335, 0, 0, 4030, 2313, 141, 139, 644, 12456, 8932, 595, 0, 0, 0, 0, 0
216, 27637736, 5, 2687, 0, 0, 0, 335, 335, 335, 335, 0, 0, 4030, 2013, 902, 154, 432, 13828, 4444, 595, 0, 0, 0, 0, 0
217, 27641601, 5, 2687, 0, 0, 0, 335, 335, 335, 335, 0, 0, 4030, 2004, 968, 146, 2688, 12504, 8992, 595, 0, 0, 0, 0, 0
218, 27645468, 5, 2687, 0, 0, 0, 335, 335, 335, 335, 0, 0, 4030, 2131, 624, 158, 2500, 12380, 9608, 595, 0, 0, 0, 0, 0
219, 27649334, 5, 2687, 0, 0, 0, 335, 335, 335, 335, 0, 0, 4030, 2249, 237, 189, 2172, 12544, 7896, 595, 0, 0, 0, 0, 0
220, 27653301, 5, 2687, 0, 0, 0, 335, 335, 335, 335, 0, 0, 4030, 2323, -55, 201, 1676, 12436, 6724, 595, 0, 0, 0, 0, 0
221, 27657064, 5, 2687, 0, 0, 0, 335, 335, 335, 335, 0, 0, 4030, 2360, -282, 189, 632, 12336, 6760, 595, 0, 0, 0, 0, 0
222, 27660985, 5, 2687, 0, 0, 0, 335, 335, 335, 335, 0, 0, 4030, 2369, -502, 153, -428, 12208, 7228, 595, 0, 0, 0, 0, 0
223, 27664808, 5, 2687, 0, 0, 0, 335, 335, 335, 335, 0, 0, 4030, 2351, -713, 95, -860, 12620, 6468, 595, 0, 0, 0, 0, 0
224, 27668672, 5, 2687, 0, 0, 0, 335, 335, 335, 335, 0, 0, 4030, 2287, -837, -1, -836, 13008, 5764, 595, 0, 0, 0, 0, 0
225, 27672533, 5, 2687, 0, 0, 0, 335, 335, 335, 335, 0, 0, 4030, 2200, -844, -103, -1524, 13364, 6364, 595, 0, 0, 0, 0, 0
226, 27676406, 5, 2687, 0, 0, 0, 335, 335, 335, 335, 0, 0, 4030, 2088, -776, -205, -2252, 13648, 6664, 595, 0, 0, 0, 0, 0
227, 27680269, 5, 2687, 0, 0, 0, 335, 335, 335, 335, 0, 0, 4030, 1973, -670, -312, -2512, 13548, 6484, 595, 0, 0, 0, 0, 0
228, 27684133, 5, 2687, 0, 0, 0, 335, 335, 335, 335, 0, 0, 4030, 1840, -462, -418, -2832, 13320, 6500, 595, 0, 0, 0, 0, 0
229, 27687998, 5, 2687, 0, 0, 0, 335, 335, 335, 335, 0, 0, 4030, 1709, -185, -520, -3104, 13412, 6656, 595, 0, 0, 0, 0, 0
230, 27691913, 5, 2687, 0, 0, 0, 335, 335, 335, 335, 0, 0, 4030, 1577, 101, -615, -3276, 13436, 7464, 595, 0, 0, 0, 0, 0
231, 27695734, 5, 2687, 0, 0, 0, 335, 335, 335, 335, 0, 0, 4030, 1473, 389, -697, -2928, 13536, 7152, 595, 0, 0, 0, 0, 0
232, 27699609, 5, 2687, 0, 0, 0, 335, 335, 335, 335, 0, 0, 4030, 1379, 651, -768, -2456, 13556, 7024, 595, 0, 0, 0, 0, 0
233, 27703522, 5, 2687, 0, 0, 0, 335, 335, 335, 335, 0, 0, 4030, 1291, 882, -854, -2256, 14040, 7080, 595, 0, 0, 0, 0, 0
234, 27707338, 5, 2687, 0, 0, 0, 335, 335, 335, 335, 0, 0, 4030, 1242, 975, -889, -1508, 14144, 7512, 595, 0, 0, 0, 0, 0
235, 27711203, 5, 2687, 0, 0, 0, 335, 335, 335, 335, 0, 0, 4030, 1216, 934, -917, -532, 14632, 7232, 595, 0, 0, 0, 0, 0
236, 27715070, 5, 2687, 0, 0, 0, 335, 335, 335, 335, 0, 0, 4030, 1202, 816, -942, 340, 14892, 6572, 595, 0, 0, 0, 0, 0
237, 27718938, 5, 2687, 0, 0, 0, 335, 335, 335, 335, 0, 0, 4030, 1192, 674, -943, 748, 14936, 6428, 595, 0, 0, 0, 0, 0
238, 27722847, 5, 2687, 0, 0, 0, 335, 335, 335, 335, 0, 0, 4030, 1179, 496, -933, 1060, 15016, 6608, 595, 0, 0, 0, 0, 0
239, 27726675, 5, 2687, 0, 0, 0, 335, 335, 335, 335, 0, 0, 4030, 1158, 317, -913, 1368, 14748, 6236, 595, 0, 0, 0, 0, 0
240, 27730540, 5, 2687, 0, 0, 0, 335, 335, 335, 335, 0, 0, 4030, 1133, 174, -882, 1652, 14776, 5936, 595, 0, 0, 0, 0, 0
241, 27734404, 5, 2687, 0, 0, 0, 335, 335, 335, 335, 0, 0, 4030, 1112, 39, -837, 1912, 14800, 5928, 595, 0, 0, 0, 0, 0
242, 27738270, 5, 2687, 0, 0, 0, 335, 335, 335, 335, 0, 0, 4030, 1096, -111, -789, 2368, 15012, 6020, 595, 0, 0, 0, 0, 0
243, 27742144, 5, 2687, 0, 0, 0, 335, 335, 335, 335, 0, 0, 4030, 1076, -243, -736, 2776, 15200, 5916, 595, 0, 0, 0, 0, 0
244, 27746013, 5, 2687, 0, 0, 0, 335, 335, 335, 335, 0, 0, 4030, 1049, -296, -667, 2788, 15272, 5708, 595, 0, 0, 0, 0, 0
245, 27749870, 5, 2687, 0, 0, 0, 335, 335, 335, 335, 0, 0, 4030, 1011, -235, -589, 2784, 15248, 5516, 595, 0, 0, 0, 0, 0
246, 27753844, 5, 2687, 0, 0, 0, 335, 335, 335, 335, 0, 0, 4030, 949, -109, -518, 2996, 15208, 5580, 595, 0, 0, 0, 0, 0
247, 27757603, 5, 2687, 0, 0, 0, 335, 335, 335, 335, 0, 0, 4030, 885, 29, -438, 3232, 15264, 5372, 595, 0, 0, 0, 0, 0
248, 27761470, 5, 2687, 0, 0, 0, 335, 335, 335, 335, 0, 0, 4030, 838, 195, -352, 3484, 15184, 5408, 595, 0, 0, 0, 0, 0
249, 27765336, 5, 2687, 0, 0, 0, 335, 335, 335, 335, 0, 0, 4030, 794, 367, -268, 3812, 15084, 5440, 595, 0, 0, 0, 0, 0
250, 27769202, 5, 2687, 0, 0, 0, 335, 335, 335, 335, 0, 0, 4030, 764, 501, -192, 3964, 14904, 4992, 595, 0, 0, 0, 0, 0
251, 27773068, 5, 2687, 0, 0, 0, 335, 335, 335, 335, 0, 0, 4030, 741, 571, -115, 4164, 14624, 4712, 595, 0, 0, 0, 0, 0
252, 27776935, 5, 2687, 0, 0, 0, 335, 335, 335, 335, 0, 0, 4030, 732, 570, -36, 4124, 14196, 4584, 595, 0, 0, 0, 0, 0
253, 27780811, 5, 2687, 0, 0, 0, 335, 335, 335, 335, 0, 0, 4030, 736, 506, 57, 3860, 13920, 4728, 595, 0, 0, 0, 0, 0
254, 27784725, 5, 2687, 0, 0, 0, 335, 335, 335, 335, 0, 0, 4030, 751, 395, 142, 3572, 13596, 4624, 595, 0, 0, 0, 0, 0
255, 27788539, 5, 2687, 0, 0, 0, 335, 335, 335, 335, 0, 0, 4030, 777, 236, 213, 3420, 13612, 4568, 595, 0, 0, 0, 0, 0
256, 27792414, 5, 2687, 0, 0, 0, 335, 335, 335, 335, 0, 0, 4030, 816, 41, 263, 2976, 13540, 4792, 595, 0, 0, 0, 0, 0
257, 27796280, 5, 2687, 0, 0, 0, 335, 335, 335, 335, 0, 0, 4030, 847, -153, 298, 2636, 13792, 5048, 595, 0, 0, 0, 0, 0
258, 27800136, 5, 2687, 0, 0, 0, 335, 335, 335, 335, 0, 0, 4030, 868, -305, 320, 1960, 13996, 5044, 595, 0, 0, 0, 0, 0
259, 27804058, 5, 2687, 0, 0, 0, 335, 335, 335, 335, 0, 0, 4030, 869, -399, 333, 1320, 14272, 5200, 595, 0, 0, 0, 0, 0
260, 27807876, 5, 2687, 0, 0, 0, 335, 335, 335, 335, 0, 0, 4030, 851, -411, 335, 768, 14468, 5548, 595, 0, 0, 0, 0, 0
261, 27811741, 5, 2687, 0, 0, 0, 335, 335, 335, 335, 0, 0, 4030, 825, -334, 329, 172, 14536, 5744, 595, 0, 0, 0, 0, 0
262, 27815654, 5, 2687, 0, 0, 0, 335, 335, 335, 335, 0, 0, 4030, 805, -205, 313, -176, 14692, 6240, 595, 0, 0, 0, 0, 0
263, 27819468, 5, 2687, 0, 0, 0, 335, 335, 335, 335, 0, 0, 4030, 775, -52, 296, -480, 14760, 6560, 595, 0, 0, 0, 0, 0
264, 27823340, 5, 2687, 0, 0, 0, 335, 335, 335, 335, 0, 0, 4030, 752, 92, 270, -708, 14764, 6712, 595, 0, 0, 0, 0, 0
265, 27827204, 5, 2687, 0, 0, 0, 335, 335, 335, 335, 0, 0, 4030, 732, 212, 254, -772, 14692, 7120, 595, 0, 0, 0, 0, 0
266, 27831068, 5, 2687, 0, 0, 0, 335, 335, 335, 335, 0, 0, 4030, 724, 305, 242, -684, 14796, 7164, 595, 0, 0, 0, 0, 0
267, 27834941, 5, 2687, 0, 0, 0, 335, 335, 335, 335, 0, 0, 4030, 729, 338, 230, -480, 15020, 7096, 595, 0, 0, 0, 0, 0
268, 27838806, 5, 2687, 0, 0, 0, 335, 335, 335, 335, 0, 0, 4030, 750, 315, 220, -252, 15248, 6900, 595, 0, 0, 0, 0, 0
269, 27842668, 5, 2687, 0, 0, 0, 335, 335, 335, 335, 0, 0, 4030, 777, 259, 206, -28, 15284, 6512, 595, 0, 0, 0, 0, 0
270, 27846582, 5, 2687, 0, 0, 0, 335, 335, 335, 335, 0, 0, 4030, 801, 180, 191, 164, 15068, 6032, 595, 0, 0, 0, 0, 0
271, 27850572, 5, 2687, 0, 0, 0, 335, 335, 335, 335, 0, 0, 4030, 814, 75, 169, 276, 15124, 5532, 595, 0, 0, 0, 0, 0
272, 27854273, 5, 2687, 0, 0, 0, 335, 335, 335, 335, 0, 0, 4030, 817, -53, 153, 672, 15260, 5096, 595, 0, 0, 0, 0, 0
273, 27858135, 5, 2687, 0, 0, 0, 335, 335, 335, 335, 0, 0, 4030, 810, -197, 142, 908, 15536, 4620, 595, 0, 0, 0, 0, 0
274, 27862009, 5, 2687, 0, 0, 0, 335, 335, 335, 335, 0, 0, 4030, 805, -333, 141, 1256, 15924, 4028, 595, 0, 0, 0, 0, 0
275, 27865870, 5, 2687, 0, 0, 0, 335, 335, 335, 335, 0, 0, 4030, 793, -427, 139, 1544, 16220, 3412, 595, 0, 0, 0, 0, 0
276, 27869745, 5, 2687, 0, 0, 0, 335, 335, 335, 335, 0, 0, 4030, 775, -482, 137, 1792, 16228, 3092, 595, 0, 0, 0, 0, 0
277, 27873620, 5, 2687, 0, 0, 0, 335, 335, 335, 335, 0, 0, 4030, 750, -494, 125, 1996, 16116, 2948, 595, 0, 0, 0, 0, 0
278, 27877513, 5, 2687, 0, 0, 0, 335, 335, 335, 335, 0, 0, 4030, 723, -473, 114, 2228, 16264, 3008, 595, 0, 0, 0, 0, 0
279, 27881341, 5, 2687, 0, 0, 0, 335, 335, 335, 335, 0, 0, 4030, 694, -430, 115, 2232, 16176, 2896, 595, 0, 0, 0, 0, 0
280, 27885217, 5, 2687, 0, 0, 0, 335, 335, 335, 335, 0, 0, 4030, 666, -369, 120, 2312, 16324, 2908, 595, 0, 0, 0, 0, 0
281, 27889074, 5, 2687, 0, 0, 0, 335, 335, 335, 335, 0, 0, 4030, 654, -283, 122, 2388, 16592, 3180, 595, 0, 0, 0, 0, 0
282, 27892940, 5, 2687, 0, 0, 0, 335, 335, 335, 335, 0, 0, 4030, 647, -191, 113, 2340, 16592, 3668, 595, 0, 0, 0, 0, 0
283, 27896807, 5, 2687, 0, 0, 0, 335, 335, 335, 335, 0, 0, 4030, 655, -102, 88, 2056, 16200, 3948, 595, 0, 0, 0, 0, 0
284, 27900679, 5, 2687, 0, 0, 0, 335, 335, 335, 335, 0, 0, 4030, 665, -32, 61, 1628, 15992, 4496, 595, 0, 0, 0, 0, 0
285, 27904534, 5, 2687, 0, 0, 0, 335, 335, 335, 335, 0, 0, 4030, 685, 13, 39, 1296, 15836, 4892, 595, 0, 0, 0, 0, 0
286, 27908456, 5, 2687, 0, 0, 0, 335, 335, 335, 335, 0, 0, 4030, 714, 31, 24, 832, 15740, 4968, 595, 0, 0, 0, 0, 0
287, 27912277, 5, 2687, 0, 0, 0, 335, 335, 335, 335, 0, 0, 4030, 749, 37, 9, 440, 15620, 5532, 595, 0, 0, 0, 0, 0
288, 27916145, 5, 2687, 0, 0, 0, 335, 335, 335, 335, 0, 0, 4030, 798, 16, -18, 292, 15268, 5516, 595, 0, 0, 0, 0, 0
289, 27920001, 5, 2687, 0, 0, 0, 335, 335, 335, 335, 0, 0, 4030, 867, -30, -55, -168, 14856, 5772, 595, 0, 0, 0, 0, 0
290, 27923862, 5, 2687, 0, 0, 0, 335, 335, 335, 335, 0, 0, 4030, 941, -118, -96, -308, 14496, 5764, 595, 0, 0, 0, 0, 0
291, 27927735, 5, 2687, 0, 0, 0, 335, 335, 335, 335, 0, 0, 4030, 1022, -229, -140, -788, 14092, 5572, 595, 0, 0, 0, 0, 0
292, 27931597, 5, 2687, 0, 0, 0, 335, 335, 335, 335, 0, 0, 4030, 1101, -362, -184, -1212, 13764, 5268, 595, 0, 0, 0, 0, 0
293, 27935468, 5, 2687, 0, 0, 0, 335, 335, 335, 335, 0, 0, 4030, 1172, -498, -237, -1288, 13428, 4916, 595, 0, 0, 0, 0, 0
294, 27939380, 5, 2687, 0, 0, 0, 335, 335, 335, 335, 0, 0, 4030, 1236, -626, -296, -1340, 13452, 4256, 595, 0, 0, 0, 0, 0
295, 27943202, 5, 2687, 0, 0, 0, 335, 335, 335, 335, 0, 0, 4030, 1297, -738, -358, -940, 13696, 4104, 595, 0, 0, 0, 0, 0
296, 27947062, 5, 2687, 0, 0, 0, 335, 335, 335, 335, 0, 0, 4030, 1341, -841, -417, -652, 13956, 3796, 595, 0, 0, 0, 0, 0
297, 27950981, 5, 2687, 0, 0, 0, 335, 335, 335, 335, 0, 0, 4030, 1361, -905, -473, -256, 14380, 3340, 595, 0, 0, 0, 0, 0
298, 27954803, 5, 2687, 0, 0, 0, 335, 335, 335, 335, 0, 0, 4030, 1348, -909, -512, 164, 14600, 3204, 595, 0, 0, 0, 0, 0
299, 27958671, 5, 2687, 0, 0, 0, 335, 335, 335, 335, 0, 0, 4030, 1318, -866, -523, 692, 15108, 2804, 595, 0, 0, 0, 0, 0
300, 27962533, 5, 2687, 0, 0, 0, 335, 335, 335, 335, 0, 0, 4030, 1272, -776, -507, 1152, 15336, 2680, 595, 0, 0, 0, 0, 0
301, 27966408, 5, 2687, 0, 0, 0, 335, 335, 335, 335, 0, 0, 4030, 1223, -658, -478, 1732, 15668, 2696, 595, 0, 0, 0, 0, 0
302, 27970313, 5, 2687, 0, 0, 0, 335, 335, 335, 335, 0, 0, 4030, 1166, -556, -442, 2396, 15788, 2656, 595, 0, 0, 0, 0, 0
303, 27974131, 5, 2687, 0, 0, 0, 335, 335, 335, 335, 0, 0, 4030, 1111, -494, -388, 3132, 16028, 2436, 595, 0, 0, 0, 0, 0
304, 27977997, 5, 2687, 0, 0, 0, 335, 335, 335, 335, 0, 0, 4030, 1053, -472, -326, 3456, 16376, 2344, 595, 0, 0, 0, 0, 0
305, 27981864, 5, 2687, 0, 0, 0, 335, 335, 335, 335, 0, 0, 4030, 988, -487, -249, 3872, 17100, 2176, 595, 0, 0, 0, 0, 0
306, 27985736, 5, 2687, 0, 0, 0, 335, 335, 335, 335, 0, 0, 4030, 921, -523, -168, 4252, 17724, 2156, 595, 0, 0, 0, 0, 0
307, 27989610, 5, 2687, 0, 0, 0, 335, 335, 335, 335, 0, 0, 4030, 862, -573, -78, 4336, 18560, 2032, 595, 0, 0, 0, 0, 0
308, 27993474, 5, 2687, 0, 0, 0, 335, 335, 335, 335, 0, 0, 4030, 815, -590, -2, 4160, 18976, 2308, 595, 0, 0, 0, 0, 0
309, 27997331, 5, 2687, 0, 0, 0, 335, 335, 335, 335, 0, 0, 4030, 703, -539, 2, 3376, 19720, 1176, 595, 0, 0, 0, 0, 0
310, 28001295, 5, 2687, 0, 0, 0, 335, 335, 335, 335, 0, 0, 4030, 606, -391, 35, 2460, 18048, 872, 595, 0, 0, 0, 0, 0
311, 28005065, 5, 2687, 0, 0, 0, 335, 335, 335, 335, 0, 0, 4030, 484, -207, 50, 1256, 16652, 1588, 595, 0, 0, 0, 0, 0
312, 28008933, 5, 2687, 0, 0, 0, 335, 335, 335, 335, 0, 0, 4030, 397, -153, 46, 760, 15996, 1288, 595, 0, 0, 0, 0, 0
313, 28012797, 5, 2687, 0, 0, 0, 335, 335, 335, 335, 0, 0, 4030, 332, -86, 31, 580, 15204, 1020, 595, 0, 0, 0, 0, 0
314, 28016659, 5, 2687, 0, 0, 0, 335, 335, 335, 335, 0, 0, 4030, 281, -23, 8, -172, 14948, 1676, 595, 0, 0, 0, 0, 0
315, 28020532, 5, 2687, 0, 0, 0, 335, 335, 335, 335, 0, 0, 4030, 247, -64, -13, -108, 15000, 1576, 595, 0, 0, 0, 0, 0
316, 28024398, 5, 2687, 0, 0, 0, 335, 335, 335, 335, 0, 0, 4030, 218, -86, -30, 496, 15136, 1092, 595, 0, 0, 0, 0, 0
317, 28028262, 5, 2687, 0, 0, 0, 335, 335, 335, 335, 0, 0, 4030, 195, -101, -38, 708, 15228, 1728, 595, 0, 0, 0, 0, 0
318, 28032173, 5, 2687, 0, 0, 0, 335, 335, 335, 335, 0, 0, 4030, 175, -180, -28, 940, 14964, 2280, 595, 0, 0, 0, 0, 0
319, 28036006, 5, 2687, 0, 0, 0, 335, 335, 335, 335, 0, 0, 4030, 168, -215, 5, 1436, 14840, 1892, 595, 0, 0, 0, 0, 0
320, 28039877, 5, 2687, 0, 0, 0, 335, 335, 335, 335, 0, 0, 4030, 159, -187, 63, 1460, 14852, 2404, 595, 0, 0, 0, 0, 0
321, 28043732, 5, 2687, 0, 0, 0, 335, 335, 335, 335, 0, 0, 4030, 178, -181, 119, 1684, 15076, 2884, 595, 0, 0, 0, 0, 0
322, 28047599, 5, 2687, 0, 0, 0, 335, 335, 335, 335, 0, 0, 4030, 230, -192, 178, 2228, 15208, 2872, 595, 0, 0, 0, 0, 0
323, 28051560, 5, 2687, 0, 0, 0, 335, 335, 335, 335, 0, 0, 4030, 298, -186, 238, 2564, 15456, 3260, 595, 0, 0, 0, 0, 0
324, 28055335, 5, 2687, 0, 0, 0, 335, 335, 335, 335, 0, 0, 4030, 372, -201, 305, 2540, 15824, 3792, 595, 0, 0, 0, 0, 0
325, 28059201, 5, 2687, 0, 0, 0, 335, 335, 335, 335, 0, 0, 4030, 434, -220, 381, 2780, 16388, 3716, 595, 0, 0, 0, 0, 0
326, 28063116, 5, 2687, 0, 0, 0, 335, 335, 335, 335, 0, 0, 4030, 497, -208, 464, 2784, 16500, 3724, 595, 0, 0, 0, 0, 0
327, 28066933, 5, 2687, 0, 0, 0, 335, 335, 335, 335, 0, 0, 4030, 559, -183, 538, 2444, 16256, 4016, 595, 0, 0, 0, 0, 0
328, 28070799, 5, 2687, 0, 0, 0, 335, 335, 335, 335, 0, 0, 4030, 631, -181, 606, 2368, 15928, 4032, 595, 0, 0, 0, 0, 0
329, 28074667, 5, 2687, 0, 0, 0, 335, 335, 335, 335, 0, 0, 4030, 718, -183, 659, 2232, 15728, 3780, 595, 0, 0, 0, 0, 0
330, 28078535, 5, 2687, 0, 0, 0, 335, 335, 335, 335, 0, 0, 4030, 809, -206, 705, 2116, 15400, 3548, 595, 0, 0, 0, 0, 0
331, 28082408, 5, 2687, 0, 0, 0, 335, 335, 335, 335, 0, 0, 4030, 892, -285, 744, 2088, 15240, 3524, 595, 0, 0, 0, 0, 0
332, 28086280, 5, 2687, 0, 0, 0, 335, 335, 335, 335, 0, 0, 4030, 959, -425, 776, 2232, 15464, 2596, 595, 0, 0, 0, 0, 0
333, 28090144, 5, 2687, 0, 0, 0, 335, 335, 335, 335, 0, 0, 4030, 1009, -601, 800, 2204, 15640, 2068, 595, 0, 0, 0, 0, 0
334, 28094058, 5, 2687, 0, 0, 0, 335, 335, 335, 335, 0, 0, 4030, 1031, -819, 808, 1976, 15944, 1420, 595, 0, 0, 0, 0, 0
335, 28097864, 5, 2687, 0, 0, 0, 335, 335, 335, 335, 0, 0, 4030, 1018, -1060, 808, 1868, 16488, 580, 595, 0, 0, 0, 0, 0
336, 28101782, 5, 2687, 0, 0, 0, 335, 335, 335, 335, 0, 0, 4030, 988, -1276, 806, 1344, 16652, -24, 595, 0, 0, 0, 0, 0
337, 28105600, 5, 2687, 0, 0, 0, 335, 335, 335, 335, 0, 0, 4030, 914, -1437, 783, 896, 16920, -488, 595, 0, 0, 0, 0, 0
338, 28109465, 5, 2687, 0, 0, 0, 335, 335, 335, 335, 0, 0, 4030, 801, -1513, 757, 168, 16900, -924, 595, 0, 0, 0, 0, 0
339, 28113338, 5, 2687, 0, 0, 0, 335, 335, 335, 335, 0, 0, 4030, 645, -1458, 732, -784, 16480, -1096, 595, 0, 0, 0, 0, 0
340, 28117198, 5, 2687, 0, 0, 0, 335, 335, 335, 335, 0, 0, 4030, 469, -1323, 696, -1804, 16420, -864, 595, 0, 0, 0, 0, 0
341, 28121064, 5, 2687, 0, 0, 0, 335, 335, 335, 335, 0, 0, 4030, 279, -1098, 657, -2408, 16000, -680, 595, 0, 0, 0, 0, 0
342, 28124977, 5, 2687, 0, 0, 0, 335, 335, 335, 335, 0, 0, 4030, 114, -869, 633, -2616, 15544, 252, 595, 0, 0, 0, 0, 0
343, 28128803, 5, 2687, 0, 0, 0, 335, 335, 335, 335, 0, 0, 4030, -32, -675, 582, -2788, 15792, 532, 595, 0, 0, 0, 0, 0
344, 28132666, 5, 2687, 0, 0, 0, 335, 335, 335, 335, 0, 0, 4030, -152, -560, 552, -2436, 15916, 800, 595, 0, 0, 0, 0, 0
345, 28136548, 5, 2687, 0, 0, 0, 335, 335, 335, 335, 0, 0, 4030, -224, -522, 537, -1908, 16416, 1532, 595, 0, 0, 0, 0, 0
346, 28140401, 5, 2687, 0, 0, 0, 335, 335, 335, 335, 0, 0, 4030, -256, -543, 517, -1440, 17460, 2208, 595, 0, 0, 0, 0, 0
347, 28144265, 5, 2687, 0, 0, 0, 335, 335, 335, 335, 0, 0, 4030, -264, -576, 491, -1176, 18168, 2528, 595, 0, 0, 0, 0, 0
348, 28148136, 5, 2687, 0, 0, 0, 335, 335, 335, 335, 0, 0, 4030, -255, -585, 453, -1072, 18340, 3184, 595, 0, 0, 0, 0, 0
349, 28152038, 5, 2687, 0, 0, 0, 335, 335, 335, 335, 0, 0, 4030, -250, -564, 408, -1332, 18228, 3292, 595, 0, 0, 0, 0, 0
350, 28155925, 5, 2687, 0, 0, 0, 335, 335, 335, 335, 0, 0, 4030, -233, -511, 370, -1468, 17952, 3372, 595, 0, 0, 0, 0, 0
351, 28159739, 5, 2687, 0, 0, 0, 335, 335, 335, 335, 0, 0, 4030, -231, -416, 353, -1304, 17312, 3160, 595, 0, 0, 0, 0, 0
352, 28163612, 5, 2687, 0, 0, 0, 335, 335, 335, 335, 0, 0, 4030, -212, -294, 327, -1384, 16996, 3276, 595, 0, 0, 0, 0, 0
353, 28167464, 5, 2687, 0, 0, 0, 335, 335, 335, 335, 0, 0, 4030, -164, -215, 302, -1112, 16468, 3448, 595, 0, 0, 0, 0, 0
354, 28171336, 5, 2687, 0, 0, 0, 335, 335, 335, 335, 0, 0, 4030, -98, -189, 264, -1096, 16236, 3188, 595, 0, 0, 0, 0, 0
355, 28175209, 5, 2687, 0, 0, 0, 335, 335, 335, 335, 0, 0, 4030, -24, -189, 221, -1036, 16044, 2996, 595, 0, 0, 0, 0, 0
356, 28179061, 5, 2687, 0, 0, 0, 335, 335, 335, 335, 0, 0, 4030, 26, -185, 181, -1072, 15988, 2364, 595, 0, 0, 0, 0, 0
357, 28182929, 5, 2687, 0, 0, 0, 335, 335, 335, 335, 0, 0, 4030, 56, -161, 149, -1000, 15892, 2164, 595, 0, 0, 0, 0, 0
358, 28186841, 5, 2687, 0, 0, 0, 335, 335, 335, 335, 0, 0, 4030, 76, -103, 120, -748, 16456, 1588, 595, 0, 0, 0, 0, 0
359, 28190663, 5, 2687, 0, 0, 0, 335, 335, 335, 335, 0, 0, 4030, 96, -35, 84, -504, 16708, 1616, 595, 0, 0, 0, 0, 0
360, 28194535, 5, 2687, 0, 0, 0, 335, 335, 335, 335, 0, 0, 4030, 122, 36, 45, -148, 16892, 1688, 595, 0, 0, 0, 0, 0
361, 28198406, 5, 2687, 0, 0, 0, 335, 335, 335, 335, 0, 0, 4030, 141, 111, 6, -44, 17192, 1468, 595, 0, 0, 0, 0, 0
362, 28202338, 5, 2687, 0, 0, 0, 335, 335, 335, 335, 0, 0, 4030, 157, 171, -22, 92, 17352, 1672, 595, 0, 0, 0, 0, 0
363, 28206140, 5, 2687, 0, 0, 0, 335, 335, 335, 335, 0, 0, 4030, 163, 217, -47, 160, 17724, 1644, 595, 0, 0, 0, 0, 0
364, 28210003, 5, 2687, 0, 0, 0, 335, 335, 335, 335, 0, 0, 4030, 170, 224, -59, 256, 18128, 1788, 595, 0, 0, 0, 0, 0
365, 28213865, 5, 2687, 0, 0, 0, 335, 335, 335, 335, 0, 0, 4030, 187, 196, -63, 424, 18764, 2024, 595, 0, 0, 0, 0, 0
366, 28217779, 5, 2687, 0, 0, 0, 335, 335, 335, 335, 0, 0, 4030, 215, 143, -70, 172, 19332, 2604, 595, 0, 0, 0, 0, 0
367, 28221604, 5, 2687, 0, 0, 0, 335, 335, 335, 335, 0, 0, 4030, 243, 104, -83, -136, 19328, 3056, 595, 0, 0, 0, 0, 0
368, 28225469, 5, 2687, 0, 0, 0, 335, 335, 335, 335, 0, 0, 4030, 276, 71, -92, -376, 18780, 3444, 595, 0, 0, 0, 0, 0
369, 28229332, 5, 2687, 0, 0, 0, 335, 335, 335, 335, 0, 0, 4030, 310, 47, -93, -1104, 17952, 3844, 595, 0, 0, 0, 0, 0
370, 28233205, 5, 2687, 0, 0, 0, 335, 335, 335, 335, 0, 0, 4030, 345, 17, -100, -1692, 17476, 4380, 595, 0, 0, 0, 0, 0
371, 28237069, 5, 2687, 0, 0, 0, 335, 335, 335, 335, 0, 0, 4030, 384, -10, -95, -2152, 17124, 4504, 595, 0, 0, 0, 0, 0
372, 28240944, 5, 2687, 0, 0, 0, 335, 335, 335, 335, 0, 0, 4030, 400, -1, -82, -2608, 16892, 4488, 595, 0, 0, 0, 0, 0
373, 28244800, 5, 2687, 0, 0, 0, 335, 335, 335, 335, 0, 0, 4030, 415, 27, -72, -2948, 16864, 4664, 595, 0, 0, 0, 0, 0
374, 28248720, 5, 2687, 0, 0, 0, 335, 335, 335, 335, 0, 0, 4030, 433, 53, -74, -2992, 17052, 4488, 595, 0, 0, 0, 0, 0
375, 28252605, 5, 2687, 0, 0, 0, 335, 335, 335, 335, 0, 0, 4030, 452, 68, -83, -2688, 17400, 4428, 595, 0, 0, 0, 0, 0
376, 28256401, 5, 2687, 0, 0, 0, 335, 335, 335, 335, 0, 0, 4030, 476, 68, -96, -2428, 17600, 4000, 595, 0, 0, 0, 0, 0
377, 28260264, 5, 2687, 0, 0, 0, 335, 335, 335, 335, 0, 0, 4030, 502, 52, -118, -1928, 17644, 3484, 595, 0, 0, 0, 0, 0
378, 28264138, 5, 2687, 0, 0, 0, 335, 335, 335, 335, 0, 0, 4030, 534, 33, -135, -1348, 17848, 3048, 595, 0, 0, 0, 0, 0
379, 28267997, 5, 2687, 0, 0, 0, 335, 335, 335, 335, 0, 0, 4030, 560, 17, -151, -668, 17596, 2512, 595, 0, 0, 0, 0, 0
380, 28271872, 5, 2687, 0, 0, 0, 335, 335, 335, 335, 0, 0, 4030, 589, 18, -164, -204, 17032, 1892, 595, 0, 0, 0, 0, 0
381, 28275733, 5, 2687, 0, 0, 0, 335, 335, 335, 335, 0, 0, 4030, 615, 28, -170, 192, 16376, 1420, 595, 0, 0, 0, 0, 0
382, 28279643, 5, 2687, 0, 0, 0, 335, 335, 335, 335, 0, 0, 4030, 632, 32, -167, 612, 15812, 888, 595, 0, 0, 0, 0, 0
383, 28283474, 5, 2687, 0, 0, 0, 335, 335, 335, 335, 0, 0, 4030, 650, 32, -145, 984, 15484, 284, 595, 0, 0, 0, 0, 0
384, 28287346, 5, 2687, 0, 0, 0, 335, 335, 335, 335, 0, 0, 4030, 666, 39, -118, 1324, 15388, -236, 595, 0, 0, 0, 0, 0
385, 28291201, 5, 2687, 0, 0, 0, 335, 335, 335, 335, 0, 0, 4030, 656, 70, -76, 1588, 15624, -512, 595, 0, 0, 0, 0, 0
386, 28295066, 5, 2687, 0, 0, 0, 335, 335, 335, 335, 0, 0, 4030, 644, 123, -25, 1864, 15876, -688, 595, 0, 0, 0, 0, 0
387, 28298941, 5, 2687, 0, 0, 0, 335, 335, 335, 335, 0, 0, 4030, 619, 211, 32, 1868, 16008, -1008, 595, 0, 0, 0, 0, 0
388, 28302873, 5, 2687, 0, 0, 0, 335, 335, 335, 335, 0, 0, 4030, 591, 324, 84, 1628, 15664, -716, 595, 0, 0, 0, 0, 0
389, 28306665, 5, 2687, 0, 0, 0, 335, 335, 335, 335, 0, 0, 4030, 563, 412, 131, 1668, 15880, -368, 595, 0, 0, 0, 0, 0
390, 28310577, 5, 2687, 0, 0, 0, 335, 335, 335, 335, 0, 0, 4030, 543, 472, 179, 1544, 15884, -332, 595, 0, 0, 0, 0, 0
391, 28314404, 5, 2687, 0, 0, 0, 335, 335, 335, 335, 0, 0, 4030, 522, 491, 227, 1392, 16148, 20, 595, 0, 0, 0, 0, 0
392, 28318267, 5, 2687, 0, 0, 0, 335, 335, 335, 335, 0, 0, 4030, 522, 469, 279, 1220, 16244, 28, 595, 0, 0, 0, 0, 0
393, 28322132, 5, 2687, 0, 0, 0, 335, 335, 335, 335, 0, 0, 4030, 538, 392, 301, 1140, 16848, 388, 595, 0, 0, 0, 0, 0
394, 28326005, 5, 2687, 0, 0, 0, 335, 335, 335, 335, 0, 0, 4030, 567, 299, 319, 760, 16828, 640, 595, 0, 0, 0, 0, 0
395, 28329877, 5, 2687, 0, 0, 0, 335, 335, 335, 335, 0, 0, 4030, 595, 185, 329, 236, 16940, 724, 595, 0, 0, 0, 0, 0
396, 28333737, 5, 2687, 0, 0, 0, 335, 335, 335, 335, 0, 0, 4030, 617, 54, 331, -324, 16788, 964, 595, 0, 0, 0, 0, 0
397, 28337599, 5, 2687, 0, 0, 0, 335, 335, 335, 335, 0, 0, 4030, 625, -70, 329, -1084, 16788, 980, 595, 0, 0, 0, 0, 0
398, 28341508, 5, 2687, 0, 0, 0, 335, 335, 335, 335, 0, 0, 4030, 617, -178, 326, -1784, 17100, 1000, 595, 0, 0, 0, 0, 0
399, 28345333, 5, 2687, 0, 0, 0, 335, 335, 335, 335, 0, 0, 4030, 595, -259, 314, -2404, 17292, 1228, 595, 0, 0, 0, 0, 0
400, 28349209, 5, 2687, 0, 0, 0, 335, 335, 335, 335, 0, 0, 4030, 567, -313, 288, -2548, 17472, 1252, 595, 0, 0, 0, 0, 0
401, 28353117, 5, 2687, 0, 0, 0, 335, 335, 335, 335, 0, 0, 4030, 549, -354, 254, -2688, 17540, 1368, 595, 0, 0, 0, 0, 0
402, 28356941, 5, 2687, 0, 0, 0, 335, 335, 335, 335, 0, 0, 4030, 536, -403, 220, -2624, 17772, 1628, 595, 0, 0, 0, 0, 0
403, 28360806, 5, 2687, 0, 0, 0, 335, 335, 335, 335, 0, 0, 4030, 531, -449, 169, -2484, 17992, 1652, 595, 0, 0, 0, 0, 0
404, 28364670, 5, 2687, 0, 0, 0, 335, 335, 335, 335, 0, 0, 4030, 520, -458, 118, -2492, 18140, 1512, 595, 0, 0, 0, 0, 0
405, 28368534, 5, 2687, 0, 0, 0, 335, 335, 335, 335, 0, 0, 4030, 496, -405, 73, -2320, 18152, 1376, 595, 0, 0, 0, 0, 0
406, 28372447, 5, 2687, 0, 0, 0, 335, 335, 335, 335, 0, 0, 4030, 464, -304, 34, -1992, 18316, 1032, 595, 0, 0, 0, 0, 0
407, 28376273, 5, 2687, 0, 0, 0, 335, 335, 335, 335, 0, 0, 4030, 439, -180, 2, -1452, 18300, 916, 595, 0, 0, 0, 0, 0
408, 28380141, 5, 2687, 0, 0, 0, 335, 335, 335, 335, 0, 0, 4030, 434, -55, -27, -1092, 18084, 764, 595, 0, 0, 0, 0, 0
409, 28384003, 5, 2687, 0, 0, 0, 335, 335, 335, 335, 0, 0, 4030, 446, 38, -41, -396, 17692, 588, 595, 0, 0, 0, 0, 0
410, 28387866, 5, 2687, 0, 0, 0, 335, 335, 335, 335, 0, 0, 4030, 467, 77, -49, 160, 17220, 216, 595, 0, 0, 0, 0, 0
411, 28391739, 5, 2687, 0, 0, 0, 335, 335, 335, 335, 0, 0, 4030, 495, 88, -56, 596, 16924, -408, 595, 0, 0, 0, 0, 0
412, 28395602, 5, 2687, 0, 0, 0, 335, 335, 335, 335, 0, 0, 4030, 508, 98, -48, 1008, 17024, -652, 595, 0, 0, 0, 0, 0
413, 28399465, 5, 2687, 0, 0, 0, 335, 335, 335, 335, 0, 0, 4030, 505, 139, -31, 1056, 17400, -1300, 595, 0, 0, 0, 0, 0
414, 28403478, 5, 2687, 0, 0, 0, 335, 335, 335, 335, 0, 0, 4030, 483, 204, -34, 976, 17524, -1528, 595, 0, 0, 0, 0, 0
415, 28407213, 5, 2687, 0, 0, 0, 335, 335, 335, 335, 0, 0, 4030, 445, 266, -39, 736, 17460, -1824, 595, 0, 0, 0, 0, 0
416, 28411076, 5, 2687, 0, 0, 0, 335, 335, 335, 335, 0, 0, 4030, 401, 294, -61, 548, 17400, -2136, 595, 0, 0, 0, 0, 0
417, 28414937, 5, 2687, 0, 0, 0, 335, 335, 335, 335, 0, 0, 4030, 350, 285, -90, 148, 17296, -2324, 595, 0, 0, 0, 0, 0
418, 28418801, 5, 2687, 0, 0, 0, 335, 335, 335, 335, 0, 0, 4030, 294, 240, -137, -396, 17244, -2588, 595, 0, 0, 0, 0, 0
419, 28422671, 5, 2687, 0, 0, 0, 335, 335, 335, 335, 0, 0, 4030, 230, 181, -200, -988, 17036, -2604, 595, 0, 0, 0, 0, 0
420, 28426543, 5, 2687, 0, 0, 0, 335, 335, 335, 335, 0, 0, 4030, 157, 126, -265, -1424, 16508, -2756, 595, 0, 0, 0, 0, 0
421, 28430404, 5, 2687, 0, 0, 0, 335, 335, 335, 335, 0, 0, 4030, 72, 84, -332, -1928, 16300, -2404, 595, 0, 0, 0, 0, 0
422, 28434313, 5, 2687, 0, 0, 0, 335, 335, 335, 335, 0, 0, 4030, -18, 35, -400, -2064, 16240, -2224, 595, 0, 0, 0, 0, 0
423, 28438136, 5, 2687, 0, 0, 0, 335, 335, 335, 335, 0, 0, 4030, -103, 5, -457, -2256, 16140, -1972, 595, 0, 0, 0, 0, 0
424, 28442006, 5, 2687, 0, 0, 0, 335, 335, 335, 335, 0, 0, 4030, -175, -8, -507, -2232, 16284, -1440, 595, 0, 0, 0, 0, 0
425, 28445874, 5, 2687, 0, 0, 0, 335, 335, 335, 335, 0, 0, 4030, -227, -7, -543, -1896, 16420, -976, 595, 0, 0, 0, 0, 0
426, 28449740, 5, 2687, 0, 0, 0, 335, 335, 335, 335, 0, 0, 4030, -248, -10, -568, -1492, 16808, -84, 595, 0, 0, 0, 0, 0
427, 28453683, 5, 2687, 0, 0, 0, 335, 335, 335, 335, 0, 0, 4030, -251, -16, -573, -984, 17308, 676, 602, 0, 0, 0, 0, 0
428, 28457469, 5, 2687, 0, 0, 0, 335, 335, 335, 335, 0, 0, 4030, -237, -9, -566, -572, 17624, 1108, 602, 0, 0, 0, 0, 0
429, 28461339, 5, 2687, 0, 0, 0, 335, 335, 335, 335, 0, 0, 4030, -201, 14, -542, -144, 17664, 1668, 602, 0, 0, 0, 0, 0
430, 28465251, 5, 2687, 0, 0, 0, 335, 335, 335, 335, 0, 0, 4030, -148, 35, -508, 420, 17620, 1960, 602, 0, 0, 0, 0, 0
431, 28469077, 5, 2687, 0, 0, 0, 335, 335, 335, 335, 0, 0, 4030, -66, 34, -468, 1256, 17904, 2008, 602, 0, 0, 0, 0, 0
432, 28472940, 5, 2687, 0, 0, 0, 335, 335, 335, 335, 0, 0, 4030, 23, 6, -416, 1656, 18048, 2032, 602, 0, 0, 0, 0, 0
433, 28476814, 5, 2687, 0, 0, 0, 335, 335, 335, 335, 0, 0, 4030, 116, -107, -339, 2296, 18048, 2384, 602, 0, 0, 0, 0, 0
434, 28480680, 5, 2687, 0, 0, 0, 335, 335, 335, 335, 0, 0, 4030, 231, -299, -251, 2436, 18124, 2280, 602, 0, 0, 0, 0, 0
435, 28484546, 5, 2687, 0, 0, 0, 335, 335, 335, 335, 0, 0, 4030, 340, -518, -153, 2592, 18268, 2380, 602, 0, 0, 0, 0, 0
436, 28488422, 5, 2687, 0, 0, 0, 335, 335, 335, 335, 0, 0, 4030, 453, -734, -41, 2440, 18328, 2396, 602, 0, 0, 0, 0, 0
437, 28492279, 5, 2687, 0, 0, 0, 335, 335, 335, 335, 0, 0, 4030, 563, -866, 48, 1936, 18176, 2296, 602, 0, 0, 0, 0, 0
438, 28496189, 5, 2687, 0, 0, 0, 335, 335, 335, 335, 0, 0, 4030, 675, -858, 109, 1400, 17720, 2052, 602, 0, 0, 0, 0, 0
439, 28500003, 5, 2687, 0, 0, 0, 335, 335, 335, 335, 0, 0, 4030, 764, -752, 162, 984, 17588, 2176, 602, 0, 0, 0, 0, 0
440, 28503942, 5, 2687, 0, 0, 0, 335, 335, 335, 335, 0, 0, 4030, 861, -620, 179, 668, 17404, 2164, 595, 0, 0, 0, 0, 0
441, 28507748, 5, 2687, 0, 0, 0, 335, 335, 335, 335, 0, 0, 4030, 952, -485, 210, 396, 17320, 2160, 595, 0, 0, 0, 0, 0
442, 28511602, 5, 2687, 0, 0, 0, 335, 335, 335, 335, 0, 0, 4030, 1041, -338, 234, 216, 17004, 1888, 595, 0, 0, 0, 0, 0
443, 28515472, 5, 2687, 0, 0, 0, 335, 335, 335, 335, 0, 0, 4030, 1110, -166, 241, -176, 17552, 1740, 595, 0, 0, 0, 0, 0
444, 28519345, 5, 2687, 0, 0, 0, 335, 335, 335, 335, 0, 0, 4030, 1137, 34, 245, -812, 18668, 996, 595, 0, 0, 0, 0, 0
445, 28523208, 5, 2687, 0, 0, 0, 335, 335, 335, 335, 0, 0, 4030, 1139, 241, 236, -1332, 19056, 444, 595, 0, 0, 0, 0, 0
446, 28527129, 5, 2687, 0, 0, 0, 335, 335, 335, 335, 0, 0, 4030, 1124, 421, 222, -1796, 18700, 424, 595, 0, 0, 0, 0, 0
447, 28530952, 5, 2687, 0, 0, 0, 335, 335, 335, 335, 0, 0, 4030, 1125, 530, 168, -2444, 17840, 168, 595, 0, 0, 0, 0, 0
448, 28534814, 5, 2687, 0, 0, 0, 335, 335, 335, 335, 0, 0, 4030, 1116, 578, 87, -2756, 17072, -368, 595, 0, 0, 0, 0, 0
449, 28538683, 5, 2687, 0, 0, 0, 335, 335, 335, 335, 0, 0, 4030, 1109, 594, -19, -3088, 16076, -940, 595, 0, 0, 0, 0, 0
450, 28542545, 5, 2687, 0, 0, 0, 335, 335, 335, 335, 0, 0, 4030, 1084, 550, -130, -3176, 15772, -1576, 595, 0, 0, 0, 0, 0
451, 28546417, 5, 2687, 0, 0, 0, 335, 335, 335, 335, 0, 0, 4030, 1053, 438, -227, -2752, 15980, -2172, 595, 0, 0, 0, 0, 0
452, 28550572, 5, 2687, 0, 0, 0, 335, 335, 335, 335, 0, 0, 4030, 1014, 321, -320, -2512, 15900, -2768, 595, 0, 0, 0, 0, 0
453, 28554137, 5, 2687, 0, 0, 0, 335, 335, 335, 335, 0, 0, 4030, 940, 204, -375, -2004, 16052, -2884, 595, 0, 0, 0, 0, 0
454, 28558056, 5, 2687, 0, 0, 0, 335, 335, 335, 335, 0, 0, 4030, 846, 123, -410, -1688, 16036, -3072, 595, 0, 0, 0, 0, 0
455, 28561879, 5, 2687, 0, 0, 0, 335, 335, 335, 335, 0, 0, 4030, 747, 70, -417, -788, 16572, -3096, 595, 0, 0, 0, 0, 0
456, 28565741, 5, 2687, 0, 0, 0, 335, 335, 335, 335, 0, 0, 4030, 643, 42, -402, -320, 16900, -2836, 595, 0, 0, 0, 0, 0
457, 28569623, 5, 2687, 0, 0, 0, 335, 335, 335, 335, 0, 0, 4030, 553, 17, -359, 700, 17248, -2900, 595, 0, 0, 0, 0, 0
458, 28573490, 5, 2687, 0, 0, 0, 335, 335, 335, 335, 0, 0, 4030, 470, -1, -294, 1468, 17420, -2492, 595, 0, 0, 0, 0, 0
459, 28577348, 5, 2687, 0, 0, 0, 335, 335, 335, 335, 0, 0, 4030, 418, -40, -218, 2200, 17060, -2456, 595, 0, 0, 0, 0, 0
460, 28581216, 5, 2687, 0, 0, 0, 335, 335, 335, 335, 0, 0, 4030, 382, -91, -135, 2584, 16740, -2272, 595, 0, 0, 0, 0, 0
461, 28585081, 5, 2687, 0, 0, 0, 335, 335, 335, 335, 0, 0, 4030, 372, -157, -45, 2856, 16460, -1964, 595, 0, 0, 0, 0, 0
462, 28588990, 5, 2687, 0, 0, 0, 335, 335, 335, 335, 0, 0, 4030, 377, -220, 55, 2920, 16484, -2088, 595, 0, 0, 0, 0, 0
463, 28592815, 5, 2687, 0, 0, 0, 335, 335, 335, 335, 0, 0, 4030, 375, -247, 147, 2920, 16552, -2032, 595, 0, 0, 0, 0, 0
464, 28596679, 5, 2687, 0, 0, 0, 335, 335, 335, 335, 0, 0, 4030, 358, -259, 238, 2764, 16528, -2176, 595, 0, 0, 0, 0, 0
465, 28600596, 5, 2687, 0, 0, 0, 335, 335, 335, 335, 0, 0, 4030, 332, -282, 321, 2716, 16864, -2604, 595, 0, 0, 0, 0, 0
466, 28604413, 5, 2687, 0, 0, 0, 335, 335, 335, 335, 0, 0, 4030, 300, -303, 397, 2604, 17464, -2920, 595, 0, 0, 0, 0, 0
467, 28608286, 5, 2687, 0, 0, 0, 335, 335, 335, 335, 0, 0, 4030, 268, -316, 449, 2212, 18028, -2932, 595, 0, 0, 0, 0, 0
468, 28612155, 5, 2687, 0, 0, 0, 335, 335, 335, 335, 0, 0, 4030, -67, 394, 553, -3772, 16672, 40, 595, 0, 0, 0, 0, 0
469, 28616023, 5, 2687, 0, 0, 0, 335, 335, 335, 335, 0, 0, 4030, -141, 852, 502, -1672, 17492, -2156, 595, 0, 0, 0, 0, 0
470, 28619928, 5, 2687, 0, 0, 0, 335, 335, 335, 335, 0, 0, 4030, -166, 1121, 455, -140, 18200, -1584, 595, 0, 0, 0, 0, 0
471, 28623762, 5, 2687, 0, 0, 0, 335, 335, 335, 335, 0, 0, 4030, -152, 831, 387, -1016, 18812, -24, 595, 0, 0, 0, 0, 0
472, 28627617, 5, 2687, 0, 0, 0, 335, 335, 335, 335, 0, 0, 4030, -118, 717, 291, -1100, 18608, -1752, 595, 0, 0, 0, 0, 0
473, 28631483, 5, 2687, 0, 0, 0, 335, 335, 335, 335, 0, 0, 4030, -69, 792, 167, -3008, 18624, 1000, 595, 0, 0, 0, 0, 0
474, 28635346, 5, 2687, 0, 0, 0, 335, 335, 335, 335, 0, 0, 4030, -2, 662, 56, -2660, 17076, -452, 595, 0, 0, 0, 0, 0
475, 28639214, 5, 2687, 0, 0, 0, 335, 335, 335, 335, 0, 0, 4030, 64, 664, -51, -2208, 16900, -900, 595, 0, 0, 0, 0, 0
476, 28643086, 5, 2687, 0, 0, 0, 335, 335, 335, 335, 0, 0, 4030, 99, 722, -132, -2932, 17032, -112, 595, 0, 0, 0, 0, 0
477, 28646948, 5, 2687, 0, 0, 0, 335, 335, 335, 335, 0, 0, 4030, 104, 736, -215, -1888, 17136, -1612, 595, 0, 0, 0, 0, 0
478, 28650933, 5, 2687, 0, 0, 0, 335, 335, 335, 335, 0, 0, 4030, 111, 778, -265, -864, 17140, -2036, 595, 0, 0, 0, 0, 0
479, 28654680, 5, 2687, 0, 0, 0, 335, 335, 335, 335, 0, 0, 4030, 104, 672, -303, -492, 17104, -1700, 595, 0, 0, 0, 0, 0
480, 28658553, 5, 2687, 0, 0, 0, 335, 335, 335, 335, 0, 0, 4030, 78, 577, -309, 344, 17212, -3148, 595, 0, 0, 0, 0, 0
481, 28662424, 5, 2687, 0, 0, 0, 335, 335, 335, 335, 0, 0, 4030, 22, 586, -290, 312, 17500, -2548, 595, 0, 0, 0, 0, 0
482, 28666287, 5, 2687, 0, 0, 0, 335, 335, 335, 335, 0, 0, 4030, -23, 521, -252, 864, 18016, -3100, 595, 0, 0, 0, 0, 0
483, 28670146, 5, 2687, 0, 0, 0, 335, 335, 335, 335, 0, 0, 4030, -44, 498, -205, 1052, 17364, -2548, 595, 0, 0, 0, 0, 0
484, 28674017, 5, 2687, 0, 0, 0, 335, 335, 335, 335, 0, 0, 4030, -60, 470, -164, 556, 16964, -1760, 595, 0, 0, 0, 0, 0
485, 28677889, 5, 2687, 0, 0, 0, 335, 335, 335, 335, 0, 0, 4030, -65, 450, -131, 752, 16696, -2124, 595, 0, 0, 0, 0, 0
486, 28681799, 5, 2687, 0, 0, 0, 335, 335, 335, 335, 0, 0, 4030, -69, 535, -96, 600, 16632, -1460, 595, 0, 0, 0, 0, 0
487, 28685620, 5, 2687, 0, 0, 0, 335, 335, 335, 335, 0, 0, 4030, -63, 546, -70, 460, 16632, -1192, 595, 0, 0, 0, 0, 0
488, 28689478, 5, 2687, 0, 0, 0, 335, 335, 335, 335, 0, 0, 4030, -54, 613, -65, 724, 16440, -1344, 595, 0, 0, 0, 0, 0
489, 28693349, 5, 2687, 0, 0, 0, 335, 335, 335, 335, 0, 0, 4030, -53, 681, -48, 584, 16584, -1096, 595, 0, 0, 0, 0, 0
490, 28697219, 5, 2687, 0, 0, 0, 335, 335, 335, 335, 0, 0, 4030, -54, 722, -41, 688, 16772, -2044, 595, 0, 0, 0, 0, 0
491, 28701162, 5, 2687, 0, 0, 0, 335, 335, 335, 335, 0, 0, 4030, -51, 808, -41, 520, 16952, -1292, 595, 0, 0, 0, 0, 0
492, 28704943, 5, 2687, 0, 0, 0, 335, 335, 335, 335, 0, 0, 4030, -31, 733, -32, 664, 16836, -1188, 595, 0, 0, 0, 0, 0
493, 28708821, 5, 2687, 0, 0, 0, 335, 335, 335, 335, 0, 0, 4030, 0, 676, -18, 1280, 16872, -1524, 595, 0, 0, 0, 0, 0
494, 28712731, 5, 2687, 0, 0, 0, 335, 335, 335, 335, 0, 0, 4030, 39, 569, 5, 888, 16924, -896, 595, 0, 0, 0, 0, 0
495, 28716554, 5, 2687, 0, 0, 0, 335, 335, 335, 335, 0, 0, 4030, 58, 464, 18, 1356, 16836, -1720, 595, 0, 0, 0, 0, 0
496, 28720417, 5, 2687, 0, 0, 0, 335, 335, 335, 335, 0, 0, 4030, 61, 432, 48, 908, 17012, -1860, 595, 0, 0, 0, 0, 0
497, 28724280, 5, 2687, 0, 0, 0, 335, 335, 335, 335, 0, 0, 4030, 45, 361, 74, 1064, 16944, -2336, 595, 0, 0, 0, 0, 0
498, 28728153, 5, 2687, 0, 0, 0, 335, 335, 335, 335, 0, 0, 4030, 5, 361, 96, 908, 17204, -2948, 595, 0, 0, 0, 0, 0
499, 28732016, 5, 2687, 0, 0, 0, 335, 335, 335, 335, 0, 0, 4030, -39, 368, 124, 808, 17076, -2448, 595, 0, 0, 0, 0, 0
500, 28735879, 5, 2687, 0, 0, 0, 335, 335, 335, 335, 0, 0, 4030, -84, 349, 150, 796, 17152, -3060, 595, 0, 0, 0, 0, 0
501, 28739760, 5, 2687, 0, 0, 0, 335, 335, 335, 335, 0, 0, 4030, -137, 438, 176, 528, 17268, -2804, 595, 0, 0, 0, 0, 0
502, 28743662, 5, 2687, 0, 0, 0, 335, 335, 335, 335, 0, 0, 4030, -181, 515, 198, 152, 17120, -2224, 595, 0, 0, 0, 0, 0
503, 28747484, 5, 2687, 0, 0, 0, 335, 335, 335, 335, 0, 0, 4030, -204, 533, 210, 488, 16956, -2332, 595, 0, 0, 0, 0, 0
504, 28751410, 5, 2687, 0, 0, 0, 335, 335, 335, 335, 0, 0, 4030, -220, 552, 208, -16, 17100, -1684, 602, 0, 0, 0, 0, 0
