index_log, time_stamp, mode, thrust, roll, pitch, yaw, ae[0], ae[1], ae[2], ae[3], phi, theta, psi, sp, sq, sr, sax, say, saz, bat_volt, P, P1, P2, temperature, pressure
0, 6712953, 0, 0, 0, 0, 0, 0, 0, 0, 0, 222, -826, -840, -40, 33, 34, -1686, 1250, 14830, 602, 0, 0, 0, 0, 0
1, 6722929, 0, 0, 0, 0, 0, 0, 0, 0, 0, 222, -825, -837, -40, 33, 34, -1704, 1244, 14850, 602, 0, 0, 0, 0, 0
2, 6732926, 0, 0, 0, 0, 0, 0, 0, 0, 0, 221, -824, -833, -41, 33, 34, -1686, 1254, 14830, 602, 0, 0, 0, 0, 0
3, 6742907, 0, 0, 0, 0, 0, 0, 0, 0, 0, 221, -823, -830, -42, 33, 34, -1674, 1238, 14874, 602, 0, 0, 0, 0, 0
4, 6752844, 0, 0, 0, 0, 0, 0, 0, 0, 0, 221, -822, -826, -41, 33, 34, -1676, 1232, 14854, 602, 0, 0, 0, 0, 0
5, 6762816, 0, 0, 0, 0, 0, 0, 0, 0, 0, 220, -821, -823, -41, 34, 34, -1662, 1224, 14848, 595, 0, 0, 0, 0, 0
6, 6772800, 0, 0, 0, 0, 0, 0, 0, 0, 0, 220, -820, -820, -40, 33, 34, -1666, 1240, 14828, 595, 0, 0, 0, 0, 0
7, 6782786, 0, 0, 0, 0, 0, 0, 0, 0, 0, 220, -819, -816, -40, 34, 34, -1668, 1240, 14844, 595, 0, 0, 0, 0, 0
8, 6792746, 0, 0, 0, 0, 0, 0, 0, 0, 0, 220, -818, -813, -39, 34, 34, -1704, 1250, 14848, 595, 0, 0, 0, 0, 0
9, 6802751, 0, 0, 0, 0, 0, 0, 0, 0, 0, 220, -817, -809, -40, 34, 34, -1694, 1286, 14870, 595, 0, 0, 0, 0, 0
10, 6812724, 0, 0, 0, 0, 0, 0, 0, 0, 0, 220, -816, -806, -40, 34, 34, -1680, 1272, 14854, 595, 0, 0, 0, 0, 0
11, 6822715, 0, 0, 0, 0, 0, 0, 0, 0, 0, 220, -815, -803, -41, 34, 34, -1672, 1256, 14850, 595, 0, 0, 0, 0, 0
12, 6832683, 0, 0, 0, 0, 0, 0, 0, 0, 0, 220, -814, -799, -41, 34, 34, -1654, 1256, 14850, 595, 0, 0, 0, 0, 0
13, 6842669, 0, 0, 0, 0, 0, 0, 0, 0, 0, 219, -813, -796, -42, 33, 35, -1642, 1256, 14882, 595, 0, 0, 0, 0, 0
14, 6852641, 0, 0, 0, 0, 0, 0, 0, 0, 0, 219, -812, -792, -42, 33, 34, -1644, 1260, 14874, 595, 0, 0, 0, 0, 0
15, 6862622, 0, 0, 0, 0, 0, 0, 0, 0, 0, 219, -811, -789, -41, 33, 34, -1678, 1268, 14834, 595, 0, 0, 0, 0, 0
16, 6872605, 0, 0, 0, 0, 0, 0, 0, 0, 0, 219, -810, -786, -41, 33, 34, -1704, 1264, 14844, 595, 0, 0, 0, 0, 0
17, 6882593, 0, 0, 0, 0, 0, 0, 0, 0, 0, 219, -809, -782, -41, 33, 34, -1700, 1264, 14818, 595, 0, 0, 0, 0, 0
18, 6892565, 0, 0, 0, 0, 0, 0, 0, 0, 0, 219, -808, -779, -41, 34, 34, -1704, 1264, 14828, 595, 0, 0, 0, 0, 0
19, 6902554, 0, 0, 0, 0, 0, 0, 0, 0, 0, 218, -808, -775, -41, 34, 34, -1680, 1242, 14838, 595, 0, 0, 0, 0, 0
20, 6912534, 0, 0, 0, 0, 0, 0, 0, 0, 0, 218, -807, -772, -41, 33, 34, -1680, 1228, 14838, 595, 0, 0, 0, 0, 0
21, 6922508, 0, 0, 0, 0, 0, 0, 0, 0, 0, 218, -806, -769, -41, 33, 34, -1676, 1234, 14834, 595, 0, 0, 0, 0, 0
22, 6932492, 0, 0, 0, 0, 0, 0, 0, 0, 0, 218, -805, -765, -41, 33, 34, -1666, 1234, 14844, 595, 0, 0, 0, 0, 0
23, 6942476, 0, 0, 0, 0, 0, 0, 0, 0, 0, 217, -804, -762, -41, 33, 34, -1678, 1254, 14868, 595, 0, 0, 0, 0, 0
24, 6952448, 0, 0, 0, 0, 0, 0, 0, 0, 0, 217, -803, -758, -41, 34, 34, -1670, 1246, 14850, 595, 0, 0, 0, 0, 0
25, 6962424, 0, 0, 0, 0, 0, 0, 0, 0, 0, 217, -802, -755, -41, 34, 33, -1672, 1230, 14864, 595, 0, 0, 0, 0, 0
26, 6972393, 0, 0, 0, 0, 0, 0, 0, 0, 0, 217, -801, -752, -41, 33, 34, -1674, 1248, 14836, 595, 0, 0, 0, 0, 0
27, 6982388, 0, 0, 0, 0, 0, 0, 0, 0, 0, 217, -801, -748, -42, 33, 33, -1658, 1244, 14862, 595, 0, 0, 0, 0, 0
28, 6992358, 0, 0, 0, 0, 0, 0, 0, 0, 0, 216, -800, -745, -42, 33, 34, -1654, 1240, 14840, 595, 0, 0, 0, 0, 0
29, 7002331, 0, 0, 0, 0, 0, 0, 0, 0, 0, 216, -799, -742, -42, 33, 34, -1686, 1238, 14824, 595, 0, 0, 0, 0, 0
30, 7012331, 0, 0, 0, 0, 0, 0, 0, 0, 0, 216, -798, -738, -42, 33, 34, -1682, 1252, 14818, 595, 0, 0, 0, 0, 0
31, 7022304, 0, 0, 0, 0, 0, 0, 0, 0, 0, 215, -797, -735, -42, 33, 34, -1682, 1248, 14848, 595, 0, 0, 0, 0, 0
32, 7032277, 0, 0, 0, 0, 0, 0, 0, 0, 0, 215, -796, -731, -42, 33, 34, -1680, 1238, 14848, 595, 0, 0, 0, 0, 0
33, 7042271, 0, 0, 0, 0, 0, 0, 0, 0, 0, 215, -796, -728, -41, 33, 34, -1694, 1236, 14876, 595, 0, 0, 0, 0, 0
34, 7052248, 0, 0, 0, 0, 0, 0, 0, 0, 0, 214, -795, -725, -41, 33, 34, -1688, 1232, 14856, 595, 0, 0, 0, 0, 0
35, 7062226, 0, 0, 0, 0, 0, 0, 0, 0, 0, 214, -794, -721, -40, 34, 34, -1664, 1248, 14822, 595, 0, 0, 0, 0, 0
36, 7072210, 0, 0, 0, 0, 0, 0, 0, 0, 0, 214, -793, -718, -40, 34, 34, -1670, 1258, 14818, 595, 0, 0, 0, 0, 0
37, 7082190, 0, 0, 0, 0, 0, 0, 0, 0, 0, 214, -792, -714, -41, 33, 34, -1668, 1264, 14800, 595, 0, 0, 0, 0, 0
38, 7092166, 0, 0, 0, 0, 0, 0, 0, 0, 0, 214, -792, -711, -41, 33, 34, -1670, 1260, 14820, 595, 0, 0, 0, 0, 0
39, 7102144, 0, 0, 0, 0, 0, 0, 0, 0, 0, 214, -791, -708, -42, 33, 34, -1658, 1262, 14840, 595, 0, 0, 0, 0, 0
40, 7112138, 0, 0, 0, 0, 0, 0, 0, 0, 0, 214, -790, -704, -42, 32, 33, -1652, 1256, 14850, 595, 0, 0, 0, 0, 0
41, 7122113, 0, 0, 0, 0, 0, 0, 0, 0, 0, 214, -789, -701, -42, 32, 34, -1648, 1270, 14846, 595, 0, 0, 0, 0, 0
42, 7132082, 0, 0, 0, 0, 0, 0, 0, 0, 0, 213, -789, -697, -42, 32, 34, -1678, 1256, 14828, 595, 0, 0, 0, 0, 0
43, 7142068, 0, 0, 0, 0, 0, 0, 0, 0, 0, 213, -788, -694, -41, 32, 34, -1678, 1232, 14830, 595, 0, 0, 0, 0, 0
44, 7152056, 0, 0, 0, 0, 0, 0, 0, 0, 0, 213, -787, -691, -42, 33, 34, -1682, 1250, 14806, 595, 0, 0, 0, 0, 0
45, 7162035, 0, 0, 0, 0, 0, 0, 0, 0, 0, 213, -787, -687, -41, 33, 34, -1678, 1244, 14826, 595, 0, 0, 0, 0, 0
46, 7172006, 0, 0, 0, 0, 0, 0, 0, 0, 0, 212, -786, -684, -41, 33, 34, -1656, 1260, 14804, 595, 0, 0, 0, 0, 0
47, 7181993, 0, 0, 0, 0, 0, 0, 0, 0, 0, 212, -785, -680, -41, 33, 34, -1662, 1260, 14822, 595, 0, 0, 0, 0, 0
48, 7192136, 0, 0, 0, 0, 0, 0, 0, 0, 0, 212, -784, -677, -41, 34, 34, -1660, 1246, 14826, 595, 0, 0, 0, 0, 0
49, 7201947, 0, 0, 0, 0, 0, 0, 0, 0, 0, 212, -783, -674, -41, 34, 34, -1674, 1270, 14810, 595, 0, 0, 0, 0, 0
50, 7211940, 0, 0, 0, 0, 0, 0, 0, 0, 0, 212, -783, -670, -41, 33, 34, -1670, 1278, 14808, 595, 0, 0, 0, 0, 0
51, 7221915, 0, 0, 0, 0, 0, 0, 0, 0, 0, 212, -782, -667, -42, 33, 34, -1682, 1280, 14826, 595, 0, 0, 0, 0, 0
52, 7231904, 0, 0, 0, 0, 0, 0, 0, 0, 0, 212, -781, -663, -42, 33, 34, -1676, 1270, 14818, 595, 0, 0, 0, 0, 0
53, 7241877, 0, 0, 0, 0, 0, 0, 0, 0, 0, 212, -781, -660, -43, 32, 34, -1688, 1268, 14822, 595, 0, 0, 0, 0, 0
54, 7251862, 0, 0, 0, 0, 0, 0, 0, 0, 0, 211, -780, -657, -42, 33, 34, -1686, 1242, 14832, 595, 0, 0, 0, 0, 0
55, 7261845, 0, 0, 0, 0, 0, 0, 0, 0, 0, 211, -779, -653, -42, 33, 34, -1678, 1240, 14826, 595, 0, 0, 0, 0, 0
56, 7271832, 0, 0, 0, 0, 0, 0, 0, 0, 0, 211, -779, -650, -42, 33, 34, -1674, 1236, 14830, 595, 0, 0, 0, 0, 0
57, 7281809, 0, 0, 0, 0, 0, 0, 0, 0, 0, 210, -778, -646, -42, 33, 34, -1658, 1244, 14828, 595, 0, 0, 0, 0, 0
58, 7291786, 0, 0, 0, 0, 0, 0, 0, 0, 0, 210, -777, -643, -42, 33, 33, -1650, 1252, 14824, 595, 0, 0, 0, 0, 0
59, 7301773, 0, 0, 0, 0, 0, 0, 0, 0, 0, 210, -777, -640, -42, 33, 34, -1652, 1244, 14826, 595, 0, 0, 0, 0, 0
60, 7311743, 0, 0, 0, 0, 0, 0, 0, 0, 0, 210, -776, -636, -42, 33, 34, -1666, 1262, 14804, 595, 0, 0, 0, 0, 0
61, 7321735, 0, 0, 0, 0, 0, 0, 0, 0, 0, 210, -775, -633, -41, 33, 34, -1658, 1278, 14836, 595, 0, 0, 0, 0, 0
62, 7331712, 0, 0, 0, 0, 0, 0, 0, 0, 0, 210, -775, -630, -42, 33, 34, -1674, 1282, 14834, 595, 0, 0, 0, 0, 0
63, 7341701, 0, 0, 0, 0, 0, 0, 0, 0, 0, 210, -774, -626, -42, 33, 34, -1666, 1266, 14828, 595, 0, 0, 0, 0, 0
64, 7351672, 0, 0, 0, 0, 0, 0, 0, 0, 0, 209, -773, -623, -42, 32, 34, -1666, 1270, 14834, 595, 0, 0, 0, 0, 0
65, 7361646, 0, 0, 0, 0, 0, 0, 0, 0, 0, 209, -773, -619, -42, 32, 34, -1664, 1276, 14814, 595, 0, 0, 0, 0, 0
66, 7371625, 0, 0, 0, 0, 0, 0, 0, 0, 0, 209, -772, -616, -42, 32, 34, -1666, 1246, 14832, 595, 0, 0, 0, 0, 0
67, 7381609, 0, 0, 0, 0, 0, 0, 0, 0, 0, 209, -772, -613, -43, 32, 34, -1674, 1282, 14850, 595, 0, 0, 0, 0, 0
68, 7391590, 0, 0, 0, 0, 0, 0, 0, 0, 0, 209, -771, -609, -42, 33, 34, -1676, 1286, 14858, 595, 0, 0, 0, 0, 0
69, 7401579, 0, 0, 0, 0, 0, 0, 0, 0, 0, 209, -770, -606, -42, 33, 34, -1678, 1288, 14866, 595, 0, 0, 0, 0, 0
70, 7411554, 0, 0, 0, 0, 0, 0, 0, 0, 0, 209, -770, -602, -41, 33, 34, -1680, 1276, 14814, 595, 0, 0, 0, 0, 0
71, 7421543, 0, 0, 0, 0, 0, 0, 0, 0, 0, 209, -769, -599, -41, 33, 34, -1694, 1274, 14804, 595, 0, 0, 0, 0, 0
72, 7431516, 0, 0, 0, 0, 0, 0, 0, 0, 0, 208, -769, -596, -42, 33, 34, -1684, 1244, 14844, 595, 0, 0, 0, 0, 0
73, 7441491, 0, 0, 0, 0, 0, 0, 0, 0, 0, 208, -768, -592, -42, 33, 34, -1666, 1236, 14860, 595, 0, 0, 0, 0, 0
74, 7451488, 0, 0, 0, 0, 0, 0, 0, 0, 0, 208, -768, -589, -42, 34, 34, -1678, 1242, 14854, 595, 0, 0, 0, 0, 0
75, 7461458, 0, 0, 0, 0, 0, 0, 0, 0, 0, 208, -767, -585, -42, 33, 34, -1682, 1244, 14838, 595, 0, 0, 0, 0, 0
76, 7471439, 0, 0, 0, 0, 0, 0, 0, 0, 0, 207, -766, -582, -42, 33, 33, -1674, 1266, 14814, 595, 0, 0, 0, 0, 0
77, 7481416, 0, 0, 0, 0, 0, 0, 0, 0, 0, 207, -766, -579, -42, 32, 34, -1678, 1270, 14822, 595, 0, 0, 0, 0, 0
78, 7491393, 0, 0, 0, 0, 0, 0, 0, 0, 0, 207, -765, -575, -43, 32, 34, -1672, 1288, 14818, 595, 0, 0, 0, 0, 0
79, 7501394, 0, 0, 0, 0, 0, 0, 0, 0, 0, 207, -765, -572, -43, 32, 34, -1678, 1272, 14802, 595, 0, 0, 0, 0, 0
80, 7511360, 0, 0, 0, 0, 0, 0, 0, 0, 0, 207, -765, -569, -43, 32, 34, -1674, 1256, 14820, 595, 0, 0, 0, 0, 0
81, 7521339, 0, 0, 0, 0, 0, 0, 0, 0, 0, 206, -764, -565, -42, 33, 34, -1676, 1264, 14814, 595, 0, 0, 0, 0, 0
82, 7531322, 0, 0, 0, 0, 0, 0, 0, 0, 0, 206, -763, -562, -41, 33, 33, -1666, 1264, 14834, 595, 0, 0, 0, 0, 0
83, 7541302, 0, 0, 0, 0, 0, 0, 0, 0, 0, 206, -763, -558, -41, 34, 33, -1662, 1264, 14844, 595, 0, 0, 0, 0, 0
84, 7551278, 0, 0, 0, 0, 0, 0, 0, 0, 0, 206, -762, -555, -41, 34, 34, -1654, 1268, 14858, 595, 0, 0, 0, 0, 0
85, 7561271, 0, 0, 0, 0, 0, 0, 0, 0, 0, 206, -761, -552, -41, 33, 34, -1642, 1270, 14878, 595, 0, 0, 0, 0, 0
86, 7571242, 0, 0, 0, 0, 0, 0, 0, 0, 0, 206, -761, -548, -42, 33, 34, -1634, 1284, 14858, 595, 0, 0, 0, 0, 0
87, 7581223, 0, 0, 0, 0, 0, 0, 0, 0, 0, 206, -760, -545, -42, 33, 34, -1618, 1268, 14842, 595, 0, 0, 0, 0, 0
88, 7591213, 0, 0, 0, 0, 0, 0, 0, 0, 0, 206, -759, -542, -42, 33, 33, -1638, 1276, 14868, 595, 0, 0, 0, 0, 0
89, 7601191, 0, 0, 0, 0, 0, 0, 0, 0, 0, 206, -759, -538, -43, 33, 34, -1662, 1268, 14868, 595, 0, 0, 0, 0, 0
90, 7611161, 0, 0, 0, 0, 0, 0, 0, 0, 0, 206, -758, -535, -43, 32, 34, -1674, 1268, 14838, 595, 0, 0, 0, 0, 0
91, 7621157, 0, 0, 0, 0, 0, 0, 0, 0, 0, 206, -758, -531, -43, 32, 34, -1680, 1270, 14816, 595, 0, 0, 0, 0, 0
92, 7631137, 0, 0, 0, 0, 0, 0, 0, 0, 0, 205, -757, -528, -43, 33, 34, -1682, 1270, 14804, 595, 0, 0, 0, 0, 0
93, 7641109, 0, 0, 0, 0, 0, 0, 0, 0, 0, 205, -757, -525, -43, 33, 34, -1684, 1264, 14800, 595, 0, 0, 0, 0, 0
94, 7651085, 0, 0, 0, 0, 0, 0, 0, 0, 0, 205, -756, -521, -42, 33, 34, -1668, 1254, 14826, 595, 0, 0, 0, 0, 0
95, 7661072, 0, 0, 0, 0, 0, 0, 0, 0, 0, 205, -756, -518, -42, 33, 34, -1654, 1252, 14838, 595, 0, 0, 0, 0, 0
96, 7671050, 0, 0, 0, 0, 0, 0, 0, 0, 0, 205, -755, -514, -42, 33, 34, -1666, 1272, 14842, 595, 0, 0, 0, 0, 0
97, 7681023, 0, 0, 0, 0, 0, 0, 0, 0, 0, 204, -755, -511, -42, 33, 34, -1672, 1264, 14836, 595, 0, 0, 0, 0, 0
98, 7691021, 0, 0, 0, 0, 0, 0, 0, 0, 0, 204, -754, -507, -42, 33, 35, -1660, 1254, 14850, 595, 0, 0, 0, 0, 0
99, 7700995, 0, 0, 0, 0, 0, 0, 0, 0, 0, 204, -754, -504, -42, 32, 35, -1672, 1232, 14850, 595, 0, 0, 0, 0, 0
100, 7710969, 0, 0, 0, 0, 0, 0, 0, 0, 0, 204, -753, -501, -42, 33, 34, -1666, 1240, 14844, 595, 0, 0, 0, 0, 0
101, 7720966, 0, 0, 0, 0, 0, 0, 0, 0, 0, 204, -753, -497, -41, 32, 34, -1670, 1240, 14850, 595, 0, 0, 0, 0, 0
102, 7730941, 0, 0, 0, 0, 0, 0, 0, 0, 0, 203, -752, -494, -42, 33, 34, -1680, 1248, 14856, 595, 0, 0, 0, 0, 0
103, 7740913, 0, 0, 0, 0, 0, 0, 0, 0, 0, 203, -752, -490, -42, 33, 34, -1674, 1270, 14878, 595, 0, 0, 0, 0, 0
104, 7750880, 0, 0, 0, 0, 0, 0, 0, 0, 0, 203, -751, -487, -42, 33, 34, -1678, 1276, 14864, 595, 0, 0, 0, 0, 0
105, 7760862, 0, 0, 0, 0, 0, 0, 0, 0, 0, 203, -751, -484, -42, 33, 33, -1668, 1290, 14860, 595, 0, 0, 0, 0, 0
106, 7770850, 0, 0, 0, 0, 0, 0, 0, 0, 0, 203, -750, -480, -42, 33, 34, -1640, 1284, 14854, 595, 0, 0, 0, 0, 0
107, 7780819, 0, 0, 0, 0, 0, 0, 0, 0, 0, 203, -750, -477, -42, 33, 33, -1646, 1276, 14864, 595, 0, 0, 0, 0, 0
108, 7790817, 0, 0, 0, 0, 0, 0, 0, 0, 0, 203, -749, -474, -42, 32, 34, -1658, 1264, 14866, 595, 0, 0, 0, 0, 0
109, 7800969, 0, 0, 0, 0, 0, 0, 0, 0, 0, 203, -749, -470, -43, 32, 34, -1680, 1274, 14842, 595, 0, 0, 0, 0, 0
110, 7810766, 0, 0, 0, 0, 0, 0, 0, 0, 0, 203, -748, -467, -43, 32, 34, -1680, 1274, 14832, 595, 0, 0, 0, 0, 0
111, 7820741, 0, 0, 0, 0, 0, 0, 0, 0, 0, 202, -748, -463, -43, 33, 34, -1672, 1280, 14846, 595, 0, 0, 0, 0, 0
112, 7830743, 0, 0, 0, 0, 0, 0, 0, 0, 0, 202, -747, -460, -43, 33, 34, -1702, 1280, 14884, 595, 0, 0, 0, 0, 0
113, 7840716, 0, 0, 0, 0, 0, 0, 0, 0, 0, 202, -747, -457, -42, 33, 34, -1690, 1262, 14840, 595, 0, 0, 0, 0, 0
114, 7850690, 0, 0, 0, 0, 0, 0, 0, 0, 0, 202, -747, -453, -42, 33, 34, -1676, 1282, 14834, 595, 0, 0, 0, 0, 0
115, 7860679, 0, 0, 0, 0, 0, 0, 0, 0, 0, 202, -746, -450, -42, 33, 34, -1658, 1284, 14816, 595, 0, 0, 0, 0, 0
116, 7870658, 0, 0, 0, 0, 0, 0, 0, 0, 0, 202, -746, -446, -42, 33, 34, -1662, 1310, 14820, 595, 0, 0, 0, 0, 0
117, 7880630, 0, 0, 0, 0, 0, 0, 0, 0, 0, 202, -745, -443, -42, 33, 34, -1662, 1304, 14828, 595, 0, 0, 0, 0, 0
118, 7890624, 0, 0, 0, 0, 0, 0, 0, 0, 0, 202, -745, -439, -42, 33, 34, -1660, 1310, 14854, 595, 0, 0, 0, 0, 0
119, 7900604, 0, 0, 0, 0, 0, 0, 0, 0, 0, 202, -744, -436, -42, 33, 34, -1668, 1288, 14810, 595, 0, 0, 0, 0, 0
120, 7910583, 0, 0, 0, 0, 0, 0, 0, 0, 0, 202, -744, -433, -42, 32, 34, -1660, 1286, 14802, 595, 0, 0, 0, 0, 0
121, 7920566, 0, 0, 0, 0, 0, 0, 0, 0, 0, 202, -743, -429, -43, 32, 34, -1668, 1260, 14826, 595, 0, 0, 0, 0, 0
122, 7930548, 0, 0, 0, 0, 0, 0, 0, 0, 0, 202, -743, -426, -43, 32, 34, -1678, 1238, 14834, 595, 0, 0, 0, 0, 0
123, 7940524, 0, 0, 0, 0, 0, 0, 0, 0, 0, 202, -743, -422, -43, 32, 34, -1688, 1246, 14806, 595, 0, 0, 0, 0, 0
124, 7950499, 0, 0, 0, 0, 0, 0, 0, 0, 0, 201, -743, -419, -43, 32, 34, -1682, 1236, 14812, 595, 0, 0, 0, 0, 0
125, 7960489, 0, 0, 0, 0, 0, 0, 0, 0, 0, 201, -742, -416, -43, 33, 35, -1668, 1230, 14844, 595, 0, 0, 0, 0, 0
126, 7970466, 0, 0, 0, 0, 0, 0, 0, 0, 0, 201, -742, -412, -42, 33, 34, -1670, 1246, 14820, 595, 0, 0, 0, 0, 0
127, 7980432, 0, 0, 0, 0, 0, 0, 0, 0, 0, 201, -741, -409, -42, 33, 34, -1668, 1264, 14846, 595, 0, 0, 0, 0, 0
128, 7990419, 0, 0, 0, 0, 0, 0, 0, 0, 0, 201, -741, -405, -41, 33, 34, -1658, 1286, 14852, 595, 0, 0, 0, 0, 0
129, 8000410, 0, 0, 0, 0, 0, 0, 0, 0, 0, 201, -740, -402, -41, 33, 34, -1662, 1286, 14838, 595, 0, 0, 0, 0, 0
130, 8010392, 0, 0, 0, 0, 0, 0, 0, 0, 0, 201, -740, -399, -42, 33, 34, -1652, 1282, 14826, 595, 0, 0, 0, 0, 0
131, 8020367, 0, 0, 0, 0, 0, 0, 0, 0, 0, 201, -739, -395, -30, 31, 31, -1660, 1118, 14862, 595, 0, 0, 0, 0, 0
132, 8030342, 0, 0, 0, 0, 0, 0, 0, 0, 0, 206, -738, -393, 6, 53, 20, -1596, 1496, 14940, 595, 0, 0, 0, 0, 0
133, 8040343, 0, 0, 0, 0, 0, 0, 0, 0, 0, 211, -733, -394, -29, 58, -23, -1260, 1904, 14576, 595, 0, 0, 0, 0, 0
134, 8050316, 0, 0, 0, 0, 0, 0, 0, 0, 0, 212, -729, -405, -66, 45, -119, -1186, 1804, 14958, 595, 0, 0, 0, 0, 0
135, 8060293, 0, 0, 0, 0, 0, 0, 0, 0, 0, 215, -724, -429, -52, 55, -238, -1312, 1668, 14970, 595, 0, 0, 0, 0, 0
136, 8070270, 0, 0, 0, 0, 0, 0, 0, 0, 0, 219, -718, -463, -42, 59, -319, -1462, 1462, 14822, 595, 0, 0, 0, 0, 0
137, 8080259, 0, 0, 0, 0, 0, 0, 0, 0, 0, 223, -714, -501, -26, 55, -344, -1768, 1224, 14950, 595, 0, 0, 0, 0, 0
138, 8090234, 0, 0, 0, 0, 0, 0, 0, 0, 0, 231, -711, -537, 15, 64, -307, -2038, 1062, 14882, 595, 0, 0, 0, 0, 0
139, 8100228, 0, 0, 0, 0, 0, 0, 0, 0, 0, 240, -707, -563, 37, 70, -212, -2032, 844, 14818, 595, 0, 0, 0, 0, 0
140, 8110209, 0, 0, 0, 0, 0, 0, 0, 0, 0, 250, -703, -579, 74, 84, -110, -1966, 676, 15018, 595, 0, 0, 0, 0, 0
141, 8120196, 0, 0, 0, 0, 0, 0, 0, 0, 0, 270, -695, -579, 200, 123, 42, -1642, 1298, 15408, 595, 0, 0, 0, 0, 0
142, 8130174, 0, 0, 0, 0, 0, 0, 0, 0, 0, 308, -684, -561, 336, 124, 198, -1490, 1890, 15166, 595, 0, 0, 0, 0, 0
143, 8140151, 0, 0, 0, 0, 0, 0, 0, 0, 0, 359, -675, -529, 433, 111, 308, -1578, 2262, 15090, 595, 0, 0, 0, 0, 0
144, 8150127, 0, 0, 0, 0, 0, 0, 0, 0, 0, 425, -668, -492, 581, 119, 342, -1984, 2558, 15252, 595, 0, 0, 0, 0, 0
145, 8160122, 0, 0, 0, 0, 0, 0, 0, 0, 0, 518, -659, -457, 864, 135, 300, -2074, 1802, 16792, 595, 0, 0, 0, 0, 0
146, 8170104, 0, 0, 0, 0, 0, 0, 0, 0, 0, 642, -650, -431, 1133, 157, 190, -2198, 926, 14480, 595, 0, 0, 0, 0, 0
147, 8180076, 0, 0, 0, 0, 0, 0, 0, 0, 0, 759, -640, -417, 1007, 132, 106, -1220, 1110, 13680, 595, 0, 0, 0, 0, 0
148, 8190055, 0, 0, 0, 0, 0, 0, 0, 0, 0, 848, -632, -408, 708, 86, 67, -1036, 2272, 13628, 595, 0, 0, 0, 0, 0
149, 8200044, 0, 0, 0, 0, 0, 0, 0, 0, 0, 899, -626, -403, 306, 45, 42, -772, 2558, 13356, 595, 0, 0, 0, 0, 0
150, 8210026, 0, 0, 0, 0, 0, 0, 0, 0, 0, 915, -626, -399, 30, 6, 38, -1526, 2502, 14390, 595, 0, 0, 0, 0, 0
151, 8219983, 0, 0, 0, 0, 0, 0, 0, 0, 0, 914, -627, -398, -102, 36, -6, -2008, 3072, 14136, 595, 0, 0, 0, 0, 0
152, 8229965, 0, 0, 0, 0, 0, 0, 0, 0, 0, 904, -627, -404, -197, 48, -56, -1860, 3708, 14420, 595, 0, 0, 0, 0, 0
153, 8239940, 0, 0, 0, 0, 0, 0, 0, 0, 0, 896, -626, -405, -169, 57, 20, -2540, 4956, 14952, 595, 0, 0, 0, 0, 0
154, 8249936, 0, 0, 0, 0, 0, 0, 0, 0, 0, 912, -631, -390, 19, 62, 192, -3864, 6158, 15456, 595, 0, 0, 0, 0, 0
155, 8259915, 0, 0, 0, 0, 0, 0, 0, 0, 0, 952, -641, -359, 232, 80, 302, -5384, 4806, 14992, 595, 0, 0, 0, 0, 0
156, 8269894, 0, 0, 0, 0, 0, 0, 0, 0, 0, 995, -657, -334, 257, 83, 169, -6534, 2862, 13884, 595, 0, 0, 0, 0, 0
157, 8279901, 0, 0, 0, 0, 0, 0, 0, 0, 0, 1018, -679, -345, 118, 31, -196, -6700, 920, 14076, 595, 0, 0, 0, 0, 0
158, 8289871, 0, 0, 0, 0, 0, 0, 0, 0, 0, 1022, -702, -401, 23, -14, -617, -6618, -442, 14994, 595, 0, 0, 0, 0, 0
159, 8299840, 0, 0, 0, 0, 0, 0, 0, 0, 0, 1016, -713, -517, -75, 27, -1232, -1364, 22, 15420, 595, 0, 0, 0, 0, 0
160, 8309838, 0, 0, 0, 0, 0, 0, 0, 0, 0, 997, -681, -686, -271, 112, -1593, 5264, 2150, 15832, 595, 0, 0, 0, 0, 0
161, 8319807, 0, 0, 0, 0, 0, 0, 0, 0, 0, 977, -604, -842, -270, 288, -1334, 7430, 568, 16242, 595, 0, 0, 0, 0, 0
162, 8329782, 0, 0, 0, 0, 0, 0, 0, 0, 0, 947, -499, -931, -256, 599, -658, 7584, -1142, 16962, 595, 0, 0, 0, 0, 0
163, 8339756, 0, 0, 0, 0, 0, 0, 0, 0, 0, 915, -361, -929, -143, 984, 117, 6644, 496, 17368, 595, 0, 0, 0, 0, 0
164, 8349751, 0, 0, 0, 0, 0, 0, 0, 0, 0, 909, -192, -849, 29, 1371, 772, 5678, 1870, 17330, 595, 0, 0, 0, 0, 0
165, 8359728, 0, 0, 0, 0, 0, 0, 0, 0, 0, 922, 1, -692, 127, 1704, 1433, 4388, 2154, 17258, 595, 0, 0, 0, 0, 0
166, 8369727, 0, 0, 0, 0, 0, 0, 0, 0, 0, 952, 195, -471, 284, 1705, 1959, 3506, 1422, 18326, 595, 0, 0, 0, 0, 0
167, 8379707, 0, 0, 0, 0, 0, 0, 0, 0, 0, 1018, 313, -218, 670, 903, 2233, 2316, 350, 19560, 595, 0, 0, 0, 0, 0
168, 8389681, 0, 0, 0, 0, 0, 0, 0, 0, 0, 1138, 290, 37, 1238, -341, 2343, 96, 104, 19120, 595, 0, 0, 0, 0, 0
169, 8399651, 0, 0, 0, 0, 0, 0, 0, 0, 0, 1316, 119, 279, 1746, -1500, 2337, -2898, 1310, 16822, 595, 0, 0, 0, 0, 0
170, 8409793, 0, 0, 0, 0, 0, 0, 0, 0, 0, 1529, -171, 488, 1979, -2396, 2131, -5792, 2896, 14092, 595, 0, 0, 0, 0, 0
171, 8419621, 0, 0, 0, 0, 0, 0, 0, 0, 0, 1748, -557, 636, 1934, -3152, 1712, -7418, 4628, 12852, 595, 0, 0, 0, 0, 0
172, 8429613, 0, 0, 0, 0, 0, 0, 0, 0, 0, 1955, -1016, 710, 1755, -3820, 1225, -7686, 5770, 14074, 595, 0, 0, 0, 0, 0
173, 8439594, 0, 0, 0, 0, 0, 0, 0, 0, 0, 2148, -1517, 717, 1560, -4246, 810, -7412, 6664, 16584, 595, 0, 0, 0, 0, 0
174, 8449567, 0, 0, 0, 0, 0, 0, 0, 0, 0, 2331, -2024, 669, 1413, -4364, 450, -7270, 6970, 19478, 595, 0, 0, 0, 0, 0
175, 8459571, 0, 0, 0, 0, 0, 0, 0, 0, 0, 2513, -2484, 579, 1358, -3944, 84, -7090, 6886, 22308, 595, 0, 0, 0, 0, 0
176, 8469523, 0, 0, 0, 0, 0, 0, 0, 0, 0, 2696, -2811, 471, 1368, -2670, -269, -6142, 6006, 24874, 595, 0, 0, 0, 0, 0
177, 8479509, 0, 0, 0, 0, 0, 0, 0, 0, 0, 2874, -2911, 391, 1503, -534, -480, -4404, 3430, 26408, 595, 0, 0, 0, 0, 0
178, 8489487, 0, 0, 0, 0, 0, 0, 0, 0, 0, 3054, -2733, 394, 1957, 2024, -370, -2448, 1494, 25650, 595, 0, 0, 0, 0, 0
179, 8499488, 0, 0, 0, 0, 0, 0, 0, 0, 0, 3273, -2320, 540, 2763, 4306, 273, -3094, -430, 21696, 595, 0, 0, 0, 0, 0
180, 8509456, 0, 0, 0, 0, 0, 0, 0, 0, 0, 3549, -1748, 851, 3463, 6149, 1097, -5492, 224, 16240, 595, 0, 0, 0, 0, 0
181, 8519461, 0, 0, 0, 0, 0, 0, 0, 0, 0, 3871, -1094, 1287, 3607, 7242, 1608, -7926, 3596, 11382, 595, 0, 0, 0, 0, 0
182, 8529406, 0, 0, 0, 0, 0, 0, 0, 0, 0, 4207, -439, 1763, 3189, 7313, 1563, -8772, 7906, 8976, 595, 0, 0, 0, 0, 0
183, 8539541, 0, 0, 0, 0, 0, 0, 0, 0, 0, 4522, 140, 2186, 2528, 6350, 1083, -7556, 10592, 9796, 595, 0, 0, 0, 0, 0
184, 8549527, 0, 0, 0, 0, 0, 0, 0, 0, 0, 4792, 598, 2497, 1982, 4811, 446, -4810, 10612, 12680, 595, 0, 0, 0, 0, 0
185, 8559507, 0, 0, 0, 0, 0, 0, 0, 0, 0, 5022, 937, 2682, 1793, 3301, -150, -382, 9030, 15620, 595, 0, 0, 0, 0, 0
186, 8569489, 0, 0, 0, 0, 0, 0, 0, 0, 0, 5242, 1188, 2764, 1956, 2088, -491, 5012, 7094, 16850, 595, 0, 0, 0, 0, 0
187, 8579444, 0, 0, 0, 0, 0, 0, 0, 0, 0, 5480, 1370, 2799, 2295, 1238, -380, 9594, 5062, 15838, 595, 0, 0, 0, 0, 0
188, 8589435, 0, 0, 0, 0, 0, 0, 0, 0, 0, 5754, 1471, 2834, 2674, 430, 154, 12038, 3954, 13094, 595, 0, 0, 0, 0, 0
189, 8599416, 0, 0, 0, 0, 0, 0, 0, 0, 0, 6068, 1450, 2879, 2972, -553, 891, 10812, 3434, 8848, 595, 0, 0, 0, 0, 0
190, 8609372, 0, 0, 0, 0, 0, 0, 0, 0, 0, 6405, 1292, 2935, 3018, -1402, 1601, 6614, 4228, 4950, 595, 0, 0, 0, 0, 0
191, 8619364, 0, 0, 0, 0, 0, 0, 0, 0, 0, 6734, 1010, 2989, 2769, -2081, 2093, 1228, 6508, 2668, 595, 0, 0, 0, 0, 0
192, 8629349, 0, 0, 0, 0, 0, 0, 0, 0, 0, 7025, 652, 3031, 2288, -2338, 2270, -3780, 8808, 3248, 595, 0, 0, 0, 0, 0
193, 8639316, 0, 0, 0, 0, 0, 0, 0, 0, 0, 7261, 289, 3067, 1761, -2045, 2108, -7228, 10672, 5560, 595, 0, 0, 0, 0, 0
194, 8649313, 0, 0, 0, 0, 0, 0, 0, 0, 0, 7438, -7, 3111, 1293, -1323, 1702, -8224, 12198, 8610, 595, 0, 0, 0, 0, 0
195, 8659293, 0, 0, 0, 0, 0, 0, 0, 0, 0, 7569, -204, 3162, 988, -614, 1139, -7226, 12618, 11810, 595, 0, 0, 0, 0, 0
196, 8669282, 0, 0, 0, 0, 0, 0, 0, 0, 0, 7681, -318, 3189, 975, -360, 534, -4920, 12532, 13980, 595, 0, 0, 0, 0, 0
197, 8679251, 0, 0, 0, 0, 0, 0, 0, 0, 0, 7802, -372, 3178, 1148, -278, 40, -2412, 12208, 14146, 595, 0, 0, 0, 0, 0
198, 8689238, 0, 0, 0, 0, 0, 0, 0, 0, 0, 7941, -365, 3163, 1310, 102, -231, -88, 11474, 12944, 595, 0, 0, 0, 0, 0
199, 8699218, 0, 0, 0, 0, 0, 0, 0, 0, 0, 8094, -309, 3171, 1436, 455, -260, 1596, 10390, 10844, 595, 0, 0, 0, 0, 0
200, 8709173, 0, 0, 0, 0, 0, 0, 0, 0, 0, 8262, -245, 3204, 1539, 563, -68, 2376, 9798, 8450, 595, 0, 0, 0, 0, 0
201, 8719169, 0, 0, 0, 0, 0, 0, 0, 0, 0, 8444, -215, 3252, 1606, 332, 289, 2332, 10180, 6588, 595, 0, 0, 0, 0, 0
202, 8729160, 0, 0, 0, 0, 0, 0, 0, 0, 0, 8635, -256, 3286, 1618, -258, 642, 1156, 11122, 5656, 595, 0, 0, 0, 0, 0
203, 8739110, 0, 0, 0, 0, 0, 0, 0, 0, 0, 8826, -370, 3288, 1542, -835, 854, -626, 12418, 5780, 595, 0, 0, 0, 0, 0
204, 8749102, 0, 0, 0, 0, 0, 0, 0, 0, 0, 9008, -530, 3259, 1436, -1199, 908, -1922, 13282, 6930, 595, 0, 0, 0, 0, 0
205, 8759123, 0, 0, 0, 0, 0, 0, 0, 0, 0, 9181, -704, 3205, 1379, -1370, 820, -2476, 13518, 8054, 595, 0, 0, 0, 0, 0
206, 8769087, 0, 0, 0, 0, 0, 0, 0, 0, 0, 9349, -866, 3137, 1367, -1322, 667, -2302, 13426, 8340, 595, 0, 0, 0, 0, 0
207, 8779074, 0, 0, 0, 0, 0, 0, 0, 0, 0, 9514, -1001, 3070, 1352, -1161, 536, -1628, 13192, 7868, 595, 0, 0, 0, 0, 0
208, 8789070, 0, 0, 0, 0, 0, 0, 0, 0, 0, 9677, -1115, 3008, 1314, -1009, 470, -1514, 12758, 6724, 595, 0, 0, 0, 0, 0
209, 8799039, 0, 0, 0, 0, 0, 0, 0, 0, 0, 9833, -1214, 2959, 1228, -828, 468, -1850, 12706, 5598, 595, 0, 0, 0, 0, 0
210, 8809027, 0, 0, 0, 0, 0, 0, 0, 0, 0, 9980, -1307, 2920, 1120, -744, 475, -2468, 12848, 5016, 595, 0, 0, 0, 0, 0
211, 8818993, 0, 0, 0, 0, 0, 0, 0, 0, 0, 10118, -1401, 2881, 1027, -706, 467, -3670, 13012, 4602, 595, 0, 0, 0, 0, 0
212, 8828974, 0, 0, 0, 0, 0, 0, 0, 0, 0, 10246, -1488, 2852, 936, -526, 428, -4758, 13438, 4482, 595, 0, 0, 0, 0, 0
213, 8838966, 0, 0, 0, 0, 0, 0, 0, 0, 0, 10363, -1556, 2840, 863, -287, 338, -5202, 13886, 4728, 595, 0, 0, 0, 0, 0
214, 8848947, 0, 0, 0, 0, 0, 0, 0, 0, 0, 10471, -1601, 2843, 813, -47, 232, -4830, 14080, 5044, 595, 0, 0, 0, 0, 0
215, 8858920, 0, 0, 0, 0, 0, 0, 0, 0, 0, 10573, -1626, 2857, 797, 76, 180, -3516, 14028, 5064, 595, 0, 0, 0, 0, 0
216, 8868904, 0, 0, 0, 0, 0, 0, 0, 0, 0, 10675, -1648, 2864, 788, -66, 199, -1964, 14140, 4914, 595, 0, 0, 0, 0, 0
217, 8878892, 0, 0, 0, 0, 0, 0, 0, 0, 0, 10777, -1687, 2850, 762, -357, 294, -1398, 14100, 4942, 595, 0, 0, 0, 0, 0
218, 8888867, 0, 0, 0, 0, 0, 0, 0, 0, 0, 10880, -1751, 2814, 737, -648, 411, -1546, 14346, 5178, 595, 0, 0, 0, 0, 0
219, 8898862, 0, 0, 0, 0, 0, 0, 0, 0, 0, 10982, -1839, 2756, 708, -893, 483, -2312, 14564, 5466, 595, 0, 0, 0, 0, 0
220, 8908825, 0, 0, 0, 0, 0, 0, 0, 0, 0, 11082, -1936, 2688, 683, -937, 481, -3374, 14472, 5634, 595, 0, 0, 0, 0, 0
221, 8918804, 0, 0, 0, 0, 0, 0, 0, 0, 0, 11179, -2026, 2629, 691, -773, 426, -3826, 14284, 5606, 595, 0, 0, 0, 0, 0
222, 8928810, 0, 0, 0, 0, 0, 0, 0, 0, 0, 11277, -2100, 2583, 734, -599, 362, -3790, 13964, 4984, 595, 0, 0, 0, 0, 0
223, 8938776, 0, 0, 0, 0, 0, 0, 0, 0, 0, 11380, -2162, 2546, 758, -497, 319, -3450, 13932, 3834, 595, 0, 0, 0, 0, 0
224, 8948765, 0, 0, 0, 0, 0, 0, 0, 0, 0, 11483, -2220, 2511, 711, -485, 317, -3112, 14004, 2856, 595, 0, 0, 0, 0, 0
225, 8958749, 0, 0, 0, 0, 0, 0, 0, 0, 0, 11581, -2280, 2468, 598, -569, 334, -3046, 14340, 2388, 595, 0, 0, 0, 0, 0
226, 8968728, 0, 0, 0, 0, 0, 0, 0, 0, 0, 11667, -2346, 2416, 456, -651, 353, -3792, 14644, 2534, 595, 0, 0, 0, 0, 0
227, 8978712, 0, 0, 0, 0, 0, 0, 0, 0, 0, 11737, -2412, 2366, 326, -567, 330, -4972, 14902, 3168, 595, 0, 0, 0, 0, 0
228, 8988698, 0, 0, 0, 0, 0, 0, 0, 0, 0, 11788, -2465, 2340, 249, -262, 259, -6028, 15010, 3808, 595, 0, 0, 0, 0, 0
229, 8998675, 0, 0, 0, 0, 0, 0, 0, 0, 0, 11826, -2493, 2351, 241, 160, 160, -6218, 15074, 4152, 595, 0, 0, 0, 0, 0
230, 9008650, 0, 0, 0, 0, 0, 0, 0, 0, 0, 11858, -2494, 2393, 276, 446, 73, -5176, 15156, 3990, 595, 0, 0, 0, 0, 0
231, 9018793, 0, 0, 0, 0, 0, 0, 0, 0, 0, 11894, -2485, 2437, 309, 405, 65, -3538, 15140, 3836, 595, 0, 0, 0, 0, 0
232, 9028625, 0, 0, 0, 0, 0, 0, 0, 0, 0, 11938, -2488, 2460, 331, 100, 174, -2538, 15046, 3814, 595, 0, 0, 0, 0, 0
233, 9038601, 0, 0, 0, 0, 0, 0, 0, 0, 0, 11991, -2521, 2451, 351, -293, 346, -2606, 15072, 4050, 595, 0, 0, 0, 0, 0
234, 9048579, 0, 0, 0, 0, 0, 0, 0, 0, 0, 12053, -2587, 2412, 369, -621, 486, -3722, 15252, 4242, 595, 0, 0, 0, 0, 0
235, 9058537, 0, 0, 0, 0, 0, 0, 0, 0, 0, 12117, -2674, 2356, 356, -747, 521, -5542, 15586, 4244, 595, 0, 0, 0, 0, 0
236, 9068532, 0, 0, 0, 0, 0, 0, 0, 0, 0, 12175, -2753, 2306, 291, -562, 389, -7008, 15598, 4084, 595, 0, 0, 0, 0, 0
237, 9078518, 0, 0, 0, 0, 0, 0, 0, 0, 0, 12218, -2800, 2285, 209, -150, 162, -7372, 15392, 3636, 595, 0, 0, 0, 0, 0
238, 9088499, 0, 0, 0, 0, 0, 0, 0, 0, 0, 12243, -2806, 2300, 129, 278, -66, -6988, 15014, 2826, 595, 0, 0, 0, 0, 0
239, 9098478, 0, 0, 0, 0, 0, 0, 0, 0, 0, 12255, -2776, 2342, 47, 599, -238, -6268, 14544, 1722, 595, 0, 0, 0, 0, 0
240, 9108452, 0, 0, 0, 0, 0, 0, 0, 0, 0, 12257, -2723, 2402, -56, 784, -325, -5310, 14482, 780, 595, 0, 0, 0, 0, 0
241, 9118450, 0, 0, 0, 0, 0, 0, 0, 0, 0, 12246, -2662, 2462, -198, 733, -329, -3884, 14906, 832, 595, 0, 0, 0, 0, 0
242, 9128436, 0, 0, 0, 0, 0, 0, 0, 0, 0, 12228, -2614, 2494, -324, 363, -229, -2362, 15168, 1958, 595, 0, 0, 0, 0, 0
243, 9138408, 0, 0, 0, 0, 0, 0, 0, 0, 0, 12207, -2597, 2486, -371, -114, -29, -1536, 15104, 3674, 595, 0, 0, 0, 0, 0
244, 9148380, 0, 0, 0, 0, 0, 0, 0, 0, 0, 12189, -2617, 2449, -312, -449, 199, -1964, 14960, 4998, 595, 0, 0, 0, 0, 0
245, 9158356, 0, 0, 0, 0, 0, 0, 0, 0, 0, 12181, -2665, 2406, -174, -545, 356, -3314, 14794, 5258, 595, 0, 0, 0, 0, 0
246, 9168338, 0, 0, 0, 0, 0, 0, 0, 0, 0, 12187, -2723, 2374, -43, -401, 392, -4826, 14694, 4302, 595, 0, 0, 0, 0, 0
247, 9178312, 0, 0, 0, 0, 0, 0, 0, 0, 0, 12198, -2770, 2367, -5, -101, 309, -6014, 14430, 2388, 595, 0, 0, 0, 0, 0
248, 9188294, 0, 0, 0, 0, 0, 0, 0, 0, 0, 12203, -2794, 2386, -110, 227, 141, -6502, 14222, -44, 595, 0, 0, 0, 0, 0
249, 9198283, 0, 0, 0, 0, 0, 0, 0, 0, 0, 12191, -2789, 2424, -344, 511, -46, -6414, 13800, -2310, 595, 0, 0, 0, 0, 0
250, 9208253, 0, 0, 0, 0, 0, 0, 0, 0, 0, 12147, -2757, 2481, -671, 766, -190, -5900, 13372, -3922, 595, 0, 0, 0, 0, 0
251, 9218236, 0, 0, 0, 0, 0, 0, 0, 0, 0, 12067, -2705, 2556, -1014, 985, -247, -5380, 12590, -4788, 595, 0, 0, 0, 0, 0
252, 9228198, 0, 0, 0, 0, 0, 0, 0, 0, 0, 11949, -2645, 2650, -1314, 1146, -203, -4912, 11936, -5154, 595, 0, 0, 0, 0, 0
253, 9238200, 0, 0, 0, 0, 0, 0, 0, 0, 0, 11801, -2590, 2755, -1562, 1179, -95, -4286, 11652, -4922, 595, 0, 0, 0, 0, 0
254, 9248184, 0, 0, 0, 0, 0, 0, 0, 0, 0, 11628, -2548, 2856, -1791, 1025, 50, -3306, 11804, -3966, 595, 0, 0, 0, 0, 0
255, 9258150, 0, 0, 0, 0, 0, 0, 0, 0, 0, 11428, -2529, 2936, -2048, 734, 209, -2924, 11536, -2936, 595, 0, 0, 0, 0, 0
256, 9268133, 0, 0, 0, 0, 0, 0, 0, 0, 0, 11196, -2533, 3000, -2364, 515, 310, -3352, 10918, -2174, 595, 0, 0, 0, 0, 0
257, 9278111, 0, 0, 0, 0, 0, 0, 0, 0, 0, 10924, -2544, 3046, -2734, 368, 239, -3648, 10692, -1766, 595, 0, 0, 0, 0, 0
258, 9288089, 0, 0, 0, 0, 0, 0, 0, 0, 0, 10607, -2542, 3072, -3210, 256, 39, -2344, 11418, -194, 595, 0, 0, 0, 0, 0
259, 9298083, 0, 0, 0, 0, 0, 0, 0, 0, 0, 10232, -2525, 3073, -3756, 84, -78, -308, 12242, 3224, 595, 0, 0, 0, 0, 0
260, 9308061, 0, 0, 0, 0, 0, 0, 0, 0, 0, 9795, -2513, 3062, -4200, -105, 11, -196, 11638, 7536, 595, 0, 0, 0, 0, 0
261, 9318041, 0, 0, 0, 0, 0, 0, 0, 0, 0, 9314, -2519, 3057, -4360, -116, 132, -2424, 10088, 10896, 595, 0, 0, 0, 0, 0
262, 9328001, 0, 0, 0, 0, 0, 0, 0, 0, 0, 8822, -2519, 3080, -4209, 217, 121, -5132, 8958, 12812, 595, 0, 0, 0, 0, 0
263, 9337980, 0, 0, 0, 0, 0, 0, 0, 0, 0, 8353, -2480, 3136, -3849, 789, -53, -6672, 8570, 12442, 595, 0, 0, 0, 0, 0
264, 9347961, 0, 0, 0, 0, 0, 0, 0, 0, 0, 7922, -2374, 3229, -3510, 1524, -254, -6932, 7942, 10062, 595, 0, 0, 0, 0, 0
265, 9357937, 0, 0, 0, 0, 0, 0, 0, 0, 0, 7519, -2200, 3355, -3309, 2177, -409, -6898, 6576, 6720, 595, 0, 0, 0, 0, 0
266, 9367934, 0, 0, 0, 0, 0, 0, 0, 0, 0, 7132, -1979, 3489, -3289, 2509, -544, -6764, 4920, 3490, 595, 0, 0, 0, 0, 0
267, 9377899, 0, 0, 0, 0, 0, 0, 0, 0, 0, 6740, -1747, 3605, -3477, 2444, -643, -5842, 3762, 1748, 595, 0, 0, 0, 0, 0
268, 9387872, 0, 0, 0, 0, 0, 0, 0, 0, 0, 6317, -1528, 3681, -3904, 2056, -753, -3990, 3576, 2458, 595, 0, 0, 0, 0, 0
269, 9397869, 0, 0, 0, 0, 0, 0, 0, 0, 0, 5834, -1350, 3687, -4586, 1204, -946, 276, 5856, 6794, 595, 0, 0, 0, 0, 0
270, 9407856, 0, 0, 0, 0, 0, 0, 0, 0, 0, 5274, -1246, 3602, -5386, 47, -1088, 4294, 7720, 13740, 595, 0, 0, 0, 0, 0
271, 9417839, 0, 0, 0, 0, 0, 0, 0, 0, 0, 4635, -1222, 3476, -5988, -765, -896, 5806, 6272, 21262, 595, 0, 0, 0, 0, 0
272, 9427661, 0, 0, 0, 0, 0, 0, 0, 0, 0, 3949, -1258, 3382, -6056, -1008, -344, 5728, 2878, 27182, 595, 0, 0, 0, 0, 0
273, 9437659, 0, 0, 0, 0, 0, 0, 0, 0, 0, 3291, -1334, 3368, -5351, -1070, 385, 2948, -682, 31166, 595, 0, 0, 0, 0, 0
274, 9447628, 0, 0, 0, 0, 0, 0, 0, 0, 0, 2754, -1464, 3424, -3935, -1303, 948, -2316, -1408, 31410, 595, 0, 0, 0, 0, 0
275, 9457602, 0, 0, 0, 0, 0, 0, 0, 0, 0, 2396, -1655, 3506, -2366, -1588, 1081, -7956, 462, 27188, 595, 0, 0, 0, 0, 0
276, 9467586, 0, 0, 0, 0, 0, 0, 0, 0, 0, 2191, -1866, 3566, -1332, -1465, 752, -11390, 1926, 21416, 595, 0, 0, 0, 0, 0
277, 9477574, 0, 0, 0, 0, 0, 0, 0, 0, 0, 2061, -2016, 3581, -1005, -771, 160, -11498, 1870, 16906, 595, 0, 0, 0, 0, 0
278, 9487546, 0, 0, 0, 0, 0, 0, 0, 0, 0, 1945, -2056, 3547, -1072, 145, -453, -8792, 694, 14290, 595, 0, 0, 0, 0, 0
279, 9497521, 0, 0, 0, 0, 0, 0, 0, 0, 0, 1815, -1980, 3477, -1246, 958, -872, -4616, -418, 13052, 595, 0, 0, 0, 0, 0
280, 9507495, 0, 0, 0, 0, 0, 0, 0, 0, 0, 1659, -1815, 3393, -1487, 1507, -1037, -636, -796, 12548, 595, 0, 0, 0, 0, 0
281, 9517467, 0, 0, 0, 0, 0, 0, 0, 0, 0, 1472, -1610, 3303, -1783, 1586, -1072, 2828, -166, 13436, 595, 0, 0, 0, 0, 0
282, 9527452, 0, 0, 0, 0, 0, 0, 0, 0, 0, 1256, -1429, 3211, -2046, 1137, -964, 5306, 176, 15456, 595, 0, 0, 0, 0, 0
283, 9537435, 0, 0, 0, 0, 0, 0, 0, 0, 0, 1020, -1307, 3141, -2136, 551, -616, 5652, -94, 18192, 595, 0, 0, 0, 0, 0
284, 9547424, 0, 0, 0, 0, 0, 0, 0, 0, 0, 790, -1251, 3119, -1949, 32, -75, 3736, 150, 20514, 595, 0, 0, 0, 0, 0
285, 9557415, 0, 0, 0, 0, 0, 0, 0, 0, 0, 600, -1270, 3151, -1514, -527, 414, 384, 888, 21640, 595, 0, 0, 0, 0, 0
286, 9567373, 0, 0, 0, 0, 0, 0, 0, 0, 0, 465, -1362, 3215, -1006, -998, 662, -3384, 1366, 21518, 595, 0, 0, 0, 0, 0
287, 9577342, 0, 0, 0, 0, 0, 0, 0, 0, 0, 384, -1498, 3281, -575, -1151, 605, -6400, 1622, 20474, 595, 0, 0, 0, 0, 0
288, 9587321, 0, 0, 0, 0, 0, 0, 0, 0, 0, 343, -1628, 3321, -289, -894, 316, -8096, 1570, 18756, 595, 0, 0, 0, 0, 0
289, 9597320, 0, 0, 0, 0, 0, 0, 0, 0, 0, 329, -1704, 3320, -142, -301, -84, -7978, 1146, 16826, 595, 0, 0, 0, 0, 0
290, 9607299, 0, 0, 0, 0, 0, 0, 0, 0, 0, 325, -1705, 3277, -115, 359, -482, -6480, 708, 14718, 595, 0, 0, 0, 0, 0
291, 9617280, 0, 0, 0, 0, 0, 0, 0, 0, 0, 319, -1633, 3199, -214, 911, -784, -4570, 468, 12800, 595, 0, 0, 0, 0, 0
292, 9627422, 0, 0, 0, 0, 0, 0, 0, 0, 0, 295, -1511, 3099, -410, 1229, -957, -2874, 414, 11514, 595, 0, 0, 0, 0, 0
293, 9637239, 0, 0, 0, 0, 0, 0, 0, 0, 0, 243, -1365, 2991, -676, 1365, -1013, -1592, 424, 10848, 595, 0, 0, 0, 0, 0
294, 9647216, 0, 0, 0, 0, 0, 0, 0, 0, 0, 155, -1200, 2883, -1002, 1498, -978, -596, 198, 10860, 595, 0, 0, 0, 0, 0
295, 9657190, 0, 0, 0, 0, 0, 0, 0, 0, 0, 27, -1019, 2783, -1326, 1613, -884, 108, 206, 11700, 595, 0, 0, 0, 0, 0
296, 9667180, 0, 0, 0, 0, 0, 0, 0, 0, 0, -116, -878, 2698, -1240, 735, -689, 5508, -2122, 21796, 595, 0, 0, 0, 0, 0
297, 9677146, 0, 0, 0, 0, 0, 0, 0, 0, 0, -176, -951, 2656, -276, -1204, -300, -496, -1522, 30624, 595, 0, 0, 0, 0, 0
298, 9687146, 0, 0, 0, 0, 0, 0, 0, 0, 0, -143, -996, 2639, 379, -212, -134, -1578, 2702, 23524, 595, 0, 0, 0, 0, 0
299, 9697112, 0, 0, 0, 0, 0, 0, 0, 0, 0, -82, -965, 2620, 393, 355, -174, -1810, 1476, 18882, 595, 0, 0, 0, 0, 0
300, 9707101, 0, 0, 0, 0, 0, 0, 0, 0, 0, -42, -922, 2593, 259, 376, -242, -1536, -184, 16846, 595, 0, 0, 0, 0, 0
301, 9717089, 0, 0, 0, 0, 0, 0, 0, 0, 0, -19, -887, 2566, 184, 318, -243, -1710, -868, 15392, 595, 0, 0, 0, 0, 0
302, 9727075, 0, 0, 0, 0, 0, 0, 0, 0, 0, -3, -852, 2543, 164, 346, -190, -2060, -914, 15274, 595, 0, 0, 0, 0, 0
303, 9737053, 0, 0, 0, 0, 0, 0, 0, 0, 0, 15, -812, 2529, 202, 428, -110, -2716, -234, 15100, 595, 0, 0, 0, 0, 0
304, 9747022, 0, 0, 0, 0, 0, 0, 0, 0, 0, 56, -760, 2516, 448, 588, -125, -2604, 306, 14392, 595, 0, 0, 0, 0, 0
305, 9757015, 0, 0, 0, 0, 0, 0, 0, 0, 0, 140, -717, 2486, 764, 308, -353, -846, 2080, 13320, 595, 0, 0, 0, 0, 0
306, 9766989, 0, 0, 0, 0, 0, 0, 0, 0, 0, 224, -736, 2414, 527, -354, -724, -64, 3416, 12698, 595, 0, 0, 0, 0, 0
307, 9776969, 0, 0, 0, 0, 0, 0, 0, 0, 0, 265, -797, 2311, 47, -608, -927, -1008, 2236, 16920, 595, 0, 0, 0, 0, 0
308, 9786941, 0, 0, 0, 0, 0, 0, 0, 0, 0, 267, -834, 2210, -122, -284, -877, -984, 800, 16270, 595, 0, 0, 0, 0, 0
309, 9796927, 0, 0, 0, 0, 0, 0, 0, 0, 0, 265, -848, 2120, -90, -142, -780, -706, 292, 14984, 595, 0, 0, 0, 0, 0
310, 9806912, 0, 0, 0, 0, 0, 0, 0, 0, 0, 261, -858, 2047, -82, -118, -607, -1192, 134, 15254, 595, 0, 0, 0, 0, 0
311, 9816890, 0, 0, 0, 0, 0, 0, 0, 0, 0, 258, -866, 1991, -52, -61, -462, -1640, 530, 15168, 595, 0, 0, 0, 0, 0
312, 9826873, 0, 0, 0, 0, 0, 0, 0, 0, 0, 257, -870, 1948, -53, -27, -362, -1620, 824, 14792, 595, 0, 0, 0, 0, 0
313, 9836847, 0, 0, 0, 0, 0, 0, 0, 0, 0, 255, -874, 1914, -76, -24, -291, -1752, 936, 14900, 595, 0, 0, 0, 0, 0
314, 9846835, 0, 0, 0, 0, 0, 0, 0, 0, 0, 250, -877, 1885, -86, -6, -249, -1734, 942, 14856, 595, 0, 0, 0, 0, 0
315, 9856832, 0, 0, 0, 0, 0, 0, 0, 0, 0, 245, -880, 1860, -91, -1, -212, -1776, 908, 14888, 595, 0, 0, 0, 0, 0
316, 9866779, 0, 0, 0, 0, 0, 0, 0, 0, 0, 240, -881, 1839, -87, 9, -172, -1778, 854, 14906, 595, 0, 0, 0, 0, 0
317, 9876773, 0, 0, 0, 0, 0, 0, 0, 0, 0, 236, -881, 1822, -67, 24, -146, -1696, 930, 14902, 595, 0, 0, 0, 0, 0
318, 9886751, 0, 0, 0, 0, 0, 0, 0, 0, 0, 235, -879, 1806, -45, 35, -136, -1654, 966, 14884, 595, 0, 0, 0, 0, 0
319, 9896738, 0, 0, 0, 0, 0, 0, 0, 0, 0, 235, -877, 1792, -27, 43, -124, -1762, 912, 14906, 595, 0, 0, 0, 0, 0
320, 9906730, 0, 0, 0, 0, 0, 0, 0, 0, 0, 238, -874, 1780, -13, 54, -99, -1808, 870, 14872, 595, 0, 0, 0, 0, 0
321, 9916696, 0, 0, 0, 0, 0, 0, 0, 0, 0, 240, -870, 1772, -1, 58, -55, -1910, 824, 14866, 595, 0, 0, 0, 0, 0
322, 9926681, 0, 0, 0, 0, 0, 0, 0, 0, 0, 244, -866, 1769, 12, 73, -16, -1806, 922, 14898, 595, 0, 0, 0, 0, 0
323, 9936667, 0, 0, 0, 0, 0, 0, 0, 0, 0, 249, -860, 1769, 14, 75, 6, -1660, 1016, 14794, 595, 0, 0, 0, 0, 0
324, 9946646, 0, 0, 0, 0, 0, 0, 0, 0, 0, 253, -854, 1771, 3, 68, 18, -1614, 1068, 14800, 595, 0, 0, 0, 0, 0
325, 9956646, 0, 0, 0, 0, 0, 0, 0, 0, 0, 256, -849, 1773, -6, 61, 25, -1578, 1106, 14790, 595, 0, 0, 0, 0, 0
326, 9966599, 0, 0, 0, 0, 0, 0, 0, 0, 0, 258, -845, 1776, -15, 53, 28, -1566, 1154, 14800, 595, 0, 0, 0, 0, 0
327, 9976580, 0, 0, 0, 0, 0, 0, 0, 0, 0, 259, -842, 1779, -27, 42, 31, -1568, 1218, 14770, 595, 0, 0, 0, 0, 0
328, 9986572, 0, 0, 0, 0, 0, 0, 0, 0, 0, 259, -841, 1782, -41, 32, 33, -1554, 1228, 14772, 595, 0, 0, 0, 0, 0
329, 9996548, 0, 0, 0, 0, 0, 0, 0, 0, 0, 257, -840, 1786, -52, 25, 34, -1594, 1192, 14822, 595, 0, 0, 0, 0, 0
330, 10006523, 0, 0, 0, 0, 0, 0, 0, 0, 0, 255, -839, 1789, -57, 21, 34, -1600, 1168, 14824, 595, 0, 0, 0, 0, 0
331, 10016508, 0, 0, 0, 0, 0, 0, 0, 0, 0, 252, -840, 1793, -60, 18, 34, -1608, 1094, 14812, 595, 0, 0, 0, 0, 0
332, 10026487, 0, 0, 0, 0, 0, 0, 0, 0, 0, 248, -840, 1796, -61, 19, 34, -1626, 1060, 14856, 595, 0, 0, 0, 0, 0
333, 10036462, 0, 0, 0, 0, 0, 0, 0, 0, 0, 245, -840, 1799, -57, 22, 33, -1614, 1052, 14858, 595, 0, 0, 0, 0, 0
334, 10046445, 0, 0, 0, 0, 0, 0, 0, 0, 0, 243, -839, 1802, -50, 28, 28, -1574, 1098, 14858, 595, 0, 0, 0, 0, 0
335, 10056444, 0, 0, 0, 0, 0, 0, 0, 0, 0, 241, -838, 1805, -44, 29, 22, -1626, 1070, 14830, 595, 0, 0, 0, 0, 0
336, 10066413, 0, 0, 0, 0, 0, 0, 0, 0, 0, 240, -837, 1807, -39, 33, 26, -1660, 1068, 14870, 595, 0, 0, 0, 0, 0
337, 10076393, 0, 0, 0, 0, 0, 0, 0, 0, 0, 240, -835, 1810, -34, 38, 29, -1646, 1124, 14872, 595, 0, 0, 0, 0, 0
338, 10086387, 0, 0, 0, 0, 0, 0, 0, 0, 0, 240, -833, 1813, -33, 40, 31, -1618, 1150, 14874, 595, 0, 0, 0, 0, 0
339, 10096356, 0, 0, 0, 0, 0, 0, 0, 0, 0, 239, -831, 1816, -35, 40, 32, -1594, 1112, 14852, 595, 0, 0, 0, 0, 0
340, 10106329, 0, 0, 0, 0, 0, 0, 0, 0, 0, 239, -829, 1819, -34, 39, 33, -1568, 1120, 14832, 595, 0, 0, 0, 0, 0
341, 10116301, 0, 0, 0, 0, 0, 0, 0, 0, 0, 239, -827, 1823, -35, 38, 33, -1574, 1106, 14866, 595, 0, 0, 0, 0, 0
342, 10126285, 0, 0, 0, 0, 0, 0, 0, 0, 0, 238, -825, 1826, -37, 35, 33, -1612, 1130, 14832, 595, 0, 0, 0, 0, 0
343, 10136265, 0, 0, 0, 0, 0, 0, 0, 0, 0, 238, -824, 1830, -41, 33, 33, -1620, 1112, 14860, 595, 0, 0, 0, 0, 0
344, 10146248, 0, 0, 0, 0, 0, 0, 0, 0, 0, 236, -823, 1833, -44, 31, 33, -1642, 1112, 14860, 595, 0, 0, 0, 0, 0
345, 10156278, 0, 0, 0, 0, 0, 0, 0, 0, 0, 235, -822, 1836, -46, 30, 34, -1642, 1094, 14866, 595, 0, 0, 0, 0, 0
346, 10166205, 0, 0, 0, 0, 0, 0, 0, 0, 0, 233, -821, 1840, -46, 30, 33, -1636, 1088, 14860, 595, 0, 0, 0, 0, 0
347, 10176194, 0, 0, 0, 0, 0, 0, 0, 0, 0, 232, -820, 1843, -46, 30, 34, -1590, 1100, 14900, 595, 0, 0, 0, 0, 0
348, 10186163, 0, 0, 0, 0, 0, 0, 0, 0, 0, 230, -819, 1847, -45, 31, 33, -1560, 1102, 14868, 595, 0, 0, 0, 0, 0
349, 10196149, 0, 0, 0, 0, 0, 0, 0, 0, 0, 229, -818, 1850, -44, 31, 34, -1574, 1128, 14890, 595, 0, 0, 0, 0, 0
350, 10206177, 0, 0, 0, 0, 0, 0, 0, 0, 0, 228, -817, 1853, -42, 31, 33, -1598, 1128, 14860, 595, 0, 0, 0, 0, 0
351, 10216124, 0, 0, 0, 0, 0, 0, 0, 0, 0, 227, -816, 1857, -42, 31, 33, -1636, 1136, 14858, 595, 0, 0, 0, 0, 0
352, 10226095, 0, 0, 0, 0, 0, 0, 0, 0, 0, 226, -815, 1860, -41, 33, 33, -1662, 1108, 14880, 595, 0, 0, 0, 0, 0
353, 10236232, 0, 0, 0, 0, 0, 0, 0, 0, 0, 225, -814, 1863, -41, 34, 34, -1650, 1102, 14854, 595, 0, 0, 0, 0, 0
354, 10246051, 0, 0, 0, 0, 0, 0, 0, 0, 0, 224, -812, 1867, -41, 34, 34, -1616, 1094, 14870, 595, 0, 0, 0, 0, 0
355, 10256077, 0, 0, 0, 0, 0, 0, 0, 0, 0, 223, -811, 1870, -41, 34, 34, -1596, 1094, 14860, 595, 0, 0, 0, 0, 0
356, 10266013, 0, 0, 0, 0, 0, 0, 0, 0, 0, 222, -810, 1874, -41, 34, 34, -1592, 1098, 14866, 595, 0, 0, 0, 0, 0
357, 10275994, 0, 0, 0, 0, 0, 0, 0, 0, 0, 221, -808, 1877, -40, 33, 34, -1604, 1126, 14872, 595, 0, 0, 0, 0, 0
358, 10285982, 0, 0, 0, 0, 0, 0, 0, 0, 0, 221, -807, 1881, -41, 32, 33, -1608, 1138, 14864, 595, 0, 0, 0, 0, 0
359, 10295957, 0, 0, 0, 0, 0, 0, 0, 0, 0, 220, -806, 1884, -42, 32, 34, -1602, 1146, 14828, 595, 0, 0, 0, 0, 0
360, 10305989, 0, 0, 0, 0, 0, 0, 0, 0, 0, 219, -805, 1887, -42, 32, 34, -1604, 1140, 14792, 595, 0, 0, 0, 0, 0
361, 10315923, 0, 0, 0, 0, 0, 0, 0, 0, 0, 218, -804, 1891, -43, 32, 34, -1578, 1116, 14806, 595, 0, 0, 0, 0, 0
362, 10325906, 0, 0, 0, 0, 0, 0, 0, 0, 0, 217, -803, 1894, -44, 31, 34, -1562, 1106, 14838, 595, 0, 0, 0, 0, 0
363, 10335878, 0, 0, 0, 0, 0, 0, 0, 0, 0, 216, -802, 1898, -43, 31, 34, -1576, 1114, 14842, 595, 0, 0, 0, 0, 0
364, 10345859, 0, 0, 0, 0, 0, 0, 0, 0, 0, 214, -801, 1901, -43, 31, 34, -1614, 1110, 14834, 595, 0, 0, 0, 0, 0
365, 10355874, 0, 0, 0, 0, 0, 0, 0, 0, 0, 213, -800, 1905, -42, 31, 34, -1640, 1094, 14854, 595, 0, 0, 0, 0, 0
366, 10365811, 0, 0, 0, 0, 0, 0, 0, 0, 0, 213, -799, 1908, -41, 32, 34, -1640, 1100, 14830, 595, 0, 0, 0, 0, 0
367, 10375791, 0, 0, 0, 0, 0, 0, 0, 0, 0, 212, -798, 1912, -41, 32, 33, -1642, 1130, 14854, 595, 0, 0, 0, 0, 0
368, 10385774, 0, 0, 0, 0, 0, 0, 0, 0, 0, 211, -797, 1915, -42, 33, 34, -1632, 1116, 14850, 595, 0, 0, 0, 0, 0
369, 10395757, 0, 0, 0, 0, 0, 0, 0, 0, 0, 210, -796, 1918, -42, 34, 34, -1596, 1130, 14840, 595, 0, 0, 0, 0, 0
370, 10405781, 0, 0, 0, 0, 0, 0, 0, 0, 0, 209, -795, 1922, -43, 32, 34, -1608, 1126, 14886, 595, 0, 0, 0, 0, 0
371, 10415724, 0, 0, 0, 0, 0, 0, 0, 0, 0, 208, -794, 1925, -42, 32, 34, -1610, 1144, 14870, 595, 0, 0, 0, 0, 0
372, 10425698, 0, 0, 0, 0, 0, 0, 0, 0, 0, 207, -793, 1929, -42, 32, 34, -1630, 1138, 14844, 595, 0, 0, 0, 0, 0
373, 10435672, 0, 0, 0, 0, 0, 0, 0, 0, 0, 206, -792, 1932, -44, 31, 34, -1666, 1106, 14862, 595, 0, 0, 0, 0, 0
374, 10445665, 0, 0, 0, 0, 0, 0, 0, 0, 0, 205, -792, 1936, -43, 33, 34, -1646, 1090, 14882, 595, 0, 0, 0, 0, 0
375, 10455696, 0, 0, 0, 0, 0, 0, 0, 0, 0, 204, -791, 1939, -45, 32, 35, -1650, 1054, 14896, 595, 0, 0, 0, 0, 0
376, 10465616, 0, 0, 0, 0, 0, 0, 0, 0, 0, 203, -790, 1943, -44, 33, 34, -1630, 1076, 14832, 595, 0, 0, 0, 0, 0
377, 10475599, 0, 0, 0, 0, 0, 0, 0, 0, 0, 201, -789, 1946, -43, 32, 34, -1608, 1090, 14882, 595, 0, 0, 0, 0, 0
378, 10485572, 0, 0, 0, 0, 0, 0, 0, 0, 0, 201, -788, 1950, -41, 35, 34, -1574, 1136, 14868, 595, 0, 0, 0, 0, 0
379, 10495566, 0, 0, 0, 0, 0, 0, 0, 0, 0, 200, -786, 1953, -40, 34, 34, -1560, 1168, 14878, 595, 0, 0, 0, 0, 0
380, 10505596, 0, 0, 0, 0, 0, 0, 0, 0, 0, 200, -785, 1956, -40, 34, 34, -1590, 1182, 14870, 595, 0, 0, 0, 0, 0
381, 18355442, 0, 2687, 0, 0, 0, 0, 0, 0, 0, 16302, -2845, 3239, 415, 177, -59, -3800, 14952, 5912, 595, 0, 0, 0, 0, 0
382, 18359310, 0, 2687, 0, 0, 0, 0, 0, 0, 0, 16301, -2848, 3239, 419, 159, -65, -3628, 14992, 6036, 595, 0, 0, 0, 0, 0
383, 18363176, 0, 2687, 0, 0, 0, 0, 0, 0, 0, 16300, -2850, 3239, 425, 157, -68, -3592, 14944, 6368, 595, 0, 0, 0, 0, 0
384, 18367047, 0, 2687, 0, 0, 0, 0, 0, 0, 0, 16298, -2851, 3239, 427, 172, -66, -3444, 14804, 6336, 595, 0, 0, 0, 0, 0
385, 18370967, 0, 2687, 0, 0, 0, 0, 0, 0, 0, 16296, -2850, 3239, 447, 190, -65, -3276, 14808, 6544, 595, 0, 0, 0, 0, 0
386, 18374780, 0, 2687, 0, 0, 0, 0, 0, 0, 0, 16291, -2848, 3239, 456, 222, -52, -3132, 14496, 6636, 595, 0, 0, 0, 0, 0
387, 18378648, 0, 2687, 0, 0, 0, 0, 0, 0, 0, 16288, -2843, 3239, 475, 239, -46, -2912, 14580, 6860, 595, 0, 0, 0, 0, 0
388, 18382518, 0, 2687, 0, 0, 0, 0, 0, 0, 0, 16284, -2837, 3239, 502, 247, -30, -2716, 14488, 6744, 595, 0, 0, 0, 0, 0
389, 18386385, 0, 2687, 0, 0, 0, 0, 0, 0, 0, 16281, -2830, 3239, 533, 251, -5, -2616, 14376, 6988, 595, 0, 0, 0, 0, 0
390, 18390253, 0, 2687, 0, 0, 0, 0, 0, 0, 0, 16279, -2822, 3239, 565, 261, 22, -2556, 14388, 7032, 595, 0, 0, 0, 0, 0
391, 18394120, 0, 2687, 0, 0, 0, 0, 0, 0, 0, 16277, -2815, 3239, 599, 274, 52, -2640, 14428, 6872, 595, 0, 0, 0, 0, 0
392, 18397987, 0, 2687, 0, 0, 0, 0, 0, 0, 0, 16277, -2808, 3239, 637, 287, 79, -2724, 14520, 6704, 595, 0, 0, 0, 0, 0
393, 18401955, 0, 2687, 0, 0, 0, 0, 0, 0, 0, 16278, -2801, 3239, 668, 294, 104, -2800, 14552, 6792, 595, 0, 0, 0, 0, 0
394, 18405722, 0, 2687, 0, 0, 0, 0, 0, 0, 0, 16280, -2796, 3239, 705, 293, 124, -2932, 14576, 6696, 595, 0, 0, 0, 0, 0
395, 18409589, 0, 2687, 0, 0, 0, 0, 0, 0, 0, 16282, -2792, 3239, 729, 281, 134, -3124, 14612, 6600, 595, 0, 0, 0, 0, 0
396, 18413464, 0, 2687, 0, 0, 0, 0, 0, 0, 0, 16286, -2791, 3239, 750, 264, 144, -3336, 14696, 6516, 595, 0, 0, 0, 0, 0
397, 18417325, 0, 2687, 0, 0, 0, 0, 0, 0, 0, 16291, -2792, 3239, 766, 246, 143, -3564, 14892, 6152, 595, 0, 0, 0, 0, 0
398, 18421197, 0, 2687, 0, 0, 0, 0, 0, 0, 0, 16297, -2794, 3239, 770, 238, 139, -3804, 14904, 5692, 595, 0, 0, 0, 0, 0
399, 18425063, 0, 2687, 0, 0, 0, 0, 0, 0, 0, 16303, -2798, 3239, 764, 237, 128, -3996, 14924, 5676, 595, 0, 0, 0, 0, 0
400, 18428924, 0, 2687, 0, 0, 0, 0, 0, 0, 0, 16310, -2803, 3239, 762, 241, 118, -4108, 15068, 5400, 595, 0, 0, 0, 0, 0
401, 18432849, 0, 2687, 0, 0, 0, 0, 0, 0, 0, 16317, -2809, 3239, 745, 246, 100, -4240, 15080, 5180, 595, 0, 0, 0, 0, 0
402, 18436658, 0, 2687, 0, 0, 0, 0, 0, 0, 0, 16324, -2816, 3239, 727, 240, 83, -4408, 15228, 5208, 595, 0, 0, 0, 0, 0
403, 18440524, 0, 2687, 0, 0, 0, 0, 0, 0, 0, 16330, -2823, 3239, 696, 244, 59, -4432, 15156, 4928, 595, 0, 0, 0, 0, 0
404, 18444396, 0, 2687, 0, 0, 0, 0, 0, 0, 0, 16336, -2831, 3239, 649, 249, 29, -4556, 15196, 5000, 595, 0, 0, 0, 0, 0
405, 18448271, 0, 2687, 0, 0, 0, 0, 0, 0, 0, 16342, -2839, 3239, 603, 258, -5, -4544, 15368, 5160, 595, 0, 0, 0, 0, 0
406, 18452241, 0, 2687, 0, 0, 0, 0, 0, 0, 0, 16346, -2845, 3239, 548, 279, -30, -4372, 15356, 5064, 595, 0, 0, 0, 0, 0
407, 18455995, 0, 2687, 0, 0, 0, 0, 0, 0, 0, 16348, -2849, 3239, 495, 302, -56, -4184, 15324, 5124, 595, 0, 0, 0, 0, 0
408, 18459874, 0, 2687, 0, 0, 0, 0, 0, 0, 0, 16348, -2851, 3239, 455, 316, -79, -3936, 15104, 5308, 595, 0, 0, 0, 0, 0
409, 18463784, 0, 2687, 0, 0, 0, 0, 0, 0, 0, 16347, -2851, 3239, 425, 319, -87, -3652, 15048, 5400, 595, 0, 0, 0, 0, 0
410, 18467595, 0, 2687, 0, 0, 0, 0, 0, 0, 0, 16343, -2848, 3239, 407, 311, -91, -3348, 14728, 5768, 595, 0, 0, 0, 0, 0
411, 18471469, 0, 2687, 0, 0, 0, 0, 0, 0, 0, 16338, -2844, 3239, 400, 298, -88, -3208, 14660, 5820, 595, 0, 0, 0, 0, 0
412, 18475342, 0, 2687, 0, 0, 0, 0, 0, 0, 0, 16333, -2838, 3239, 409, 286, -78, -2964, 14560, 6072, 595, 0, 0, 0, 0, 0
413, 18479203, 0, 2687, 0, 0, 0, 0, 0, 0, 0, 16326, -2832, 3239, 428, 276, -62, -2768, 14248, 6348, 595, 0, 0, 0, 0, 0
414, 18483067, 0, 2687, 0, 0, 0, 0, 0, 0, 0, 16319, -2824, 3239, 449, 281, -35, -2664, 14216, 6420, 595, 0, 0, 0, 0, 0
415, 18486934, 0, 2687, 0, 0, 0, 0, 0, 0, 0, 16313, -2814, 3239, 474, 278, -9, -2420, 14248, 6564, 595, 0, 0, 0, 0, 0
416, 18490803, 0, 2687, 0, 0, 0, 0, 0, 0, 0, 16307, -2805, 3239, 498, 254, 27, -2408, 14208, 6600, 595, 0, 0, 0, 0, 0
417, 18494727, 0, 2687, 0, 0, 0, 0, 0, 0, 0, 16303, -2798, 3239, 531, 223, 57, -2488, 14304, 6652, 595, 0, 0, 0, 0, 0
418, 18498546, 0, 2687, 0, 0, 0, 0, 0, 0, 0, 16300, -2791, 3239, 561, 187, 88, -2432, 14300, 6672, 595, 0, 0, 0, 0, 0
419, 18502484, 0, 2687, 0, 0, 0, 0, 0, 0, 0, 16296, -2786, 3239, 591, 152, 108, -2620, 14252, 6592, 595, 0, 0, 0, 0, 0
420, 18506280, 0, 2687, 0, 0, 0, 0, 0, 0, 0, 16295, -2784, 3239, 619, 124, 133, -2828, 14504, 6428, 595, 0, 0, 0, 0, 0
421, 18510141, 0, 2687, 0, 0, 0, 0, 0, 0, 0, 16296, -2783, 3239, 638, 105, 148, -3004, 14664, 6356, 595, 0, 0, 0, 0, 0
422, 18514008, 0, 2687, 0, 0, 0, 0, 0, 0, 0, 16299, -2784, 3239, 653, 103, 163, -3236, 14836, 6268, 595, 0, 0, 0, 0, 0
423, 18517873, 0, 2687, 0, 0, 0, 0, 0, 0, 0, 16304, -2788, 3239, 667, 112, 171, -3580, 15072, 6200, 595, 0, 0, 0, 0, 0
424, 18521740, 0, 2687, 0, 0, 0, 0, 0, 0, 0, 16309, -2794, 3239, 668, 116, 170, -3852, 15116, 6092, 595, 0, 0, 0, 0, 0
425, 18525658, 0, 2687, 0, 0, 0, 0, 0, 0, 0, 16315, -2802, 3239, 667, 131, 163, -4128, 15224, 5748, 595, 0, 0, 0, 0, 0
426, 18529480, 0, 2687, 0, 0, 0, 0, 0, 0, 0, 16322, -2811, 3239, 664, 146, 150, -4380, 15420, 5844, 595, 0, 0, 0, 0, 0
427, 18533355, 0, 2687, 0, 0, 0, 0, 0, 0, 0, 16329, -2820, 3239, 648, 159, 122, -4432, 15356, 5568, 595, 0, 0, 0, 0, 0
428, 18537213, 0, 2687, 0, 0, 0, 0, 0, 0, 0, 16336, -2830, 3239, 635, 174, 100, -4540, 15488, 5676, 595, 0, 0, 0, 0, 0
429, 18541079, 0, 2687, 0, 0, 0, 0, 0, 0, 0, 16343, -2839, 3239, 615, 193, 70, -4492, 15496, 5704, 595, 0, 0, 0, 0, 0
430, 18544957, 0, 2687, 0, 0, 0, 0, 0, 0, 0, 16350, -2849, 3239, 593, 215, 40, -4664, 15588, 5644, 595, 0, 0, 0, 0, 0
431, 18548812, 0, 2687, 0, 0, 0, 0, 0, 0, 0, 16356, -2858, 3239, 575, 244, 8, -4652, 15592, 5576, 595, 0, 0, 0, 0, 0
432, 18552765, 0, 2687, 0, 0, 0, 0, 0, 0, 0, 16361, -2865, 3239, 556, 282, -21, -4520, 15452, 5644, 595, 0, 0, 0, 0, 0
433, 18556592, 0, 2687, 0, 0, 0, 0, 0, 0, 0, 16365, -2870, 3239, 539, 307, -51, -4320, 15364, 5740, 595, 0, 0, 0, 0, 0
434, 18560413, 0, 2687, 0, 0, 0, 0, 0, 0, 0, 16368, -2873, 3239, 531, 329, -69, -4144, 15268, 5724, 595, 0, 0, 0, 0, 0
435, 18564286, 0, 2687, 0, 0, 0, 0, 0, 0, 0, 16370, -2874, 3239, 525, 340, -89, -3924, 15136, 5884, 595, 0, 0, 0, 0, 0
436, 18568153, 0, 2687, 0, 0, 0, 0, 0, 0, 0, 16371, -2873, 3239, 525, 356, -99, -3656, 15092, 5912, 595, 0, 0, 0, 0, 0
437, 18572017, 0, 2687, 0, 0, 0, 0, 0, 0, 0, 16371, -2870, 3239, 529, 361, -98, -3464, 14848, 5988, 595, 0, 0, 0, 0, 0
438, 18575883, 0, 2687, 0, 0, 0, 0, 0, 0, 0, 16370, -2865, 3239, 538, 361, -90, -3164, 14752, 6112, 595, 0, 0, 0, 0, 0
439, 18579762, 0, 2687, 0, 0, 0, 0, 0, 0, 0, 16369, -2858, 3239, 554, 358, -77, -2976, 14672, 6012, 595, 0, 0, 0, 0, 0
440, 18583630, 0, 2687, 0, 0, 0, 0, 0, 0, 0, 16368, -2850, 3239, 557, 352, -55, -2788, 14600, 5856, 595, 0, 0, 0, 0, 0
441, 18587541, 0, 2687, 0, 0, 0, 0, 0, 0, 0, 16367, -2842, 3239, 566, 347, -37, -2728, 14596, 6052, 595, 0, 0, 0, 0, 0
442, 18591362, 0, 2687, 0, 0, 0, 0, 0, 0, 0, 16366, -2833, 3239, 572, 333, -14, -2604, 14608, 5988, 595, 0, 0, 0, 0, 0
443, 18595226, 0, 2687, 0, 0, 0, 0, 0, 0, 0, 16363, -2824, 3239, 569, 328, 7, -2668, 14436, 5828, 595, 0, 0, 0, 0, 0
444, 18599092, 0, 2687, 0, 0, 0, 0, 0, 0, 0, 16362, -2817, 3239, 570, 312, 24, -2708, 14624, 5756, 595, 0, 0, 0, 0, 0
445, 18603014, 0, 2687, 0, 0, 0, 0, 0, 0, 0, 16361, -2811, 3239, 563, 303, 40, -2920, 14588, 5668, 595, 0, 0, 0, 0, 0
446, 18606827, 0, 2687, 0, 0, 0, 0, 0, 0, 0, 16358, -2806, 3239, 557, 283, 53, -2948, 14412, 5792, 595, 0, 0, 0, 0, 0
447, 18610694, 0, 2687, 0, 0, 0, 0, 0, 0, 0, 16355, -2802, 3239, 552, 257, 58, -3012, 14560, 5732, 595, 0, 0, 0, 0, 0
448, 18614560, 0, 2687, 0, 0, 0, 0, 0, 0, 0, 16353, -2800, 3239, 546, 217, 60, -3132, 14600, 5816, 595, 0, 0, 0, 0, 0
449, 18618472, 0, 2687, 0, 0, 0, 0, 0, 0, 0, 16351, -2799, 3239, 537, 184, 64, -3064, 14700, 5780, 595, 0, 0, 0, 0, 0
450, 18622297, 0, 2687, 0, 0, 0, 0, 0, 0, 0, 16350, -2799, 3239, 529, 153, 70, -3268, 14824, 5880, 595, 0, 0, 0, 0, 0
451, 18626158, 0, 2687, 0, 0, 0, 0, 0, 0, 0, 16350, -2800, 3239, 526, 155, 79, -3376, 14876, 5840, 595, 0, 0, 0, 0, 0
452, 18630037, 0, 2687, 0, 0, 0, 0, 0, 0, 0, 16349, -2803, 3239, 518, 172, 78, -3576, 14768, 5916, 595, 0, 0, 0, 0, 0
453, 18633898, 0, 2687, 0, 0, 0, 0, 0, 0, 0, 16348, -2805, 3239, 520, 200, 77, -3628, 14812, 6180, 595, 0, 0, 0, 0, 0
454, 18637776, 0, 2687, 0, 0, 0, 0, 0, 0, 0, 16347, -2808, 3239, 524, 222, 72, -3784, 14788, 6172, 595, 0, 0, 0, 0, 0
455, 18641637, 0, 2687, 0, 0, 0, 0, 0, 0, 0, 16347, -2811, 3239, 532, 226, 67, -3764, 14860, 6068, 595, 0, 0, 0, 0, 0
456, 18645503, 0, 2687, 0, 0, 0, 0, 0, 0, 0, 16347, -2814, 3239, 547, 210, 61, -3744, 14868, 6468, 595, 0, 0, 0, 0, 0
457, 18649416, 0, 2687, 0, 0, 0, 0, 0, 0, 0, 16347, -2818, 3239, 565, 181, 58, -3784, 14788, 6348, 595, 0, 0, 0, 0, 0
458, 18653292, 0, 2687, 0, 0, 0, 0, 0, 0, 0, 16348, -2821, 3239, 577, 154, 51, -3696, 14840, 6420, 595, 0, 0, 0, 0, 0
459, 18657103, 0, 2687, 0, 0, 0, 0, 0, 0, 0, 16348, -2824, 3239, 593, 151, 46, -3708, 14788, 6440, 595, 0, 0, 0, 0, 0
460, 18660969, 0, 2687, 0, 0, 0, 0, 0, 0, 0, 16349, -2827, 3239, 608, 156, 39, -3712, 14756, 6732, 595, 0, 0, 0, 0, 0
461, 18664846, 0, 2687, 0, 0, 0, 0, 0, 0, 0, 16350, -2830, 3239, 624, 166, 36, -3684, 14728, 6448, 595, 0, 0, 0, 0, 0
462, 18668703, 0, 2687, 0, 0, 0, 0, 0, 0, 0, 16351, -2833, 3239, 634, 182, 31, -3660, 14780, 6368, 595, 0, 0, 0, 0, 0
463, 18672574, 0, 2687, 0, 0, 0, 0, 0, 0, 0, 16352, -2835, 3239, 647, 207, 25, -3684, 14680, 6384, 595, 0, 0, 0, 0, 0
464, 18676439, 0, 2687, 0, 0, 0, 0, 0, 0, 0, 16354, -2838, 3239, 653, 230, 20, -3752, 14740, 6328, 595, 0, 0, 0, 0, 0
465, 18680354, 0, 2687, 0, 0, 0, 0, 0, 0, 0, 16355, -2839, 3239, 658, 240, 8, -3700, 14584, 6060, 595, 0, 0, 0, 0, 0
466, 18684174, 0, 2687, 0, 0, 0, 0, 0, 0, 0, 16356, -2840, 3239, 662, 244, 3, -3632, 14700, 6012, 595, 0, 0, 0, 0, 0
467, 18688041, 0, 2687, 0, 0, 0, 0, 0, 0, 0, 16357, -2840, 3239, 653, 241, -1, -3484, 14672, 5944, 595, 0, 0, 0, 0, 0
468, 18691908, 0, 2687, 0, 0, 0, 0, 0, 0, 0, 16358, -2839, 3239, 644, 245, -3, -3388, 14708, 5828, 595, 0, 0, 0, 0, 0
469, 18695778, 0, 2687, 0, 0, 0, 0, 0, 0, 0, 16359, -2838, 3239, 626, 259, 3, -3468, 14776, 5668, 595, 0, 0, 0, 0, 0
470, 18699648, 0, 2687, 0, 0, 0, 0, 0, 0, 0, 16359, -2836, 3239, 599, 282, 6, -3416, 14732, 5676, 595, 0, 0, 0, 0, 0
471, 18703619, 0, 2687, 0, 0, 0, 0, 0, 0, 0, 16359, -2833, 3239, 573, 299, 14, -3316, 14824, 5404, 595, 0, 0, 0, 0, 0
472, 18707382, 0, 2687, 0, 0, 0, 0, 0, 0, 0, 16358, -2831, 3239, 550, 306, 16, -3348, 14724, 5680, 595, 0, 0, 0, 0, 0
473, 18711289, 0, 2687, 0, 0, 0, 0, 0, 0, 0, 16357, -2829, 3239, 532, 309, 20, -3396, 14752, 5532, 595, 0, 0, 0, 0, 0
474, 18715121, 0, 2687, 0, 0, 0, 0, 0, 0, 0, 16356, -2828, 3239, 509, 317, 24, -3492, 14740, 5484, 595, 0, 0, 0, 0, 0
475, 18718982, 0, 2687, 0, 0, 0, 0, 0, 0, 0, 16354, -2826, 3239, 494, 330, 28, -3536, 14728, 5260, 595, 0, 0, 0, 0, 0
476, 18722854, 0, 2687, 0, 0, 0, 0, 0, 0, 0, 16352, -2824, 3239, 477, 343, 31, -3528, 14800, 5412, 595, 0, 0, 0, 0, 0
477, 18726720, 0, 2687, 0, 0, 0, 0, 0, 0, 0, 16350, -2823, 3239, 457, 354, 29, -3608, 14892, 5532, 595, 0, 0, 0, 0, 0
478, 18730583, 0, 2687, 0, 0, 0, 0, 0, 0, 0, 16348, -2822, 3239, 442, 363, 29, -3708, 14884, 5560, 595, 0, 0, 0, 0, 0
479, 18734455, 0, 2687, 0, 0, 0, 0, 0, 0, 0, 16347, -2822, 3239, 428, 368, 21, -3756, 14968, 5664, 595, 0, 0, 0, 0, 0
480, 18738327, 0, 2687, 0, 0, 0, 0, 0, 0, 0, 16345, -2822, 3239, 423, 366, 14, -3792, 14924, 5700, 595, 0, 0, 0, 0, 0
481, 18742239, 0, 2687, 0, 0, 0, 0, 0, 0, 0, 16343, -2823, 3239, 418, 357, 5, -3908, 14844, 5924, 595, 0, 0, 0, 0, 0
482, 18746050, 0, 2687, 0, 0, 0, 0, 0, 0, 0, 16341, -2823, 3239, 421, 343, -9, -3824, 14940, 5932, 595, 0, 0, 0, 0, 0
483, 18749930, 0, 2687, 0, 0, 0, 0, 0, 0, 0, 16339, -2824, 3239, 427, 321, -16, -3772, 14868, 6008, 595, 0, 0, 0, 0, 0
484, 18753871, 0, 2687, 0, 0, 0, 0, 0, 0, 0, 16339, -2825, 3239, 432, 318, -20, -3816, 15156, 6052, 595, 0, 0, 0, 0, 0
485, 18757650, 0, 2687, 0, 0, 0, 0, 0, 0, 0, 16339, -2825, 3239, 431, 346, -33, -3784, 15188, 6184, 595, 0, 0, 0, 0, 0
486, 18761524, 0, 2687, 0, 0, 0, 0, 0, 0, 0, 16338, -2823, 3239, 444, 349, -36, -3584, 14988, 6416, 595, 0, 0, 0, 0, 0
487, 18765390, 0, 2687, 0, 0, 0, 0, 0, 0, 0, 16338, -2820, 3239, 465, 339, -32, -3364, 15040, 6668, 595, 0, 0, 0, 0, 0
488, 18769257, 0, 2687, 0, 0, 0, 0, 0, 0, 0, 16338, -2817, 3239, 481, 319, -25, -3324, 15036, 6548, 595, 0, 0, 0, 0, 0
489, 18773169, 0, 2687, 0, 0, 0, 0, 0, 0, 0, 16338, -2814, 3239, 502, 296, -17, -3264, 14988, 6776, 595, 0, 0, 0, 0, 0
490, 18776989, 0, 2687, 0, 0, 0, 0, 0, 0, 0, 16339, -2812, 3239, 526, 275, -9, -3252, 14952, 6696, 595, 0, 0, 0, 0, 0
491, 18780856, 0, 2687, 0, 0, 0, 0, 0, 0, 0, 16339, -2810, 3239, 553, 270, -3, -3292, 14924, 6728, 595, 0, 0, 0, 0, 0
492, 18784735, 0, 2687, 0, 0, 0, 0, 0, 0, 0, 16341, -2809, 3239, 568, 274, 1, -3364, 14972, 6828, 595, 0, 0, 0, 0, 0
493, 18788593, 0, 2687, 0, 0, 0, 0, 0, 0, 0, 16342, -2807, 3239, 579, 290, 0, -3368, 14900, 6688, 595, 0, 0, 0, 0, 0
494, 18792460, 0, 2687, 0, 0, 0, 0, 0, 0, 0, 16342, -2806, 3239, 593, 303, -1, -3484, 14744, 6640, 595, 0, 0, 0, 0, 0
495, 18796322, 0, 2687, 0, 0, 0, 0, 0, 0, 0, 16344, -2804, 3239, 600, 306, -7, -3416, 14836, 6396, 595, 0, 0, 0, 0, 0
496, 18800192, 0, 2687, 0, 0, 0, 0, 0, 0, 0, 16345, -2803, 3239, 609, 303, -16, -3536, 14776, 6440, 595, 0, 0, 0, 0, 0
497, 18804211, 0, 2687, 0, 0, 0, 0, 0, 0, 0, 16345, -2801, 3239, 614, 302, -25, -3392, 14684, 6184, 595, 0, 0, 0, 0, 0
498, 18807931, 0, 2687, 0, 0, 0, 0, 0, 0, 0, 16344, -2798, 3239, 611, 302, -34, -3304, 14552, 6156, 595, 0, 0, 0, 0, 0
499, 18811791, 0, 2687, 0, 0, 0, 0, 0, 0, 0, 16344, -2795, 3239, 608, 306, -39, -3240, 14644, 6156, 595, 0, 0, 0, 0, 0
500, 18815664, 0, 2687, 0, 0, 0, 0, 0, 0, 0, 16344, -2791, 3239, 610, 301, -39, -3068, 14636, 6104, 595, 0, 0, 0, 0, 0
501, 18819528, 0, 2687, 0, 0, 0, 0, 0, 0, 0, 16342, -2787, 3239, 609, 299, -27, -3072, 14388, 5844, 595, 0, 0, 0, 0, 0
502, 18823403, 0, 2687, 0, 0, 0, 0, 0, 0, 0, 16341, -2782, 3239, 604, 304, -14, -2976, 14460, 5736, 595, 0, 0, 0, 0, 0
503, 18827266, 0, 2687, 0, 0, 0, 0, 0, 0, 0, 16338, -2778, 3239, 609, 305, 3, -3036, 14280, 5620, 595, 0, 0, 0, 0, 0
504, 18831127, 0, 2687, 0, 0, 0, 0, 0, 0, 0, 16335, -2773, 3239, 603, 298, 13, -2976, 14292, 5440, 595, 0, 0, 0, 0, 0
505, 18835041, 0, 2687, 0, 0, 0, 0, 0, 0, 0, 16333, -2768, 3239, 602, 284, 32, -2924, 14328, 5324, 595, 0, 0, 0, 0, 0
506, 18838863, 0, 2687, 0, 0, 0, 0, 0, 0, 0, 16332, -2763, 3239, 584, 249, 46, -2876, 14556, 5068, 595, 0, 0, 0, 0, 0
507, 18842733, 0, 2687, 0, 0, 0, 0, 0, 0, 0, 16331, -2760, 3239, 568, 203, 54, -2912, 14612, 5120, 595, 0, 0, 0, 0, 0
508, 18846601, 0, 2687, 0, 0, 0, 0, 0, 0, 0, 16330, -2758, 3239, 543, 161, 62, -2920, 14784, 5256, 595, 0, 0, 0, 0, 0
509, 18850701, 0, 2687, 0, 0, 0, 0, 0, 0, 0, 16330, -2758, 3239, 518, 127, 75, -3128, 14924, 5260, 595, 0, 0, 0, 0, 0
510, 18854337, 0, 2687, 0, 0, 0, 0, 0, 0, 0, 16331, -2760, 3239, 491, 110, 88, -3292, 15068, 5396, 595, 0, 0, 0, 0, 0
511, 18858201, 0, 2687, 0, 0, 0, 0, 0, 0, 0, 16331, -2763, 3239, 471, 109, 89, -3496, 14936, 5644, 595, 0, 0, 0, 0, 0
512, 18862069, 0, 2687, 0, 0, 0, 0, 0, 0, 0, 16330, -2767, 3239, 457, 114, 89, -3536, 14936, 5920, 595, 0, 0, 0, 0, 0
513, 18865988, 0, 2687, 0, 0, 0, 0, 0, 0, 0, 16330, -2772, 3239, 448, 125, 76, -3684, 15084, 6320, 595, 0, 0, 0, 0, 0
514, 18869815, 0, 2687, 0, 0, 0, 0, 0, 0, 0, 16329, -2778, 3239, 449, 139, 66, -3924, 15012, 6416, 595, 0, 0, 0, 0, 0
515, 18873682, 0, 2687, 0, 0, 0, 0, 0, 0, 0, 16329, -2783, 3239, 454, 157, 51, -3840, 15080, 6616, 595, 0, 0, 0, 0, 0
516, 18877538, 0, 2687, 0, 0, 0, 0, 0, 0, 0, 16328, -2788, 3239, 456, 185, 36, -3944, 15052, 6892, 595, 0, 0, 0, 0, 0
517, 18881404, 0, 2687, 0, 0, 0, 0, 0, 0, 0, 16328, -2792, 3239, 463, 214, 20, -3868, 15056, 6916, 595, 0, 0, 0, 0, 0
518, 18885275, 0, 2687, 0, 0, 0, 0, 0, 0, 0, 16327, -2795, 3239, 476, 240, 4, -3872, 14852, 6988, 595, 0, 0, 0, 0, 0
519, 18889142, 0, 2687, 0, 0, 0, 0, 0, 0, 0, 16326, -2798, 3239, 490, 253, -17, -3832, 14896, 7056, 595, 0, 0, 0, 0, 0
520, 18893008, 0, 2687, 0, 0, 0, 0, 0, 0, 0, 16323, -2800, 3239, 507, 259, -31, -3696, 14632, 7308, 595, 0, 0, 0, 0, 0
521, 18896919, 0, 2687, 0, 0, 0, 0, 0, 0, 0, 16320, -2799, 3239, 523, 262, -41, -3416, 14540, 7132, 595, 0, 0, 0, 0, 0
522, 18900795, 0, 2687, 0, 0, 0, 0, 0, 0, 0, 16317, -2797, 3239, 544, 265, -50, -3304, 14444, 7036, 595, 0, 0, 0, 0, 0
523, 18904614, 0, 2687, 0, 0, 0, 0, 0, 0, 0, 16315, -2794, 3239, 558, 274, -46, -3156, 14428, 6860, 595, 0, 0, 0, 0, 0
524, 18908487, 0, 2687, 0, 0, 0, 0, 0, 0, 0, 16312, -2789, 3239, 569, 288, -37, -2956, 14392, 6840, 595, 0, 0, 0, 0, 0
