index_log, time_stamp, mode, thrust, roll, pitch, yaw, ae[0], ae[1], ae[2], ae[3], phi, theta, psi, sp, sq, sr, sax, say, saz, bat_volt, P, P1, P2, temperature, pressure
0, 156935390, 5, 2687, 0, 0, 0, 365, 363, 307, 307, 0, 0, 5070, -2, -3, 0, -2766, 2620, 14818, 595, 4, 2, 6, 0, 0
1, 156945360, 5, 2687, 0, 0, 0, 365, 363, 306, 307, 0, 0, 5070, -2, -5, 0, -2722, 2620, 14702, 595, 4, 2, 6, 0, 0
2, 156955337, 5, 2687, 0, 0, 0, 365, 363, 306, 307, 0, 0, 5070, -2, -4, 0, -2716, 2648, 14674, 595, 4, 2, 6, 0, 0
3, 156965331, 5, 2687, 0, 0, 0, 365, 363, 306, 307, 0, 0, 5070, -1, -2, 0, -2746, 2686, 14700, 595, 4, 2, 6, 0, 0
4, 156975311, 5, 2687, 0, 0, 0, 365, 363, 306, 307, 0, 0, 5070, -1, -1, 0, -2756, 2702, 14788, 595, 4, 2, 6, 0, 0
5, 156985284, 5, 2687, 0, 0, 0, 365, 363, 306, 307, 0, 0, 5070, -1, -1, 0, -2780, 2696, 14786, 595, 4, 2, 6, 0, 0
6, 156995278, 5, 2687, 0, 0, 0, 365, 363, 306, 307, 0, 0, 5070, -2, -2, 1, -2788, 2660, 14718, 595, 4, 2, 6, 0, 0
7, 157005418, 5, 2687, 0, 0, 0, 365, 363, 307, 307, 0, 0, 5070, -2, -2, 1, -2808, 2648, 14692, 595, 4, 2, 6, 0, 0
8, 157015251, 5, 2687, 0, 0, 0, 365, 363, 307, 307, 0, 0, 5070, -2, -2, 0, -2806, 2654, 14726, 595, 4, 2, 6, 0, 0
9, 157025227, 5, 2687, 0, 0, 0, 365, 363, 306, 307, 0, 0, 5070, -2, -2, 0, -2832, 2646, 14794, 595, 4, 2, 6, 0, 0
10, 157035296, 5, 2687, 0, 0, 0, 365, 363, 306, 307, 0, 0, 5070, -1, -2, 0, -2824, 2620, 14770, 595, 4, 2, 6, 0, 0
11, 157045195, 5, 2687, 0, 0, 0, 365, 363, 306, 307, 0, 0, 5070, -1, -3, 0, -2810, 2598, 14742, 595, 4, 2, 6, 0, 0
12, 157055296, 5, 2687, 0, 0, 0, 365, 363, 306, 307, 0, 0, 5070, -1, -3, 0, -2776, 2606, 14732, 595, 4, 2, 6, 0, 0
13, 157065144, 5, 2687, 0, 0, 0, 365, 363, 306, 307, 0, 0, 5070, -1, -2, 0, -2778, 2624, 14776, 595, 4, 2, 6, 0, 0
14, 157075245, 5, 2687, 0, 0, 0, 365, 363, 306, 307, 0, 0, 5070, -1, -2, 0, -2758, 2628, 14768, 595, 4, 2, 6, 0, 0
15, 157085118, 5, 2687, 0, 0, 0, 365, 363, 306, 307, 0, 0, 5070, -1, -2, 0, -2754, 2670, 14792, 595, 4, 2, 6, 0, 0
16, 157095116, 5, 2687, 0, 0, 0, 365, 363, 306, 307, 0, 0, 5069, -1, -1, 0, -2754, 2684, 14750, 595, 4, 2, 6, 0, 0
17, 157105073, 5, 2687, 0, 0, 0, 365, 363, 306, 307, 0, 0, 5069, -1, -2, 0, -2756, 2682, 14766, 595, 4, 2, 6, 0, 0
18, 157115064, 5, 2687, 0, 0, 0, 365, 363, 306, 307, 0, 0, 5069, -1, -1, 0, -2764, 2678, 14784, 595, 4, 2, 6, 0, 0
19, 157125043, 5, 2687, 0, 0, 0, 365, 363, 306, 307, 0, 0, 5069, -1, -1, 0, -2792, 2662, 14764, 595, 4, 2, 6, 0, 0
20, 157135025, 5, 2687, 0, 0, 0, 365, 363, 306, 307, 0, 0, 5069, -1, -1, 1, -2784, 2642, 14770, 595, 4, 2, 6, 0, 0
21, 157145016, 5, 2687, 0, 0, 0, 365, 363, 307, 307, 0, 0, 5069, -1, -1, 1, -2784, 2630, 14710, 595, 4, 2, 6, 0, 0
22, 157155000, 5, 2687, 0, 0, 0, 365, 363, 307, 307, 0, 0, 5069, -1, -2, 0, -2806, 2620, 14734, 595, 4, 2, 6, 0, 0
23, 157164974, 5, 2687, 0, 0, 0, 365, 363, 306, 307, 0, 0, 5069, -1, -1, 0, -2800, 2634, 14776, 595, 4, 2, 6, 0, 0
24, 157174969, 5, 2687, 0, 0, 0, 365, 363, 306, 307, 0, 0, 5069, -1, -2, 0, -2796, 2622, 14796, 595, 4, 2, 6, 0, 0
25, 157184947, 5, 2687, 0, 0, 0, 365, 363, 306, 307, 0, 0, 5069, -1, -2, 0, -2794, 2604, 14796, 595, 4, 2, 6, 0, 0
26, 157194911, 5, 2687, 0, 0, 0, 365, 363, 306, 307, 0, 0, 5069, -1, -2, 0, -2772, 2630, 14760, 595, 4, 2, 6, 0, 0
27, 157204914, 5, 2687, 0, 0, 0, 365, 363, 306, 307, 0, 0, 5069, -1, -1, 0, -2780, 2644, 14766, 595, 4, 2, 6, 0, 0
28, 157214889, 5, 2687, 0, 0, 0, 365, 363, 306, 307, 0, 0, 5069, -1, -2, 0, -2752, 2658, 14794, 595, 4, 2, 6, 0, 0
29, 157224916, 5, 2687, 0, 0, 0, 365, 363, 306, 307, 0, 0, 5069, -1, -1, 0, -2746, 2660, 14798, 595, 4, 2, 6, 0, 0
30, 157234846, 5, 2687, 0, 0, 0, 365, 363, 306, 307, 0, 0, 5069, -1, -2, 0, -2742, 2682, 14792, 595, 4, 2, 6, 0, 0
31, 157244934, 5, 2687, 0, 0, 0, 365, 363, 306, 307, 0, 0, 5069, -1, -2, 0, -2752, 2666, 14756, 595, 4, 2, 6, 0, 0
32, 157254813, 5, 2687, 0, 0, 0, 365, 363, 306, 307, 0, 0, 5069, -1, -2, 1, -2746, 2660, 14766, 595, 4, 2, 6, 0, 0
33, 157264918, 5, 2687, 0, 0, 0, 365, 363, 307, 307, 0, 0, 5069, -1, -2, 1, -2764, 2642, 14738, 595, 4, 2, 6, 0, 0
34, 157274780, 5, 2687, 0, 0, 0, 365, 363, 307, 307, 0, 0, 5069, -1, -1, 0, -2778, 2648, 14750, 595, 4, 2, 6, 0, 0
35, 157284844, 5, 2687, 0, 0, 0, 365, 363, 306, 307, 0, 0, 5069, -2, -2, 0, -2804, 2644, 14754, 595, 4, 2, 6, 0, 0
36, 157294737, 5, 2687, 0, 0, 0, 365, 363, 306, 307, 0, 0, 5069, -2, -2, 0, -2810, 2640, 14752, 595, 4, 2, 6, 0, 0
37, 157304735, 5, 2687, 0, 0, 0, 365, 363, 306, 307, 0, 0, 5069, -2, -2, 0, -2810, 2636, 14762, 595, 4, 2, 6, 0, 0
38, 157314720, 5, 2687, 0, 0, 0, 365, 363, 306, 307, 0, 0, 5069, -1, -1, 0, -2800, 2632, 14808, 595, 4, 2, 6, 0, 0
39, 157324676, 5, 2687, 0, 0, 0, 365, 363, 306, 307, 0, 0, 5069, -1, -2, 0, -2810, 2622, 14804, 595, 4, 2, 6, 0, 0
40, 157334669, 5, 2687, 0, 0, 0, 365, 363, 306, 307, 0, 0, 5069, -1, -2, 0, -2818, 2618, 14766, 595, 4, 2, 6, 0, 0
41, 157344653, 5, 2687, 0, 0, 0, 365, 363, 306, 307, 0, 0, 5069, -1, -2, 0, -2800, 2614, 14772, 595, 4, 2, 6, 0, 0
42, 157354631, 5, 2687, 0, 0, 0, 365, 363, 306, 307, 0, 0, 5069, -2, -2, 0, -2808, 2636, 14772, 595, 4, 2, 6, 0, 0
43, 157364624, 5, 2687, 0, 0, 0, 365, 363, 306, 307, 0, 0, 5069, -1, -2, 0, -2774, 2630, 14784, 595, 4, 2, 6, 0, 0
44, 157374593, 5, 2687, 0, 0, 0, 365, 363, 306, 307, 0, 0, 5069, -1, -2, 0, -2774, 2644, 14770, 595, 4, 2, 6, 0, 0
45, 157384561, 5, 2687, 0, 0, 0, 365, 363, 306, 307, 0, 0, 5069, -1, -3, 0, -2762, 2654, 14782, 595, 4, 2, 6, 0, 0
46, 157394564, 5, 2687, 0, 0, 0, 365, 363, 306, 307, 0, 0, 5069, -1, -2, 0, -2764, 2664, 14764, 595, 4, 2, 6, 0, 0
47, 157404569, 5, 2687, 0, 0, 0, 365, 363, 306, 307, 0, 0, 5069, -1, -2, 0, -2780, 2656, 14768, 602, 4, 2, 6, 0, 0
48, 157414519, 5, 2687, 0, 0, 0, 365, 363, 306, 307, 0, 0, 5069, -1, -2, 0, -2776, 2674, 14752, 602, 4, 2, 6, 0, 0
49, 157424505, 5, 2687, 0, 0, 0, 365, 363, 306, 307, 0, 0, 5069, -1, -2, 1, -2768, 2646, 14754, 602, 4, 2, 6, 0, 0
50, 157434533, 5, 2687, 0, 0, 0, 365, 363, 307, 307, 0, 0, 5069, -1, -3, 1, -2790, 2628, 14744, 602, 4, 2, 6, 0, 0
51, 157444469, 5, 2687, 0, 0, 0, 365, 363, 307, 307, 0, 0, 5069, -1, -2, 1, -2796, 2646, 14768, 602, 4, 2, 6, 0, 0
52, 157454565, 5, 2687, 0, 0, 0, 365, 363, 307, 307, 0, 0, 5069, -1, -2, 1, -2788, 2648, 14758, 595, 4, 2, 6, 0, 0
53, 157464441, 5, 2687, 0, 0, 0, 365, 363, 307, 307, 0, 0, 5069, -1, -2, 0, -2794, 2638, 14770, 595, 4, 2, 6, 0, 0
54, 157474537, 5, 2687, 0, 0, 0, 365, 363, 306, 307, 0, 0, 5069, -1, -2, 0, -2790, 2636, 14776, 595, 4, 2, 6, 0, 0
55, 157484389, 5, 2687, 0, 0, 0, 365, 363, 306, 307, 0, 0, 5069, -1, -2, 0, -2788, 2642, 14740, 595, 4, 2, 6, 0, 0
56, 157494420, 5, 2687, 0, 0, 0, 365, 363, 306, 307, 0, 0, 5069, -1, -1, 0, -2796, 2646, 14764, 595, 4, 2, 6, 0, 0
57, 157504403, 5, 2687, 0, 0, 0, 365, 363, 306, 307, 0, 0, 5069, -1, -1, 0, -2778, 2650, 14770, 595, 4, 2, 6, 0, 0
58, 157514352, 5, 2687, 0, 0, 0, 365, 363, 306, 307, 0, 0, 5068, -1, -2, 0, -2772, 2666, 14780, 595, 4, 2, 6, 0, 0
59, 157524326, 5, 2687, 0, 0, 0, 365, 363, 306, 307, 0, 0, 5068, -1, -1, 0, -2774, 2648, 14780, 595, 4, 2, 6, 0, 0
60, 157534297, 5, 2687, 0, 0, 0, 365, 363, 306, 307, 0, 0, 5068, -1, -2, 0, -2778, 2658, 14782, 595, 4, 2, 6, 0, 0
61, 157544302, 5, 2687, 0, 0, 0, 365, 363, 306, 307, 0, 0, 5068, 0, 0, 0, -2770, 2650, 14758, 595, 4, 2, 6, 0, 0
62, 157554277, 5, 2687, 0, 0, 0, 365, 364, 305, 307, 0, 0, 5068, -1, -2, 0, -2776, 2658, 14770, 595, 4, 2, 6, 0, 0
63, 157564252, 5, 2687, 0, 0, 0, 365, 363, 306, 307, 0, 0, 5068, -1, -2, 0, -2792, 2640, 14770, 595, 4, 2, 6, 0, 0
64, 157574250, 5, 2687, 0, 0, 0, 365, 363, 306, 307, 0, 0, 5068, -1, -2, 0, -2794, 2632, 14784, 595, 4, 2, 6, 0, 0
65, 157584219, 5, 2687, 0, 0, 0, 365, 363, 306, 307, 0, 0, 5068, -1, -2, 0, -2794, 2634, 14744, 595, 4, 2, 6, 0, 0
66, 157594203, 5, 2687, 0, 0, 0, 365, 363, 306, 307, 0, 0, 5068, -2, -2, 0, -2798, 2652, 14754, 595, 4, 2, 6, 0, 0
67, 157604243, 5, 2687, 0, 0, 0, 365, 363, 306, 307, 0, 0, 5068, -1, -2, 1, -2784, 2632, 14748, 595, 4, 2, 6, 0, 0
68, 157614325, 5, 2687, 0, 0, 0, 365, 363, 307, 307, 0, 0, 5068, -1, -2, 1, -2780, 2610, 14764, 595, 4, 2, 6, 0, 0
69, 157624153, 5, 2687, 0, 0, 0, 365, 363, 307, 307, 0, 0, 5068, -1, -2, 1, -2770, 2608, 14778, 595, 4, 2, 6, 0, 0
70, 157634139, 5, 2687, 0, 0, 0, 365, 363, 307, 307, 0, 0, 5068, -1, -2, 0, -2782, 2618, 14776, 595, 4, 2, 6, 0, 0
71, 157644174, 5, 2687, 0, 0, 0, 365, 363, 306, 307, 0, 0, 5068, -1, -2, 0, -2788, 2626, 14766, 595, 4, 2, 6, 0, 0
72, 157654085, 5, 2687, 0, 0, 0, 365, 363, 306, 307, 0, 0, 5068, -1, -2, 0, -2788, 2634, 14766, 595, 4, 2, 6, 0, 0
73, 157664206, 5, 2687, 0, 0, 0, 365, 363, 306, 307, 0, 0, 5068, -1, -2, 1, -2766, 2634, 14774, 595, 4, 2, 6, 0, 0
74, 157674054, 5, 2687, 0, 0, 0, 365, 363, 307, 307, 0, 0, 5068, -1, -2, 1, -2758, 2646, 14754, 595, 4, 2, 6, 0, 0
75, 157684150, 5, 2687, 0, 0, 0, 365, 363, 307, 307, 0, 0, 5068, -1, -2, 0, -2764, 2646, 14774, 595, 4, 2, 6, 0, 0
76, 157694033, 5, 2687, 0, 0, 0, 365, 363, 306, 307, 0, 0, 5068, -1, -2, 1, -2746, 2648, 14782, 595, 4, 2, 6, 0, 0
77, 157704057, 5, 2687, 0, 0, 0, 365, 363, 307, 307, 0, 0, 5068, -1, -2, 1, -2778, 2642, 14788, 595, 4, 2, 6, 0, 0
78, 157713982, 5, 2687, 0, 0, 0, 365, 363, 307, 307, 0, 0, 5068, -1, -2, 0, -2790, 2646, 14774, 595, 4, 2, 6, 0, 0
79, 157723975, 5, 2687, 0, 0, 0, 365, 363, 306, 307, 0, 0, 5068, -1, -2, 0, -2790, 2640, 14772, 595, 4, 2, 6, 0, 0
80, 157733944, 5, 2687, 0, 0, 0, 365, 363, 306, 307, 0, 0, 5068, -1, -2, -1, -2794, 2640, 14756, 595, 4, 2, 6, 0, 0
81, 157743940, 5, 2687, 0, 0, 0, 364, 364, 306, 308, 0, 0, 5068, -1, -2, 0, -2816, 2646, 14766, 595, 4, 2, 6, 0, 0
82, 157753914, 5, 2687, 0, 0, 0, 365, 363, 306, 307, 0, 0, 5068, -1, -2, 0, -2798, 2640, 14768, 595, 4, 2, 6, 0, 0
83, 157763882, 5, 2687, 0, 0, 0, 365, 363, 306, 307, 0, 0, 5068, -1, -2, 0, -2768, 2650, 14782, 595, 4, 2, 6, 0, 0
84, 157773876, 5, 2687, 0, 0, 0, 365, 363, 306, 307, 0, 0, 5068, -1, -2, 0, -2776, 2656, 14798, 595, 4, 2, 6, 0, 0
85, 157783851, 5, 2687, 0, 0, 0, 365, 363, 306, 307, 0, 0, 5068, -1, -2, 0, -2788, 2654, 14788, 595, 4, 2, 6, 0, 0
86, 157793827, 5, 2687, 0, 0, 0, 365, 363, 306, 307, 0, 0, 5068, -1, -2, 0, -2770, 2652, 14800, 595, 4, 2, 6, 0, 0
87, 157803852, 5, 2687, 0, 0, 0, 365, 363, 306, 307, 0, 0, 5068, -1, -2, 0, -2778, 2656, 14782, 595, 4, 2, 6, 0, 0
88, 157813796, 5, 2687, 0, 0, 0, 365, 363, 306, 307, 0, 0, 5068, -1, -2, 0, -2788, 2644, 14788, 595, 4, 2, 6, 0, 0
89, 157823789, 5, 2687, 0, 0, 0, 365, 363, 306, 307, 0, 0, 5068, -1, -2, 0, -2772, 2626, 14766, 595, 4, 2, 6, 0, 0
90, 157833796, 5, 2687, 0, 0, 0, 365, 363, 306, 307, 0, 0, 5068, -1, -2, 0, -2774, 2622, 14780, 595, 4, 2, 6, 0, 0
91, 157843743, 5, 2687, 0, 0, 0, 365, 363, 306, 307, 0, 0, 5068, -1, -2, 0, -2772, 2634, 14784, 595, 4, 2, 6, 0, 0
92, 157853827, 5, 2687, 0, 0, 0, 365, 363, 306, 307, 0, 0, 5068, -1, -2, 0, -2772, 2642, 14744, 595, 4, 2, 6, 0, 0
93, 157863710, 5, 2687, 0, 0, 0, 365, 363, 306, 307, 0, 0, 5068, -1, -2, 0, -2792, 2658, 14744, 595, 4, 2, 6, 0, 0
94, 157873842, 5, 2687, 0, 0, 0, 365, 363, 306, 307, 0, 0, 5068, -1, -2, 0, -2782, 2662, 14800, 595, 4, 2, 6, 0, 0
95, 157883684, 5, 2687, 0, 0, 0, 365, 363, 306, 307, 0, 0, 5067, -1, -2, 0, -2780, 2646, 14782, 595, 4, 2, 6, 0, 0
96, 157893746, 5, 2687, 0, 0, 0, 365, 363, 306, 307, 0, 0, 5067, -1, -2, 0, -2812, 2634, 14776, 595, 4, 2, 6, 0, 0
97, 157903730, 5, 2687, 0, 0, 0, 365, 363, 306, 307, 0, 0, 5067, -1, -2, 0, -2806, 2616, 14774, 595, 4, 2, 6, 0, 0
98, 157913634, 5, 2687, 0, 0, 0, 365, 363, 306, 307, 0, 0, 5067, -1, -2, 0, -2790, 2618, 14788, 595, 4, 2, 6, 0, 0
99, 157923626, 5, 2687, 0, 0, 0, 365, 363, 306, 307, 0, 0, 5067, -1, -1, 0, -2792, 2630, 14796, 595, 4, 2, 6, 0, 0
100, 157933601, 5, 2687, 0, 0, 0, 365, 363, 306, 307, 0, 0, 5067, -1, -2, 0, -2782, 2628, 14764, 595, 4, 2, 6, 0, 0
101, 157943591, 5, 2687, 0, 0, 0, 365, 363, 306, 307, 0, 0, 5067, -1, -2, 0, -2780, 2632, 14744, 595, 4, 2, 6, 0, 0
102, 157953575, 5, 2687, 0, 0, 0, 365, 363, 306, 307, 0, 0, 5067, -1, -2, 0, -2778, 2636, 14732, 595, 4, 2, 6, 0, 0
103, 157963559, 5, 2687, 0, 0, 0, 365, 363, 306, 307, 0, 0, 5067, -1, -2, 0, -2778, 2640, 14754, 595, 4, 2, 6, 0, 0
104, 157973553, 5, 2687, 0, 0, 0, 365, 363, 306, 307, 0, 0, 5067, -1, -2, 0, -2776, 2642, 14746, 595, 4, 2, 6, 0, 0
105, 157983534, 5, 2687, 0, 0, 0, 365, 363, 306, 307, 0, 0, 5067, -1, -1, 1, -2780, 2640, 14750, 595, 4, 2, 6, 0, 0
106, 157993519, 5, 2687, 0, 0, 0, 365, 363, 307, 307, 0, 0, 5067, -1, -2, 1, -2772, 2658, 14730, 595, 4, 2, 6, 0, 0
107, 158003574, 5, 2687, 0, 0, 0, 365, 363, 307, 307, 0, 0, 5067, -1, -2, 0, -2772, 2654, 14752, 595, 4, 2, 6, 0, 0
108, 158013479, 5, 2687, 0, 0, 0, 365, 363, 306, 307, 0, 0, 5067, -1, -2, 0, -2788, 2664, 14774, 595, 4, 2, 6, 0, 0
109, 158023462, 5, 2687, 0, 0, 0, 365, 363, 306, 307, 0, 0, 5067, -1, -1, 0, -2792, 2648, 14808, 595, 4, 2, 6, 0, 0
110, 158033449, 5, 2687, 0, 0, 0, 365, 363, 306, 307, 0, 0, 5067, -1, -2, 0, -2766, 2634, 14772, 595, 4, 2, 6, 0, 0
111, 158043480, 5, 2687, 0, 0, 0, 365, 363, 306, 307, 0, 0, 5067, -1, -2, 0, -2768, 2632, 14766, 595, 4, 2, 6, 0, 0
112, 158053419, 5, 2687, 0, 0, 0, 365, 363, 306, 307, 0, 0, 5067, -1, -2, 1, -2762, 2638, 14792, 595, 4, 2, 6, 0, 0
113, 158063493, 5, 2687, 0, 0, 0, 365, 363, 307, 307, 0, 0, 5067, -1, -2, 1, -2756, 2630, 14774, 595, 4, 2, 6, 0, 0
114, 158073389, 5, 2687, 0, 0, 0, 365, 363, 307, 307, 0, 0, 5067, -1, -2, 0, -2764, 2634, 14764, 595, 4, 2, 6, 0, 0
115, 158083489, 5, 2687, 0, 0, 0, 365, 363, 306, 307, 0, 0, 5067, -1, -2, 0, -2770, 2638, 14768, 595, 4, 2, 6, 0, 0
116, 158093345, 5, 2687, 0, 0, 0, 365, 363, 306, 307, 0, 0, 5067, -1, -2, 0, -2778, 2642, 14770, 595, 4, 2, 6, 0, 0
117, 158103496, 5, 2687, 0, 0, 0, 365, 363, 306, 307, 0, 0, 5067, -1, -2, 0, -2782, 2634, 14764, 595, 4, 2, 6, 0, 0
118, 158113308, 5, 2687, 0, 0, 0, 365, 363, 306, 307, 0, 0, 5067, -1, -2, 0, -2784, 2642, 14778, 595, 4, 2, 6, 0, 0
119, 158123298, 5, 2687, 0, 0, 0, 365, 363, 306, 307, 0, 0, 5067, -1, -2, 0, -2772, 2644, 14772, 595, 4, 2, 6, 0, 0
120, 158133288, 5, 2687, 0, 0, 0, 365, 363, 306, 307, 0, 0, 5067, -1, -2, 0, -2762, 2638, 14754, 595, 4, 2, 6, 0, 0
121, 158143270, 5, 2687, 0, 0, 0, 365, 363, 306, 307, 0, 0, 5067, -1, -2, 0, -2764, 2638, 14762, 595, 4, 2, 6, 0, 0
122, 158153250, 5, 2687, 0, 0, 0, 365, 363, 306, 307, 0, 0, 5067, -1, -2, 0, -2772, 2642, 14794, 595, 4, 2, 6, 0, 0
123, 158163241, 5, 2687, 0, 0, 0, 365, 363, 306, 307, 0, 0, 5067, -1, -2, 0, -2806, 2634, 14784, 595, 4, 2, 6, 0, 0
124, 158173208, 5, 2687, 0, 0, 0, 365, 363, 306, 307, 0, 0, 5067, -1, -2, 0, -2796, 2630, 14786, 595, 4, 2, 6, 0, 0
125, 158183202, 5, 2687, 0, 0, 0, 365, 363, 306, 307, 0, 0, 5067, -1, -2, 1, -2782, 2626, 14784, 595, 4, 2, 6, 0, 0
126, 158193183, 5, 2687, 0, 0, 0, 365, 363, 307, 307, 0, 0, 5067, -1, -2, 1, -2774, 2624, 14782, 595, 4, 2, 6, 0, 0
127, 158203295, 5, 2687, 0, 0, 0, 365, 363, 307, 307, 0, 0, 5067, -1, -2, 0, -2788, 2620, 14796, 595, 4, 2, 6, 0, 0
128, 158213144, 5, 2687, 0, 0, 0, 365, 363, 306, 307, 0, 0, 5067, -1, -2, 0, -2784, 2630, 14784, 595, 4, 2, 6, 0, 0
129, 158223291, 5, 2687, 0, 0, 0, 365, 363, 306, 307, 0, 0, 5067, -1, -2, 0, -2786, 2626, 14780, 595, 4, 2, 6, 0, 0
130, 158233117, 5, 2687, 0, 0, 0, 365, 363, 306, 307, 0, 0, 5067, -1, -2, 0, -2776, 2640, 14756, 595, 4, 2, 6, 0, 0
131, 158243091, 5, 2687, 0, 0, 0, 365, 363, 306, 307, 0, 0, 5067, -1, -2, 0, -2768, 2642, 14770, 595, 4, 2, 6, 0, 0
132, 158253145, 5, 2687, 0, 0, 0, 365, 363, 306, 307, 0, 0, 5067, -1, -2, 0, -2758, 2628, 14778, 595, 4, 2, 6, 0, 0
133, 158263063, 5, 2687, 0, 0, 0, 365, 363, 306, 307, 0, 0, 5067, -1, -2, 0, -2780, 2640, 14766, 595, 4, 2, 6, 0, 0
134, 158273159, 5, 2687, 0, 0, 0, 365, 363, 306, 307, 0, 0, 5067, -1, -2, 0, -2762, 2634, 14746, 595, 4, 2, 6, 0, 0
135, 158283029, 5, 2687, 0, 0, 0, 365, 363, 306, 307, 0, 0, 5067, -1, -2, 0, -2774, 2632, 14742, 595, 4, 2, 6, 0, 0
136, 158293136, 5, 2687, 0, 0, 0, 365, 363, 306, 307, 0, 0, 5067, -1, -2, 0, -2786, 2640, 14744, 595, 4, 2, 6, 0, 0
137, 158303119, 5, 2687, 0, 0, 0, 365, 363, 306, 307, 0, 0, 5067, -1, -2, 1, -2768, 2650, 14764, 595, 4, 2, 6, 0, 0
138, 158312994, 5, 2687, 0, 0, 0, 365, 363, 307, 307, 0, 0, 5067, -1, -2, 1, -2768, 2642, 14782, 595, 4, 2, 6, 0, 0
139, 158322972, 5, 2687, 0, 0, 0, 365, 363, 307, 307, 0, 0, 5067, -1, -1, 1, -2764, 2656, 14756, 595, 4, 2, 6, 0, 0
140, 158332956, 5, 2687, 0, 0, 0, 365, 363, 307, 307, 0, 0, 5067, -1, -2, 1, -2758, 2658, 14764, 595, 4, 2, 6, 0, 0
141, 158342917, 5, 2687, 0, 0, 0, 365, 363, 307, 307, 0, 0, 5067, -1, -2, 0, -2766, 2650, 14774, 595, 4, 2, 6, 0, 0
142, 158352905, 5, 2687, 0, 0, 0, 365, 363, 306, 307, 0, 0, 5067, -1, -1, 0, -2766, 2642, 14766, 595, 4, 2, 6, 0, 0
143, 158362900, 5, 2687, 0, 0, 0, 365, 363, 306, 307, 0, 0, 5067, -1, -2, 0, -2764, 2642, 14774, 595, 4, 2, 6, 0, 0
144, 158372871, 5, 2687, 0, 0, 0, 365, 363, 306, 307, 0, 0, 5067, -1, -2, 0, -2776, 2640, 14754, 595, 4, 2, 6, 0, 0
145, 158382858, 5, 2687, 0, 0, 0, 365, 363, 306, 307, 0, 0, 5066, -1, -2, 0, -2758, 2642, 14754, 595, 4, 2, 6, 0, 0
146, 158392844, 5, 2687, 0, 0, 0, 365, 363, 306, 307, 0, 0, 5066, -1, -2, 0, -2768, 2640, 14744, 595, 4, 2, 6, 0, 0
147, 158402953, 5, 2687, 0, 0, 0, 365, 363, 306, 307, 0, 0, 5066, -1, -2, 0, -2774, 2616, 14774, 602, 4, 2, 6, 0, 0
148, 158412816, 5, 2687, 0, 0, 0, 365, 363, 306, 307, 0, 0, 5066, -1, -2, 0, -2772, 2616, 14762, 602, 4, 2, 6, 0, 0
149, 158422786, 5, 2687, 0, 0, 0, 365, 363, 306, 307, 0, 0, 5066, -1, -2, 0, -2778, 2624, 14788, 602, 4, 2, 6, 0, 0
150, 158432769, 5, 2687, 0, 0, 0, 365, 363, 306, 307, 0, 0, 5066, -1, -2, 0, -2790, 2628, 14768, 602, 4, 2, 6, 0, 0
151, 158442778, 5, 2687, 0, 0, 0, 365, 363, 306, 307, 0, 0, 5066, -1, -1, 0, -2778, 2622, 14764, 602, 4, 2, 6, 0, 0
152, 158452727, 5, 2687, 0, 0, 0, 365, 363, 306, 307, 0, 0, 5066, -2, -2, 0, -2782, 2636, 14788, 595, 4, 2, 6, 0, 0
153, 158462808, 5, 2687, 0, 0, 0, 365, 363, 306, 307, 0, 0, 5066, -1, -2, 0, -2768, 2642, 14750, 595, 4, 2, 6, 0, 0
154, 158472701, 5, 2687, 0, 0, 0, 365, 363, 306, 307, 0, 0, 5066, -1, -2, 0, -2770, 2632, 14746, 595, 4, 2, 6, 0, 0
155, 158482800, 5, 2687, 0, 0, 0, 365, 363, 306, 307, 0, 0, 5066, -1, -2, 0, -2768, 2630, 14750, 595, 4, 2, 6, 0, 0
156, 158492668, 5, 2687, 0, 0, 0, 365, 363, 306, 307, 0, 0, 5066, -1, -2, 0, -2788, 2628, 14742, 595, 4, 2, 6, 0, 0
157, 158502933, 5, 2687, 0, 0, 0, 365, 363, 306, 307, 0, 0, 5066, -1, -2, 0, -2772, 2618, 14750, 595, 4, 2, 6, 0, 0
158, 158512616, 5, 2687, 0, 0, 0, 365, 363, 306, 307, 0, 0, 5066, -1, -2, 0, -2798, 2646, 14748, 595, 4, 2, 6, 0, 0
159, 158522615, 5, 2687, 0, 0, 0, 365, 363, 306, 307, 0, 0, 5066, -1, -2, 0, -2800, 2662, 14778, 595, 4, 2, 6, 0, 0
160, 158532592, 5, 2687, 0, 0, 0, 365, 363, 306, 307, 0, 0, 5066, -1, -2, 0, -2792, 2648, 14766, 595, 4, 2, 6, 0, 0
161, 158542556, 5, 2687, 0, 0, 0, 365, 363, 306, 307, 0, 0, 5066, -1, -2, 1, -2792, 2636, 14780, 595, 4, 2, 6, 0, 0
162, 158552558, 5, 2687, 0, 0, 0, 365, 363, 307, 307, 0, 0, 5066, -1, -2, 0, -2800, 2636, 14788, 595, 4, 2, 6, 0, 0
163, 158562528, 5, 2687, 0, 0, 0, 365, 363, 306, 307, 0, 0, 5066, -1, -2, 0, -2774, 2642, 14768, 595, 4, 2, 6, 0, 0
164, 158572507, 5, 2687, 0, 0, 0, 365, 363, 306, 307, 0, 0, 5066, -1, -2, 0, -2766, 2646, 14760, 595, 4, 2, 6, 0, 0
165, 158582506, 5, 2687, 0, 0, 0, 365, 363, 306, 307, 0, 0, 5066, -1, -1, 0, -2764, 2652, 14744, 595, 4, 2, 6, 0, 0
166, 158592500, 5, 2687, 0, 0, 0, 365, 363, 306, 307, 0, 0, 5066, -1, -1, 0, -2784, 2652, 14748, 595, 4, 2, 6, 0, 0
167, 158602641, 5, 2687, 0, 0, 0, 365, 363, 306, 307, 0, 0, 5066, -1, -2, 0, -2774, 2644, 14736, 595, 4, 2, 6, 0, 0
168, 158612449, 5, 2687, 0, 0, 0, 365, 363, 306, 307, 0, 0, 5066, -1, -1, 0, -2774, 2642, 14748, 595, 4, 2, 6, 0, 0
169, 158622435, 5, 2687, 0, 0, 0, 365, 363, 306, 307, 0, 0, 5065, -1, -1, 0, -2778, 2644, 14762, 595, 4, 2, 6, 0, 0
170, 158632423, 5, 2687, 0, 0, 0, 365, 363, 306, 307, 0, 0, 5065, -1, -2, -1, -2790, 2652, 14760, 595, 4, 2, 6, 0, 0
171, 158642397, 5, 2687, 0, 0, 0, 364, 364, 306, 308, 0, 0, 5065, -1, -2, 0, -2782, 2642, 14742, 595, 4, 2, 6, 0, 0
172, 158652404, 5, 2687, 0, 0, 0, 365, 363, 306, 307, 0, 0, 5065, -1, -2, 1, -2784, 2632, 14748, 595, 4, 2, 6, 0, 0
173, 158662377, 5, 2687, 0, 0, 0, 365, 363, 307, 307, 0, 0, 5065, -1, -2, 0, -2776, 2616, 14742, 595, 4, 2, 6, 0, 0
174, 158672451, 5, 2687, 0, 0, 0, 365, 363, 306, 307, 0, 0, 5065, -1, -2, 0, -2772, 2614, 14750, 595, 4, 2, 6, 0, 0
175, 158682329, 5, 2687, 0, 0, 0, 365, 363, 306, 307, 0, 0, 5065, -1, -3, 0, -2774, 2632, 14754, 595, 4, 2, 6, 0, 0
176, 158692444, 5, 2687, 0, 0, 0, 365, 363, 306, 307, 0, 0, 5065, -1, -2, 0, -2762, 2640, 14766, 595, 4, 2, 6, 0, 0
177, 158702489, 5, 2687, 0, 0, 0, 365, 363, 306, 307, 0, 0, 5065, -2, -2, 0, -2780, 2634, 14778, 595, 4, 2, 6, 0, 0
178, 158712341, 5, 2687, 0, 0, 0, 365, 363, 306, 307, 0, 0, 5065, -2, -2, 0, -2784, 2622, 14780, 595, 4, 2, 6, 0, 0
179, 158722258, 5, 2687, 0, 0, 0, 365, 363, 306, 307, 0, 0, 5065, -1, -2, 0, -2768, 2628, 14782, 595, 4, 2, 6, 0, 0
180, 158732250, 5, 2687, 0, 0, 0, 365, 363, 306, 307, 0, 0, 5065, -1, -2, 1, -2790, 2638, 14768, 595, 4, 2, 6, 0, 0
181, 158742230, 5, 2687, 0, 0, 0, 365, 363, 307, 307, 0, 0, 5065, -1, -3, 0, -2776, 2632, 14784, 595, 4, 2, 6, 0, 0
182, 158752200, 5, 2687, 0, 0, 0, 365, 363, 306, 307, 0, 0, 5065, -1, -2, 0, -2790, 2650, 14770, 595, 4, 2, 6, 0, 0
183, 158762193, 5, 2687, 0, 0, 0, 365, 363, 306, 307, 0, 0, 5065, -1, -2, 0, -2788, 2652, 14780, 595, 4, 2, 6, 0, 0
184, 158772175, 5, 2687, 0, 0, 0, 365, 363, 306, 307, 0, 0, 5065, -1, -2, 0, -2784, 2644, 14766, 595, 4, 2, 6, 0, 0
185, 158782155, 5, 2687, 0, 0, 0, 365, 363, 306, 307, 0, 0, 5065, -1, -2, 0, -2784, 2634, 14748, 595, 4, 2, 6, 0, 0
186, 158792150, 5, 2687, 0, 0, 0, 365, 363, 306, 307, 0, 0, 5065, -1, -3, 0, -2766, 2642, 14776, 595, 4, 2, 6, 0, 0
187, 158802338, 5, 2687, 0, 0, 0, 365, 363, 306, 307, 0, 0, 5065, -1, -2, 0, -2776, 2642, 14768, 595, 4, 2, 6, 0, 0
188, 158812118, 5, 2687, 0, 0, 0, 365, 363, 306, 307, 0, 0, 5065, -1, -2, 0, -2782, 2634, 14744, 595, 4, 2, 6, 0, 0
189, 158822100, 5, 2687, 0, 0, 0, 365, 363, 306, 307, 0, 0, 5065, -1, -2, 0, -2776, 2628, 14734, 595, 4, 2, 6, 0, 0
190, 158832233, 5, 2687, 0, 0, 0, 365, 363, 306, 307, 0, 0, 5065, -1, -2, 0, -2774, 2628, 14730, 595, 4, 2, 6, 0, 0
191, 158842046, 5, 2687, 0, 0, 0, 365, 363, 306, 307, 0, 0, 5065, -1, -2, 0, -2786, 2634, 14760, 595, 4, 2, 6, 0, 0
192, 158852045, 5, 2687, 0, 0, 0, 365, 363, 306, 307, 0, 0, 5065, -1, -2, 1, -2772, 2630, 14744, 595, 4, 2, 6, 0, 0
193, 158862072, 5, 2687, 0, 0, 0, 365, 363, 307, 307, 0, 0, 5065, -1, -2, 1, -2780, 2644, 14768, 595, 4, 2, 6, 0, 0
194, 158871993, 5, 2687, 0, 0, 0, 365, 363, 307, 307, 0, 0, 5065, -1, -2, 0, -2790, 2638, 14796, 595, 4, 2, 6, 0, 0
195, 158882107, 5, 2687, 0, 0, 0, 365, 363, 306, 307, 0, 0, 5065, -1, -2, 1, -2784, 2642, 14800, 595, 4, 2, 6, 0, 0
196, 158891976, 5, 2687, 0, 0, 0, 365, 363, 307, 307, 0, 0, 5065, -1, -2, 0, -2780, 2634, 14770, 595, 4, 2, 6, 0, 0
197, 158902328, 5, 2687, 0, 0, 0, 365, 363, 306, 307, 0, 0, 5065, -1, -1, 0, -2786, 2660, 14788, 595, 4, 2, 6, 0, 0
198, 158911939, 5, 2687, 0, 0, 0, 365, 363, 306, 307, 0, 0, 5065, -1, -2, 0, -2780, 2646, 14776, 595, 4, 2, 6, 0, 0
199, 158921949, 5, 2687, 0, 0, 0, 365, 363, 306, 307, 0, 0, 5065, -1, -2, 0, -2778, 2642, 14772, 595, 4, 2, 6, 0, 0
200, 158931894, 5, 2687, 0, 0, 0, 365, 363, 306, 307, 0, 0, 5065, -1, -2, 0, -2780, 2644, 14784, 595, 4, 2, 6, 0, 0
201, 158941888, 5, 2687, 0, 0, 0, 365, 363, 306, 307, 0, 0, 5065, -1, -2, 0, -2772, 2658, 14770, 595, 4, 2, 6, 0, 0
202, 158951843, 5, 2687, 0, 0, 0, 365, 363, 306, 307, 0, 0, 5064, -1, -2, 0, -2776, 2666, 14744, 595, 4, 2, 6, 0, 0
203, 158961848, 5, 2687, 0, 0, 0, 365, 363, 306, 307, 0, 0, 5064, -1, -2, 0, -2778, 2658, 14736, 595, 4, 2, 6, 0, 0
204, 158971838, 5, 2687, 0, 0, 0, 365, 363, 306, 307, 0, 0, 5064, -1, -2, 0, -2784, 2656, 14746, 595, 4, 2, 6, 0, 0
205, 158981810, 5, 2687, 0, 0, 0, 365, 363, 306, 307, 0, 0, 5064, -1, -2, 0, -2788, 2636, 14756, 595, 4, 2, 6, 0, 0
206, 158991791, 5, 2687, 0, 0, 0, 365, 363, 306, 307, 0, 0, 5064, -1, -1, 0, -2772, 2634, 14752, 595, 4, 2, 6, 0, 0
207, 159002029, 5, 2687, 0, 0, 0, 365, 363, 306, 307, 0, 0, 5064, -1, -2, 0, -2770, 2620, 14754, 595, 4, 2, 6, 0, 0
208, 159011753, 5, 2687, 0, 0, 0, 365, 363, 306, 307, 0, 0, 5064, -1, -1, 0, -2774, 2628, 14758, 595, 4, 2, 6, 0, 0
209, 159021756, 5, 2687, 0, 0, 0, 365, 363, 306, 307, 0, 0, 5064, -1, -1, 0, -2780, 2634, 14746, 595, 4, 2, 6, 0, 0
210, 159031730, 5, 2687, 0, 0, 0, 365, 363, 306, 307, 0, 0, 5064, -1, -2, 0, -2792, 2636, 14776, 595, 4, 2, 6, 0, 0
211, 159041695, 5, 2687, 0, 0, 0, 365, 363, 306, 307, 0, 0, 5064, -1, -1, 0, -2780, 2652, 14762, 595, 4, 2, 6, 0, 0
212, 159051727, 5, 2687, 0, 0, 0, 365, 363, 306, 307, 0, 0, 5064, -1, -2, 0, -2764, 2638, 14754, 595, 4, 2, 6, 0, 0
213, 159061671, 5, 2687, 0, 0, 0, 365, 363, 306, 307, 0, 0, 5064, -1, -2, 0, -2776, 2644, 14772, 595, 4, 2, 6, 0, 0
214, 159071728, 5, 2687, 0, 0, 0, 365, 363, 306, 307, 0, 0, 5064, -1, -2, 0, -2776, 2650, 14756, 595, 4, 2, 6, 0, 0
215, 159081649, 5, 2687, 0, 0, 0, 365, 363, 306, 307, 0, 0, 5064, -1, -2, 0, -2774, 2658, 14766, 595, 4, 2, 6, 0, 0
216, 159091744, 5, 2687, 0, 0, 0, 365, 363, 306, 307, 0, 0, 5064, -1, -2, 0, -2774, 2640, 14750, 595, 4, 2, 6, 0, 0
217, 159101872, 5, 2687, 0, 0, 0, 365, 363, 306, 307, 0, 0, 5064, -1, -2, 0, -2772, 2642, 14776, 595, 4, 2, 6, 0, 0
218, 159111715, 5, 2687, 0, 0, 0, 365, 363, 306, 307, 0, 0, 5064, -1, -2, 0, -2778, 2644, 14760, 595, 4, 2, 6, 0, 0
219, 159121570, 5, 2687, 0, 0, 0, 365, 363, 306, 307, 0, 0, 5064, -1, -2, 0, -2778, 2630, 14754, 595, 4, 2, 6, 0, 0
220, 159131559, 5, 2687, 0, 0, 0, 365, 363, 306, 307, 0, 0, 5064, -1, -2, 0, -2784, 2630, 14788, 595, 4, 2, 6, 0, 0
221, 159141537, 5, 2687, 0, 0, 0, 365, 363, 306, 307, 0, 0, 5064, -1, -2, 0, -2762, 2638, 14762, 595, 4, 2, 6, 0, 0
222, 159151508, 5, 2687, 0, 0, 0, 365, 363, 306, 307, 0, 0, 5064, -1, -2, 1, -2776, 2628, 14762, 595, 4, 2, 6, 0, 0
223, 159161512, 5, 2687, 0, 0, 0, 365, 363, 307, 307, 0, 0, 5064, -1, -2, 0, -2774, 2644, 14776, 595, 4, 2, 6, 0, 0
224, 159171478, 5, 2687, 0, 0, 0, 365, 363, 306, 307, 0, 0, 5064, -2, -2, 1, -2778, 2660, 14776, 595, 4, 2, 6, 0, 0
225, 159181460, 5, 2687, 0, 0, 0, 365, 363, 307, 307, 0, 0, 5064, -1, -2, 0, -2772, 2650, 14756, 595, 4, 2, 6, 0, 0
226, 159191437, 5, 2687, 0, 0, 0, 365, 363, 306, 307, 0, 0, 5064, -1, -2, 1, -2766, 2640, 14750, 595, 4, 2, 6, 0, 0
227, 159201736, 5, 2687, 0, 0, 0, 365, 363, 307, 307, 0, 0, 5064, -1, -1, 0, -2764, 2650, 14790, 595, 4, 2, 6, 0, 0
228, 159211415, 5, 2687, 0, 0, 0, 365, 363, 306, 307, 0, 0, 5064, -1, -2, 0, -2752, 2658, 14792, 595, 4, 2, 6, 0, 0
229, 159221381, 5, 2687, 0, 0, 0, 365, 363, 306, 307, 0, 0, 5063, -1, -1, 0, -2762, 2662, 14774, 595, 4, 2, 6, 0, 0
230, 159231359, 5, 2687, 0, 0, 0, 365, 363, 306, 307, 0, 0, 5063, -1, -1, 0, -2766, 2648, 14760, 595, 4, 2, 6, 0, 0
231, 159241359, 5, 2687, 0, 0, 0, 365, 363, 306, 307, 0, 0, 5063, -1, -2, 0, -2766, 2650, 14780, 595, 4, 2, 6, 0, 0
232, 159251334, 5, 2687, 0, 0, 0, 365, 363, 306, 307, 0, 0, 5063, -1, -2, 1, -2764, 2648, 14766, 595, 4, 2, 6, 0, 0
233, 159261330, 5, 2687, 0, 0, 0, 365, 363, 307, 307, 0, 0, 5063, -1, -2, 0, -2786, 2634, 14762, 595, 4, 2, 6, 0, 0
234, 159271296, 5, 2687, 0, 0, 0, 365, 363, 306, 307, 0, 0, 5063, -1, -2, 0, -2798, 2646, 14754, 595, 4, 2, 6, 0, 0
235, 159281365, 5, 2687, 0, 0, 0, 365, 363, 306, 307, 0, 0, 5063, -1, -2, 0, -2786, 2616, 14764, 595, 4, 2, 6, 0, 0
236, 159291248, 5, 2687, 0, 0, 0, 365, 363, 306, 307, 0, 0, 5063, -1, -2, 0, -2774, 2618, 14754, 595, 4, 2, 6, 0, 0
237, 159301700, 5, 2687, 0, 0, 0, 365, 363, 306, 307, 0, 0, 5063, -1, -2, 0, -2778, 2612, 14768, 595, 4, 2, 6, 0, 0
238, 159311218, 5, 2687, 0, 0, 0, 365, 363, 306, 307, 0, 0, 5063, -1, -2, 0, -2798, 2642, 14766, 595, 4, 2, 6, 0, 0
239, 159321284, 5, 2687, 0, 0, 0, 365, 363, 306, 307, 0, 0, 5063, -1, -1, 1, -2800, 2648, 14780, 595, 4, 2, 6, 0, 0
240, 159331184, 5, 2687, 0, 0, 0, 365, 363, 307, 307, 0, 0, 5063, -1, -2, 0, -2796, 2638, 14788, 595, 4, 2, 6, 0, 0
241, 159341166, 5, 2687, 0, 0, 0, 365, 363, 306, 307, 0, 0, 5063, -1, -2, 0, -2788, 2632, 14790, 595, 4, 2, 6, 0, 0
242, 159351160, 5, 2687, 0, 0, 0, 365, 363, 306, 307, 0, 0, 5063, -1, -2, 0, -2790, 2626, 14796, 595, 4, 2, 6, 0, 0
243, 159361135, 5, 2687, 0, 0, 0, 365, 363, 306, 307, 0, 0, 5063, -2, -1, 0, -2788, 2640, 14772, 595, 4, 2, 6, 0, 0
244, 159371106, 5, 2687, 0, 0, 0, 365, 363, 306, 307, 0, 0, 5063, -1, -1, -1, -2792, 2636, 14758, 595, 4, 2, 6, 0, 0
245, 159381105, 5, 2687, 0, 0, 0, 364, 364, 306, 308, 0, 0, 5063, -1, -2, 0, -2780, 2654, 14762, 595, 4, 2, 6, 0, 0
246, 159391086, 5, 2687, 0, 0, 0, 365, 363, 306, 307, 0, 0, 5063, -1, -2, 0, -2782, 2658, 14744, 595, 4, 2, 6, 0, 0
247, 159401556, 5, 2687, 0, 0, 0, 365, 363, 306, 307, 0, 0, 5063, -1, -1, 0, -2786, 2664, 14748, 602, 4, 2, 6, 0, 0
248, 159411047, 5, 2687, 0, 0, 0, 365, 363, 306, 307, 0, 0, 5063, -1, -2, 0, -2788, 2658, 14772, 602, 4, 2, 6, 0, 0
249, 159421038, 5, 2687, 0, 0, 0, 365, 363, 306, 307, 0, 0, 5062, -1, -2, 0, -2780, 2644, 14784, 602, 4, 2, 6, 0, 0
250, 159431016, 5, 2687, 0, 0, 0, 365, 363, 306, 307, 0, 0, 5062, -1, -2, 0, -2776, 2630, 14760, 602, 4, 2, 6, 0, 0
251, 159441159, 5, 2687, 0, 0, 0, 365, 363, 306, 307, 0, 0, 5062, -1, -2, 0, -2768, 2642, 14768, 602, 4, 2, 6, 0, 0
252, 159451004, 5, 2687, 0, 0, 0, 365, 363, 306, 307, 0, 0, 5062, -1, -2, 0, -2778, 2644, 14762, 595, 4, 2, 6, 0, 0
253, 159460959, 5, 2687, 0, 0, 0, 365, 363, 306, 307, 0, 0, 5062, -1, -2, 0, -2770, 2656, 14764, 595, 4, 2, 6, 0, 0
254, 159471025, 5, 2687, 0, 0, 0, 365, 363, 306, 307, 0, 0, 5062, -1, -2, 0, -2774, 2658, 14760, 595, 4, 2, 6, 0, 0
255, 159480927, 5, 2687, 0, 0, 0, 365, 363, 306, 307, 0, 0, 5062, -1, -2, 0, -2778, 2648, 14762, 595, 4, 2, 6, 0, 0
256, 159491028, 5, 2687, 0, 0, 0, 365, 363, 306, 307, 0, 0, 5062, -1, -2, 0, -2766, 2652, 14768, 595, 4, 2, 6, 0, 0
257, 159501523, 5, 2687, 0, 0, 0, 365, 363, 306, 307, 0, 0, 5062, -1, -2, 0, -2764, 2654, 14788, 595, 4, 2, 6, 0, 0
258, 159511009, 5, 2687, 0, 0, 0, 365, 363, 306, 307, 0, 0, 5062, -1, -1, 1, -2790, 2648, 14782, 595, 4, 2, 6, 0, 0
259, 159520871, 5, 2687, 0, 0, 0, 365, 363, 307, 307, 0, 0, 5062, -1, -1, 0, -2784, 2644, 14778, 595, 4, 2, 6, 0, 0
260, 159530865, 5, 2687, 0, 0, 0, 365, 363, 306, 307, 0, 0, 5062, -1, -1, 0, -2794, 2654, 14770, 595, 4, 2, 6, 0, 0
261, 159540831, 5, 2687, 0, 0, 0, 365, 363, 306, 307, 0, 0, 5062, -1, -2, 0, -2778, 2648, 14760, 595, 4, 2, 6, 0, 0
262, 159550812, 5, 2687, 0, 0, 0, 365, 363, 306, 307, 0, 0, 5062, -1, -2, 0, -2788, 2646, 14740, 595, 4, 2, 6, 0, 0
263, 159560802, 5, 2687, 0, 0, 0, 365, 363, 306, 307, 0, 0, 5062, -1, -1, 0, -2764, 2648, 14736, 595, 4, 2, 6, 0, 0
264, 159570775, 5, 2687, 0, 0, 0, 365, 363, 306, 307, 0, 0, 5062, -1, -1, 0, -2766, 2638, 14740, 595, 4, 2, 6, 0, 0
265, 159580755, 5, 2687, 0, 0, 0, 365, 363, 306, 307, 0, 0, 5062, -1, -2, 0, -2770, 2620, 14732, 595, 4, 2, 6, 0, 0
266, 159590750, 5, 2687, 0, 0, 0, 365, 363, 306, 307, 0, 0, 5062, -2, -2, 0, -2776, 2636, 14752, 595, 4, 2, 6, 0, 0
267, 159600720, 5, 2687, 0, 0, 0, 365, 363, 306, 307, 0, 0, 5062, -2, -2, 0, -2774, 2630, 14742, 595, 4, 2, 6, 0, 0
268, 159610719, 5, 2687, 0, 0, 0, 365, 363, 306, 307, 0, 0, 5062, -1, -1, 0, -2778, 2634, 14746, 595, 4, 2, 6, 0, 0
269, 159620681, 5, 2687, 0, 0, 0, 365, 363, 306, 307, 0, 0, 5062, -1, -2, 0, -2774, 2628, 14740, 595, 4, 2, 6, 0, 0
270, 159630670, 5, 2687, 0, 0, 0, 365, 363, 306, 307, 0, 0, 5062, -1, -2, 1, -2772, 2630, 14738, 595, 4, 2, 6, 0, 0
271, 159640643, 5, 2687, 0, 0, 0, 365, 363, 307, 307, 0, 0, 5062, -1, -2, 1, -2794, 2628, 14734, 595, 4, 2, 6, 0, 0
272, 159650646, 5, 2687, 0, 0, 0, 365, 363, 307, 307, 0, 0, 5062, -1, -2, 1, -2798, 2632, 14762, 595, 4, 2, 6, 0, 0
273, 159660623, 5, 2687, 0, 0, 0, 365, 363, 307, 307, 0, 0, 5062, -1, -2, 0, -2794, 2632, 14754, 595, 4, 2, 6, 0, 0
274, 159670601, 5, 2687, 0, 0, 0, 365, 363, 306, 307, 0, 0, 5062, -1, -2, 0, -2804, 2628, 14766, 595, 4, 2, 6, 0, 0
275, 159680670, 5, 2687, 0, 0, 0, 365, 363, 306, 307, 0, 0, 5062, -1, -2, 0, -2796, 2640, 14754, 595, 4, 2, 6, 0, 0
276, 159690573, 5, 2687, 0, 0, 0, 365, 363, 306, 307, 0, 0, 5062, -1, -2, 1, -2790, 2636, 14766, 595, 4, 2, 6, 0, 0
277, 159700687, 5, 2687, 0, 0, 0, 365, 363, 307, 307, 0, 0, 5062, -1, -2, 0, -2792, 2644, 14756, 595, 4, 2, 6, 0, 0
278, 159710539, 5, 2687, 0, 0, 0, 365, 363, 306, 307, 0, 0, 5062, -1, -2, 0, -2784, 2654, 14772, 595, 4, 2, 6, 0, 0
279, 159720637, 5, 2687, 0, 0, 0, 365, 363, 306, 307, 0, 0, 5062, -1, -2, 0, -2776, 2632, 14740, 595, 4, 2, 6, 0, 0
280, 159730502, 5, 2687, 0, 0, 0, 365, 363, 306, 307, 0, 0, 5062, -1, -2, 0, -2786, 2638, 14760, 595, 4, 2, 6, 0, 0
281, 159740486, 5, 2687, 0, 0, 0, 365, 363, 306, 307, 0, 0, 5062, -1, -2, 0, -2792, 2648, 14758, 595, 4, 2, 6, 0, 0
282, 159750466, 5, 2687, 0, 0, 0, 365, 363, 306, 307, 0, 0, 5062, -1, -2, 0, -2784, 2644, 14764, 595, 4, 2, 6, 0, 0
283, 159760449, 5, 2687, 0, 0, 0, 365, 363, 306, 307, 0, 0, 5061, -1, -2, 0, -2794, 2642, 14738, 595, 4, 2, 6, 0, 0
284, 159770446, 5, 2687, 0, 0, 0, 365, 363, 306, 307, 0, 0, 5061, -1, -1, 0, -2788, 2636, 14772, 595, 4, 2, 6, 0, 0
285, 159780424, 5, 2687, 0, 0, 0, 365, 363, 306, 307, 0, 0, 5061, -1, -3, 0, -2788, 2640, 14800, 595, 4, 2, 6, 0, 0
286, 159790396, 5, 2687, 0, 0, 0, 365, 363, 306, 307, 0, 0, 5061, -1, -3, 0, -2780, 2654, 14826, 595, 4, 2, 6, 0, 0
287, 159800379, 5, 2687, 0, 0, 0, 365, 363, 306, 307, 0, 0, 5061, -1, -2, 0, -2778, 2652, 14778, 595, 4, 2, 6, 0, 0
288, 159810372, 5, 2687, 0, 0, 0, 365, 363, 306, 307, 0, 0, 5061, -1, -2, 0, -2770, 2646, 14768, 595, 4, 2, 6, 0, 0
289, 159820343, 5, 2687, 0, 0, 0, 365, 363, 306, 307, 0, 0, 5061, -1, -2, 0, -2786, 2636, 14778, 595, 4, 2, 6, 0, 0
290, 159830336, 5, 2687, 0, 0, 0, 365, 363, 306, 307, 0, 0, 5061, -1, -2, 0, -2786, 2638, 14766, 595, 4, 2, 6, 0, 0
291, 159840322, 5, 2687, 0, 0, 0, 365, 363, 306, 307, 0, 0, 5061, -1, -2, 0, -2770, 2642, 14766, 595, 4, 2, 6, 0, 0
292, 159850291, 5, 2687, 0, 0, 0, 365, 363, 306, 307, 0, 0, 5061, -1, -2, 0, -2768, 2652, 14772, 595, 4, 2, 6, 0, 0
293, 159860256, 5, 2687, 0, 0, 0, 365, 363, 306, 307, 0, 0, 5061, -1, -2, 0, -2744, 2626, 14732, 595, 4, 2, 6, 0, 0
294, 159870290, 5, 2687, 0, 0, 0, 365, 363, 306, 307, 0, 0, 5061, -1, -2, 0, -2748, 2650, 14742, 595, 4, 2, 6, 0, 0
295, 159880228, 5, 2687, 0, 0, 0, 365, 363, 306, 307, 0, 0, 5061, -1, -2, 0, -2742, 2646, 14746, 595, 4, 2, 6, 0, 0
296, 159890334, 5, 2687, 0, 0, 0, 365, 363, 306, 307, 0, 0, 5061, -1, -2, 0, -2744, 2654, 14754, 595, 4, 2, 6, 0, 0
297, 159900218, 5, 2687, 0, 0, 0, 365, 363, 306, 307, 0, 0, 5061, -1, -2, 0, -2776, 2634, 14778, 595, 4, 2, 6, 0, 0
298, 159910319, 5, 2687, 0, 0, 0, 365, 363, 306, 307, 0, 0, 5061, -1, -3, 0, -2780, 2650, 14760, 595, 4, 2, 6, 0, 0
299, 159920183, 5, 2687, 0, 0, 0, 365, 363, 306, 307, 0, 0, 5061, -1, -2, 0, -2780, 2642, 14760, 595, 4, 2, 6, 0, 0
300, 159930237, 5, 2687, 0, 0, 0, 365, 363, 306, 307, 0, 0, 5061, -1, -3, 0, -2784, 2628, 14764, 595, 4, 2, 6, 0, 0
301, 159940138, 5, 2687, 0, 0, 0, 365, 363, 306, 307, 0, 0, 5061, -1, -2, 0, -2782, 2630, 14776, 595, 4, 2, 6, 0, 0
302, 159950129, 5, 2687, 0, 0, 0, 365, 363, 306, 307, 0, 0, 5061, -1, -2, 0, -2794, 2638, 14752, 595, 4, 2, 6, 0, 0
303, 159960094, 5, 2687, 0, 0, 0, 365, 363, 306, 307, 0, 0, 5061, -2, -3, 0, -2780, 2654, 14770, 595, 4, 2, 6, 0, 0
304, 159970081, 5, 2687, 0, 0, 0, 365, 363, 306, 307, 0, 0, 5061, -1, -3, 0, -2786, 2652, 14782, 595, 4, 2, 6, 0, 0
305, 159980056, 5, 2687, 0, 0, 0, 365, 363, 306, 307, 0, 0, 5061, -1, -2, 0, -2772, 2652, 14786, 595, 4, 2, 6, 0, 0
306, 159990032, 5, 2687, 0, 0, 0, 365, 363, 306, 307, 0, 0, 5061, -1, -2, 0, -2784, 2642, 14750, 595, 4, 2, 6, 0, 0
307, 160000038, 5, 2687, 0, 0, 0, 365, 363, 306, 307, 0, 0, 5061, -1, -2, 0, -2778, 2634, 14752, 595, 4, 2, 6, 0, 0
308, 160010013, 5, 2687, 0, 0, 0, 365, 363, 306, 307, 0, 0, 5061, -1, -2, 0, -2764, 2628, 14748, 595, 4, 2, 6, 0, 0
309, 160019989, 5, 2687, 0, 0, 0, 365, 363, 306, 307, 0, 0, 5060, -1, -2, 0, -2774, 2628, 14764, 595, 4, 2, 6, 0, 0
310, 160029958, 5, 2687, 0, 0, 0, 365, 363, 306, 307, 0, 0, 5061, -1, -2, 1, -2792, 2630, 14764, 595, 4, 2, 6, 0, 0
311, 160039952, 5, 2687, 0, 0, 0, 365, 363, 307, 307, 0, 0, 5061, -1, -2, 1, -2770, 2642, 14770, 595, 4, 2, 6, 0, 0
312, 160050107, 5, 2687, 0, 0, 0, 365, 363, 307, 307, 0, 0, 5061, -2, -2, 0, -2758, 2632, 14776, 595, 4, 2, 6, 0, 0
313, 160059914, 5, 2687, 0, 0, 0, 365, 363, 306, 307, 0, 0, 5061, -1, -2, 0, -2764, 2632, 14768, 595, 4, 2, 6, 0, 0
314, 160069896, 5, 2687, 0, 0, 0, 365, 363, 306, 307, 0, 0, 5061, -1, -2, 0, -2762, 2626, 14764, 595, 4, 2, 6, 0, 0
315, 160079920, 5, 2687, 0, 0, 0, 365, 363, 306, 307, 0, 0, 5061, -1, -2, 0, -2766, 2630, 14800, 595, 4, 2, 6, 0, 0
316, 160089871, 5, 2687, 0, 0, 0, 365, 363, 306, 307, 0, 0, 5060, -1, -2, 0, -2770, 2638, 14764, 595, 4, 2, 6, 0, 0
317, 160099944, 5, 2687, 0, 0, 0, 365, 363, 306, 307, 0, 0, 5060, -1, -2, 0, -2766, 2632, 14744, 595, 4, 2, 6, 0, 0
318, 160109832, 5, 2687, 0, 0, 0, 365, 363, 306, 307, 0, 0, 5060, -1, -2, 0, -2772, 2622, 14722, 595, 4, 2, 6, 0, 0
319, 160119937, 5, 2687, 0, 0, 0, 365, 363, 306, 307, 0, 0, 5060, -1, -2, 0, -2774, 2626, 14724, 595, 4, 2, 6, 0, 0
320, 160129798, 5, 2687, 0, 0, 0, 365, 363, 306, 307, 0, 0, 5060, -1, -1, 0, -2782, 2644, 14774, 595, 4, 2, 6, 0, 0
321, 160139826, 5, 2687, 0, 0, 0, 365, 363, 306, 307, 0, 0, 5060, -1, -2, 0, -2778, 2628, 14760, 595, 4, 2, 6, 0, 0
322, 160149760, 5, 2687, 0, 0, 0, 365, 363, 306, 307, 0, 0, 5060, -1, -2, 0, -2782, 2640, 14728, 595, 4, 2, 6, 0, 0
323, 160159739, 5, 2687, 0, 0, 0, 365, 363, 306, 307, 0, 0, 5060, -1, -2, 0, -2790, 2652, 14748, 595, 4, 2, 6, 0, 0
324, 160169730, 5, 2687, 0, 0, 0, 365, 363, 306, 307, 0, 0, 5060, -1, -2, 0, -2784, 2646, 14748, 595, 4, 2, 6, 0, 0
325, 160179708, 5, 2687, 0, 0, 0, 365, 363, 306, 307, 0, 0, 5060, -1, -2, 0, -2784, 2628, 14738, 595, 4, 2, 6, 0, 0
326, 160189687, 5, 2687, 0, 0, 0, 365, 363, 306, 307, 0, 0, 5060, -1, -3, 0, -2774, 2628, 14750, 595, 4, 2, 6, 0, 0
327, 160199679, 5, 2687, 0, 0, 0, 365, 363, 306, 307, 0, 0, 5060, -1, -2, 0, -2772, 2600, 14738, 595, 4, 2, 6, 0, 0
328, 160209668, 5, 2687, 0, 0, 0, 365, 363, 306, 307, 0, 0, 5060, 0, -1, -1, -2790, 2602, 14798, 595, 4, 2, 6, 0, 0
329, 160219642, 5, 2687, 0, 0, 0, 364, 365, 306, 307, 0, 0, 5058, -5, 17, -20, -2882, 2490, 14842, 595, 4, 2, 6, 0, 0
330, 160229632, 5, 2687, 0, 0, 0, 355, 373, 295, 317, 0, 0, 5053, -15, 34, -49, -2834, 2560, 14768, 595, 4, 2, 6, 0, 0
331, 160239598, 5, 2687, 0, 0, 0, 341, 388, 281, 332, 0, 0, 5045, -21, 41, -64, -2792, 2618, 14736, 595, 4, 2, 6, 0, 0
332, 160249599, 5, 2687, 0, 0, 0, 333, 395, 273, 339, 0, 0, 5038, -18, 42, -60, -2706, 2658, 14782, 595, 4, 2, 6, 0, 0
333, 160259553, 5, 2687, 0, 0, 0, 335, 393, 275, 337, 0, 0, 5031, -11, 41, -50, -2780, 2626, 14764, 595, 4, 2, 6, 0, 0
334, 160269563, 5, 2687, 0, 0, 0, 341, 388, 280, 332, 0, 0, 5025, -17, 49, -42, -2472, 2514, 14282, 595, 4, 2, 6, 0, 0
335, 160279523, 5, 2687, 0, 0, 0, 345, 384, 284, 328, 0, 0, 5022, -68, 81, -6, -2942, 2698, 14432, 595, 4, 2, 6, 0, 0
336, 160289563, 5, 2687, 0, 0, 0, 363, 365, 301, 311, 0, 0, 5019, -81, 29, -14, -3078, 2734, 14526, 595, 4, 2, 6, 0, 0
337, 160299500, 5, 2687, 0, 0, 0, 359, 369, 298, 315, 0, 0, 5017, -95, -20, -20, -2870, 2618, 14802, 595, 4, 2, 6, 0, 0
338, 160309603, 5, 2687, 0, 0, 0, 355, 372, 296, 319, 0, 0, 5017, -70, -29, 2, -2624, 2748, 15076, 595, 4, 2, 6, 0, 0
339, 160319469, 5, 2687, 0, 0, 0, 366, 361, 307, 308, 0, 0, 5023, -10, -58, 61, -2762, 2710, 14738, 595, 4, 2, 6, 0, 0
340, 160329569, 5, 2687, 0, 0, 0, 395, 332, 336, 278, 0, 0, 5032, -2, -82, 75, -2890, 2604, 14662, 595, 4, 2, 6, 0, 0
341, 160339432, 5, 2687, 0, 0, 0, 402, 325, 344, 271, 0, 0, 5042, -7, -78, 68, -2806, 2574, 14936, 595, 4, 2, 6, 0, 0
342, 160349452, 5, 2687, 0, 0, 0, 398, 329, 341, 274, 0, 0, 5053, 13, -69, 104, -3088, 2690, 14810, 595, 4, 2, 6, 0, 0
343, 160359409, 5, 2687, 0, 0, 0, 416, 311, 359, 255, 0, 0, 5068, 5, -53, 121, -3386, 2410, 14884, 595, 4, 2, 6, 0, 0
344, 160369392, 5, 2687, 0, 0, 0, 425, 303, 367, 247, 0, 0, 5082, -29, -26, 122, -3712, 2494, 14628, 595, 4, 2, 6, 0, 0
345, 160379364, 5, 2687, 0, 0, 0, 426, 302, 367, 247, 0, 0, 5096, -67, -28, 115, -4116, 2342, 14560, 595, 4, 2, 6, 0, 0
346, 160389367, 5, 2687, 0, 0, 0, 422, 304, 364, 252, 0, 0, 5113, -74, -74, 162, -4826, 2432, 14446, 595, 4, 2, 6, 0, 0
347, 160399337, 5, 2687, 0, 0, 0, 445, 280, 388, 228, 0, 0, 5142, -104, -87, 277, -6540, 2814, 14292, 595, 4, 2, 6, 0, 0
348, 160409333, 5, 2687, 0, 0, 0, 503, 223, 445, 200, 0, 0, 5162, -167, 20, 81, -5098, 4930, 14646, 595, 4, 2, 6, 0, 0
349, 160419288, 5, 2687, 0, 0, 0, 406, 320, 345, 270, 0, 0, 5111, -157, 205, -522, -944, 5154, 14486, 595, 4, 2, 6, 0, 0
350, 160429282, 5, 2687, 0, 0, 0, 200, 621, 200, 571, 0, 0, 5022, -293, 207, -785, 1246, 2500, 13756, 595, 4, 2, 6, 0, 0
351, 160439232, 5, 2687, 0, 0, 0, 200, 751, 200, 704, 0, 0, 4938, -331, 93, -686, 456, 1304, 15698, 595, 4, 2, 6, 0, 0
352, 160449250, 5, 2687, 0, 0, 0, 200, 701, 200, 656, 0, 0, 4888, -260, 49, -366, -692, 1708, 15854, 595, 4, 2, 6, 0, 0
353, 160459221, 5, 2687, 0, 0, 0, 200, 541, 200, 496, 0, 0, 4877, -320, 91, -5, -1462, 2656, 15382, 595, 4, 2, 6, 0, 0
354, 160469216, 5, 2687, 0, 0, 0, 364, 360, 302, 316, 0, 0, 4900, -503, 279, 337, -1686, 1488, 15848, 595, 4, 2, 6, 0, 0
355, 160479212, 5, 2687, 0, 0, 0, 537, 200, 470, 200, 0, 0, 4963, -606, 530, 714, -564, -190, 16632, 595, 4, 2, 6, 0, 0
356, 160489151, 5, 2687, 0, 0, 0, 730, 200, 655, 200, 0, 0, 5068, -586, 523, 1086, -170, -388, 17834, 595, 4, 2, 6, 0, 0
357, 160499224, 5, 2687, 0, 0, 0, 917, 200, 840, 200, 0, 0, 5214, -535, 235, 1388, -162, 504, 19644, 595, 4, 2, 6, 0, 0
358, 160509130, 5, 2687, 0, 0, 0, 1000, 200, 994, 200, 0, 0, 5394, -368, 107, 1684, 404, 938, 24046, 595, 4, 2, 6, 0, 0
359, 160519226, 5, 2687, 0, 0, 0, 1000, 200, 1000, 200, 0, 0, 5615, -27, -57, 2013, -1518, 302, 27450, 595, 4, 2, 6, 0, 0
360, 160529096, 5, 2687, 0, 0, 0, 1000, 200, 1000, 200, 0, 0, 5862, 442, -451, 2144, -4712, 98, 29136, 595, 4, 2, 6, 0, 0
361, 160539194, 5, 2687, 0, 0, 0, 1000, 200, 1000, 200, 0, 0, 6101, 1040, -937, 1937, -7964, -624, 28770, 595, 4, 2, 6, 0, 0
362, 160549062, 5, 2687, 0, 0, 0, 1000, 200, 1000, 200, 0, 0, 6296, 1660, -1519, 1385, -10434, -856, 26002, 595, 4, 2, 6, 0, 0
363, 160559035, 5, 2687, 0, 0, 0, 1000, 200, 1000, 200, 0, 0, 6419, 2110, -2124, 601, -10566, -280, 22106, 595, 4, 2, 6, 0, 0
364, 160569010, 5, 2687, 0, 0, 0, 637, 200, 634, 200, 0, 0, 6460, 2321, -2364, -204, -8002, 320, 18480, 595, 4, 2, 6, 0, 0
365, 160579028, 5, 2687, 0, 0, 0, 229, 491, 238, 384, 0, 0, 6433, 2298, -2233, -776, -3914, 782, 16066, 595, 4, 2, 6, 0, 0
366, 160588983, 5, 2687, 0, 0, 0, 200, 780, 200, 667, 0, 0, 6374, 2099, -1815, -964, 438, 1078, 15248, 595, 4, 2, 6, 0, 0
367, 160598970, 5, 2687, 0, 0, 0, 200, 875, 200, 759, 0, 0, 6313, 1873, -1066, -794, 3644, 1262, 15790, 595, 4, 2, 6, 0, 0
368, 160608964, 5, 2687, 0, 0, 0, 200, 791, 200, 673, 0, 0, 6268, 1742, -117, -398, 5164, 926, 16856, 595, 4, 2, 6, 0, 0
369, 160618934, 5, 2687, 0, 0, 0, 200, 595, 200, 474, 0, 0, 6246, 1772, 896, 70, 4730, 1010, 17512, 595, 4, 2, 6, 0, 0
370, 160628914, 5, 2687, 0, 0, 0, 394, 364, 347, 237, 0, 0, 6240, 1893, 1731, 445, 2940, 1506, 16902, 595, 4, 2, 6, 0, 0
371, 160638894, 5, 2687, 0, 0, 0, 593, 200, 522, 200, 0, 0, 6231, 2066, 2555, 640, 1224, 1902, 14960, 595, 4, 2, 6, 0, 0
372, 160648872, 5, 2687, 0, 0, 0, 704, 200, 607, 200, 0, 0, 6183, 2259, 3730, 634, -106, 2574, 11612, 595, 4, 2, 6, 0, 0
373, 160659013, 5, 2687, 0, 0, 0, 721, 200, 584, 200, 0, 0, 6057, 2324, 5231, 477, -1316, 3820, 7866, 595, 4, 2, 6, 0, 0
374, 160668853, 5, 2687, 0, 0, 0, 668, 200, 480, 200, 0, 0, 5825, 2162, 6896, 292, -2508, 4636, 5224, 595, 4, 2, 6, 0, 0
375, 160678999, 5, 2687, 0, 0, 0, 605, 276, 357, 200, 0, 0, 5468, 1924, 8852, 204, -3848, 4498, 3180, 595, 4, 2, 6, 0, 0
376, 160689023, 5, 2687, 0, 0, 0, 598, 323, 277, 200, 0, 0, 4944, 1766, 11141, 174, -5322, 4474, 980, 595, 4, 2, 6, 0, 0
377, 160699138, 5, 2687, 0, 0, 0, 627, 343, 218, 200, 0, 0, 4190, 1659, 13381, 143, -6568, 4698, -1188, 595, 4, 2, 6, 0, 0
378, 160709198, 5, 2687, 0, 0, 0, 658, 366, 200, 200, 0, 0, 3111, 1544, 15146, 82, -6956, 4878, -2994, 595, 4, 2, 6, 0, 0
379, 160719069, 5, 2687, 0, 0, 0, 670, 409, 200, 200, 0, 0, 1556, 1390, 16272, 1, -6506, 6382, -4364, 595, 4, 2, 6, 0, 0
380, 160729218, 5, 2687, 0, 0, 0, 666, 467, 200, 203, 0, 0, -665, 1083, 16460, -17, -6034, 9780, -4334, 595, 4, 2, 6, 0, 0
381, 160739072, 5, 2687, 0, 0, 0, 679, 502, 200, 200, 0, 0, -3577, 683, 15346, 170, -6342, 13694, -2376, 595, 4, 2, 6, 0, 0
382, 160749244, 5, 2687, 0, 0, 0, 773, 445, 200, 200, 0, 0, -6714, 334, 12950, 562, -7886, 15190, 1116, 595, 4, 2, 6, 0, 0
383, 160759157, 5, 2687, 0, 0, 0, 948, 289, 285, 200, 0, 0, -9340, 177, 9746, 1021, -10130, 14530, 5264, 595, 4, 2, 6, 0, 0
384, 160769173, 5, 2687, 0, 0, 0, 1000, 200, 550, 200, 0, 0, -11135, 372, 6552, 1317, -12924, 11862, 8520, 595, 4, 2, 6, 0, 0
385, 160779115, 5, 2687, 0, 0, 0, 1000, 200, 736, 200, 0, 0, -12185, 991, 3744, 1294, -15782, 8314, 9480, 595, 4, 2, 6, 0, 0
386, 160789045, 5, 2687, 0, 0, 0, 1000, 200, 757, 200, 0, 0, -12571, 1752, 1000, 981, -18160, 5976, 7728, 595, 4, 2, 6, 0, 0
387, 160799075, 5, 2687, 0, 0, 0, 1000, 200, 632, 200, 0, 0, -12251, 2352, -2037, 614, -20106, 4242, 3666, 595, 4, 2, 6, 0, 0
388, 160809067, 5, 2687, 0, 0, 0, 803, 372, 482, 200, 0, 0, -11097, 2607, -5379, 383, -21682, 3320, -1474, 595, 4, 2, 6, 0, 0
389, 160819047, 5, 2687, 0, 0, 0, 652, 478, 402, 200, 0, 0, -8943, 2484, -8712, 254, -23476, 2760, -6254, 595, 4, 2, 6, 0, 0
390, 160829001, 5, 2687, 0, 0, 0, 552, 515, 373, 200, 0, 0, -5761, 2070, -11806, 151, -25542, 2946, -8758, 595, 4, 2, 6, 0, 0
391, 160838895, 5, 2687, 0, 0, 0, 466, 520, 356, 200, 0, 0, -2070, 1454, -14415, 71, -27210, 4352, -7318, 595, 4, 2, 6, 0, 0
392, 160848871, 5, 2687, 0, 0, 0, 389, 502, 353, 200, 0, 0, 1177, 804, -16090, -37, -27620, 5896, -1450, 595, 4, 2, 6, 0, 0
393, 160858831, 5, 2687, 0, 0, 0, 302, 505, 332, 203, 0, 0, 3513, 538, -16361, -256, -26648, 5864, 6644, 595, 4, 2, 6, 0, 0
394, 160868980, 5, 2687, 0, 0, 0, 200, 582, 246, 345, 0, 0, 5056, 936, -15320, -664, -25366, 4422, 13446, 595, 4, 2, 6, 0, 0
395, 160878942, 5, 2687, 0, 0, 0, 200, 773, 200, 562, 0, 0, 6081, 1809, -13969, -1186, -24338, 3256, 16618, 595, 4, 2, 6, 0, 0
396, 160888900, 5, 2687, 0, 0, 0, 200, 1000, 200, 821, 0, 0, 6828, 2757, -13362, -1726, -22640, 2514, 16286, 595, 4, 2, 6, 0, 0
397, 160898636, 5, 2687, 0, 0, 0, 200, 1000, 200, 1000, 0, 0, 7454, 3586, -13522, -2175, -19580, 1776, 13444, 595, 4, 2, 6, 0, 0
398, 160908562, 5, 2687, 0, 0, 0, 200, 1000, 200, 1000, 0, 0, 8042, 4309, -13773, -2477, -16534, 930, 8806, 595, 4, 2, 6, 0, 0
399, 160918653, 5, 2687, 0, 0, 0, 200, 1000, 200, 1000, 0, 0, 8622, 4815, -13677, -2714, -12944, 2494, 3442, 595, 4, 2, 6, 0, 0
400, 160928537, 5, 2687, 0, 0, 0, 200, 1000, 200, 1000, 0, 0, 9187, 4850, -12952, -3012, -7702, 6660, -630, 595, 4, 2, 6, 0, 0
401, 160938650, 5, 2687, 0, 0, 0, 200, 1000, 200, 1000, 0, 0, 9698, 4428, -11353, -3347, -1496, 8962, -2538, 595, 4, 2, 6, 0, 0
402, 160948509, 5, 2687, 0, 0, 0, 200, 1000, 200, 1000, 0, 0, 10113, 3762, -9043, -3459, 4112, 8382, -3422, 595, 4, 2, 6, 0, 0
403, 160958515, 5, 2687, 0, 0, 0, 200, 1000, 200, 1000, 0, 0, 10397, 2983, -6349, -3238, 7970, 7906, -3532, 595, 4, 2, 6, 0, 0
404, 160968448, 5, 2687, 0, 0, 0, 200, 1000, 200, 1000, 0, 0, 10531, 2310, -3803, -2928, 11452, 8178, -3976, 595, 4, 2, 6, 0, 0
405, 160978442, 5, 2687, 0, 0, 0, 200, 1000, 200, 1000, 0, 0, 10508, 1644, -1425, -2552, 15978, 8490, -4036, 595, 4, 2, 6, 0, 0
406, 160988411, 5, 2687, 0, 0, 0, 200, 1000, 200, 1000, 0, 0, 10299, 1147, 1177, -2154, 21418, 10084, -3552, 595, 4, 2, 6, 0, 0
407, 160998381, 5, 2687, 0, 0, 0, 200, 1000, 200, 1000, 0, 0, 9891, 757, 3819, -1608, 25778, 10686, -2296, 595, 4, 2, 6, 0, 0
408, 161008386, 5, 2687, 0, 0, 0, 200, 1000, 200, 994, 0, 0, 9337, 395, 6076, -718, 28038, 10682, 700, 595, 4, 2, 6, 0, 0
409, 161018338, 5, 2687, 0, 0, 0, 200, 834, 200, 555, 0, 0, 8704, 278, 8018, 418, 27306, 10248, 4134, 595, 4, 2, 6, 0, 0
410, 161028329, 5, 2687, 0, 0, 0, 585, 262, 504, 200, 0, 0, 8032, 513, 9725, 1601, 23108, 9892, 6268, 595, 4, 2, 6, 0, 0
411, 161038297, 5, 2687, 0, 0, 0, 1000, 200, 1000, 200, 0, 0, 7339, 989, 11218, 2621, 17542, 9518, 6394, 595, 4, 2, 6, 0, 0
412, 161048274, 5, 2687, 0, 0, 0, 1000, 200, 1000, 200, 0, 0, 6583, 1639, 12950, 3311, 12740, 9816, 4536, 595, 4, 2, 6, 0, 0
413, 161058256, 5, 2687, 0, 0, 0, 1000, 200, 1000, 200, 0, 0, 5670, 2347, 15264, 3676, 9474, 9508, 1562, 595, 4, 2, 6, 0, 0
414, 161068286, 5, 2687, 0, 0, 0, 1000, 200, 1000, 200, 0, 0, 4466, 3104, 18344, 3916, 7466, 8064, -1764, 595, 4, 2, 6, 0, 0
415, 161078122, 5, 2687, 0, 0, 0, 1000, 200, 1000, 200, 0, 0, 2801, 3978, 21755, 4146, 4912, 6038, -4810, 595, 4, 2, 6, 0, 0
416, 161088437, 5, 2687, 0, 0, 0, 1000, 200, 1000, 200, 0, 0, 500, 4898, 24252, 4428, -672, 6672, -7932, 595, 4, 2, 6, 0, 0
417, 161098346, 5, 2687, 0, 0, 0, 1000, 200, 1000, 200, 0, 0, -2458, 5539, 24079, 4459, -7990, 6542, -10974, 595, 4, 2, 6, 0, 0
418, 161108568, 5, 2687, 0, 0, 0, 1000, 200, 1000, 200, 0, 0, -5644, 5724, 20807, 4191, -13462, 4482, -13098, 595, 4, 2, 6, 0, 0
419, 161118451, 5, 2687, 0, 0, 0, 1000, 200, 1000, 200, 0, 0, -8354, 5481, 15645, 3636, -15712, 3554, -15008, 595, 4, 2, 6, 0, 0
420, 161128618, 5, 2687, 0, 0, 0, 1000, 200, 1000, 200, 0, 0, -10259, 4935, 10530, 3094, -14956, 4560, -16598, 595, 4, 2, 6, 0, 0
421, 161138510, 5, 2687, 0, 0, 0, 1000, 200, 1000, 200, 0, 0, -11526, 4263, 6890, 2771, -14416, 6132, -17688, 595, 4, 2, 6, 0, 0
422, 161148515, 5, 2687, 0, 0, 0, 1000, 200, 1000, 200, 0, 0, -12408, 3548, 4576, 2542, -16138, 6672, -18696, 595, 4, 2, 6, 0, 0
423, 161158378, 5, 2687, 0, 0, 0, 1000, 200, 1000, 200, 0, 0, -13023, 2780, 2690, 2211, -19230, 6480, -19858, 595, 4, 2, 6, 0, 0
424, 161168434, 5, 2687, 0, 0, 0, 1000, 200, 1000, 200, 0, 0, -13387, 1954, 757, 1712, -21972, 5814, -21102, 595, 4, 2, 6, 0, 0
425, 161178351, 5, 2687, 0, 0, 0, 1000, 200, 1000, 200, 0, 0, -13512, 1169, -1036, 1107, -23748, 4720, -22248, 595, 4, 2, 6, 0, 0
426, 161188362, 5, 2687, 0, 0, 0, 996, 200, 781, 200, 0, 0, -13418, 434, -2495, 430, -24736, 3888, -23194, 595, 4, 2, 6, 0, 0
427, 161198359, 5, 2687, 0, 0, 0, 645, 521, 456, 200, 0, 0, -13106, -319, -3793, -310, -25250, 3572, -23460, 595, 4, 2, 6, 0, 0
428, 161208326, 5, 2687, 0, 0, 0, 264, 880, 200, 200, 0, 0, -12544, -1092, -5111, -1081, -25534, 3694, -22506, 595, 4, 2, 6, 0, 0
429, 161218351, 5, 2687, 0, 0, 0, 200, 1000, 200, 504, 0, 0, -11683, -1815, -6445, -1897, -24994, 3996, -19900, 595, 4, 2, 6, 0, 0
430, 161228368, 5, 2687, 0, 0, 0, 200, 1000, 200, 932, 0, 0, -10511, -2290, -7371, -2705, -23460, 3598, -15768, 595, 4, 2, 6, 0, 0
431, 161238325, 5, 2687, 0, 0, 0, 200, 1000, 200, 1000, 0, 0, -9107, -2400, -7772, -3467, -22614, 3932, -11010, 595, 4, 2, 6, 0, 0
432, 161248237, 5, 2687, 0, 0, 0, 200, 1000, 200, 1000, 0, 0, -7532, -2233, -8276, -4126, -22084, 4386, -6952, 595, 4, 2, 6, 0, 0
433, 161258245, 5, 2687, 0, 0, 0, 200, 1000, 200, 1000, 0, 0, -5791, -1937, -9408, -4676, -20678, 5568, -3850, 595, 4, 2, 6, 0, 0
434, 161268246, 5, 2687, 0, 0, 0, 200, 1000, 200, 1000, 0, 0, -3898, -1571, -10972, -5103, -18330, 6638, -1182, 595, 4, 2, 6, 0, 0
435, 161278053, 5, 2687, 0, 0, 0, 200, 1000, 200, 1000, 0, 0, -1936, -1100, -12678, -5354, -16000, 6402, 1362, 595, 4, 2, 6, 0, 0
436, 161288019, 5, 2687, 0, 0, 0, 200, 1000, 200, 1000, 0, 0, 21, -420, -14472, -5450, -13258, 5366, 3006, 595, 4, 2, 6, 0, 0
437, 161298053, 5, 2687, 0, 0, 0, 200, 1000, 200, 1000, 0, 0, 1925, 466, -16247, -5366, -9690, 4872, 2580, 595, 4, 2, 6, 0, 0
438, 161307742, 5, 2687, 0, 0, 0, 200, 1000, 200, 1000, 0, 0, 3782, 1382, -18039, -5025, -5554, 5140, 14, 595, 4, 2, 6, 0, 0
439, 161317947, 5, 2687, 0, 0, 0, 200, 1000, 200, 1000, 0, 0, 5610, 2218, -19401, -4445, -1350, 6432, -3614, 595, 4, 2, 6, 0, 0
440, 161327827, 5, 2687, 0, 0, 0, 200, 1000, 200, 1000, 0, 0, 7382, 2939, -19556, -3809, 2060, 9046, -7116, 595, 4, 2, 6, 0, 0
441, 161337929, 5, 2687, 0, 0, 0, 200, 1000, 200, 1000, 0, 0, 9050, 3417, -18421, -3287, 5122, 12372, -8942, 595, 4, 2, 6, 0, 0
442, 161347820, 5, 2687, 0, 0, 0, 200, 1000, 200, 1000, 0, 0, 10590, 3527, -16480, -2818, 9072, 14656, -8374, 595, 4, 2, 6, 0, 0
443, 161357901, 5, 2687, 0, 0, 0, 200, 1000, 200, 1000, 0, 0, 11984, 3394, -14100, -2184, 13538, 13592, -6934, 595, 4, 2, 6, 0, 0
444, 161367678, 5, 2687, 0, 0, 0, 200, 1000, 200, 1000, 0, 0, 13214, 3279, -11608, -1275, 17334, 11292, -8484, 595, 4, 2, 6, 0, 0
445, 161377686, 5, 2687, 0, 0, 0, 200, 1000, 200, 733, 0, 0, 14290, 3059, -9470, -157, 18374, 10372, -13148, 595, 4, 2, 6, 0, 0
446, 161387661, 5, 2687, 0, 0, 0, 200, 661, 404, 200, 0, 0, 15271, 2547, -8270, 932, 16610, 11850, -18884, 595, 4, 2, 6, 0, 0
447, 161397637, 5, 2687, 0, 0, 0, 664, 200, 939, 200, 0, 0, 16238, 1695, -8033, 1669, 13804, 14910, -24742, 595, 4, 2, 6, 0, 0
448, 161407647, 5, 2687, 0, 0, 0, 1000, 200, 1000, 200, 0, 0, 17225, 501, -8123, 1957, 16806, 17250, -32768, 595, 4, 2, 6, 0, 0
449, 161417619, 5, 2687, 0, 0, 0, 1000, 200, 1000, 200, 0, 0, 17985, -842, -5544, 1951, 13124, 16780, -29212, 595, 4, 2, 6, 0, 0
450, 161427614, 5, 2687, 0, 0, 0, 1000, 200, 1000, 200, 0, 0, 18478, -2088, -3285, 2013, 14632, 15680, -23434, 595, 4, 2, 6, 0, 0
451, 161437593, 5, 2687, 0, 0, 0, 1000, 200, 1000, 200, 0, 0, 18674, -3097, -608, 2313, 14618, 13752, -15986, 595, 4, 2, 6, 0, 0
452, 161447561, 5, 2687, 0, 0, 0, 1000, 200, 1000, 200, 0, 0, 18549, -3767, 2277, 2933, 10744, 9282, -9490, 595, 4, 2, 6, 0, 0
453, 161457554, 5, 2687, 0, 0, 0, 1000, 200, 1000, 200, 0, 0, 18145, -4060, 4897, 3808, 2936, 4232, -7696, 595, 4, 2, 6, 0, 0
454, 161467522, 5, 2687, 0, 0, 0, 1000, 200, 1000, 200, 0, 0, 17538, -4263, 6965, 4573, -7622, 2678, -10960, 595, 4, 2, 6, 0, 0
455, 161477509, 5, 2687, 0, 0, 0, 1000, 200, 1000, 200, 0, 0, 16816, -4774, 8218, 4774, -16698, 3994, -16082, 595, 4, 2, 6, 0, 0
456, 161487466, 5, 2687, 0, 0, 0, 1000, 200, 1000, 200, 0, 0, 16008, -5805, 9247, 4393, -20866, 4246, -19238, 595, 4, 2, 6, 0, 0
457, 161497433, 5, 2687, 0, 0, 0, 1000, 200, 1000, 200, 0, 0, 15037, -7123, 11191, 3960, -21598, 1698, -18282, 595, 4, 2, 6, 0, 0
458, 161507524, 5, 2687, 0, 0, 0, 1000, 200, 1000, 200, 0, 0, 13781, -8239, 14417, 4061, -23630, -4002, -14098, 595, 4, 2, 6, 0, 0
459, 161517506, 5, 2687, 0, 0, 0, 1000, 200, 1000, 200, 0, 0, 12176, -8666, 18122, 4850, -29078, -10644, -10306, 595, 4, 2, 6, 0, 0
460, 161527929, 5, 2687, 0, 0, 0, 1000, 200, 1000, 200, 0, 0, 10193, -8284, 21098, 6047, -32768, -15640, -9270, 595, 4, 2, 6, 0, 0
461, 161537780, 5, 2687, 0, 0, 0, 1000, 200, 1000, 200, 0, 0, 7782, -7436, 22032, 7181, -32768, -17972, -9962, 595, 4, 2, 6, 0, 0
462, 161547845, 5, 2687, 0, 0, 0, 0, 200, 1000, 200, 0, 0, 4915, -6730, 20132, 7791, -32768, -16180, -10076, 595, 4, 2, 6, 0, 0
463, 161557561, 5, 2687, 0, 0, 0, 0, 200, 1000, 200, 0, 0, 1636, -6373, 16592, 7656, -32768, -12124, -8288, 595, 4, 2, 6, 0, 0
464, 161567662, 5, 2687, 0, 0, 0, 0, 200, 1000, 200, 0, 0, -1949, -6087, 13472, 6886, -32768, -8308, -4670, 595, 4, 2, 6, 0, 0
465, 161577744, 5, 2687, 0, 0, 0, 0, 200, 1000, 200, 0, 0, -5632, -5525, 11663, 5762, -32768, -5776, -1276, 595, 4, 2, 6, 0, 0
466, 161587727, 5, 2687, 0, 0, 0, 1000, 200, 1000, 200, 0, 0, -8953, -4774, 10557, 4587, -32768, -3656, 58, 595, 4, 2, 6, 0, 0
467, 161597694, 5, 2687, 0, 0, 0, 1000, 200, 1000, 200, 0, 0, -11556, -4063, 9573, 3582, -32768, -1646, 670, 595, 4, 2, 6, 0, 0
468, 161607638, 5, 2687, 0, 0, 0, 1000, 200, 1000, 200, 0, 0, -13405, -3434, 8355, 2679, -32768, -36, 692, 595, 4, 2, 6, 0, 0
469, 161617619, 5, 2687, 0, 0, 0, 1000, 200, 1000, 200, 0, 0, -14635, -2885, 6847, 1765, -32768, 1244, -314, 595, 4, 2, 6, 0, 0
470, 161627596, 5, 2687, 0, 0, 0, 1000, 200, 971, 200, 0, 0, -15393, -2464, 5362, 810, -31366, 2984, -2262, 595, 4, 2, 6, 0, 0
471, 161637590, 5, 2687, 0, 0, 0, 963, 333, 518, 200, 0, 0, -15836, -2201, 4515, -32, -24666, 4678, -4200, 595, 4, 2, 6, 0, 0
472, 161647589, 5, 2687, 0, 0, 0, 526, 759, 200, 200, 0, 0, -16121, -2035, 4406, -597, -18634, 4718, -5684, 595, 4, 2, 6, 0, 0
473, 161657564, 5, 2687, 0, 0, 0, 236, 1000, 200, 225, 0, 0, -16357, -1933, 4522, -825, -13872, 4218, -6944, 595, 4, 2, 6, 0, 0
474, 161667555, 5, 2687, 0, 0, 0, 200, 1000, 200, 338, 0, 0, -16601, -1919, 4525, -662, -10012, 3520, -7630, 595, 4, 2, 6, 0, 0
475, 161677552, 5, 2687, 0, 0, 0, 200, 1000, 200, 257, 0, 0, -16912, -1906, 4641, -77, -7988, 3174, -7814, 595, 4, 2, 6, 0, 0
476, 161687522, 5, 2687, 0, 0, 0, 477, 784, 200, 200, 0, 0, -17323, -1869, 4861, 693, -9438, 3854, -7506, 595, 4, 2, 6, 0, 0
477, 161697545, 5, 2687, 0, 0, 0, 857, 400, 506, 200, 0, 0, -17792, -1834, 4645, 1287, -13968, 4406, -6148, 595, 4, 2, 6, 0, 0
478, 161707475, 5, 2687, 0, 0, 0, 1000, 200, 812, 200, 0, 0, -18224, -1738, 3637, 1476, -19548, 4664, -4060, 595, 4, 2, 6, 0, 0
479, 161717558, 5, 2687, 0, 0, 0, 1000, 200, 923, 200, 0, 0, -18530, -1478, 2006, 1182, -24640, 4388, -2148, 595, 4, 2, 6, 0, 0
480, 161727451, 5, 2687, 0, 0, 0, 1000, 200, 796, 200, 0, 0, -18635, -1031, 116, 405, -27934, 4236, -2382, 595, 4, 2, 6, 0, 0
481, 161737577, 5, 2687, 0, 0, 0, 646, 555, 429, 200, 0, 0, -18486, -600, -1839, -687, -29114, 4914, -4904, 595, 4, 2, 6, 0, 0
482, 161747432, 5, 2687, 0, 0, 0, 200, 1000, 200, 254, 0, 0, -18047, -373, -3808, -1872, -29344, 4852, -8106, 595, 4, 2, 6, 0, 0
483, 161757561, 5, 2687, 0, 0, 0, 200, 1000, 200, 849, 0, 0, -17295, -338, -5693, -3010, -29742, 3878, -10566, 595, 4, 2, 6, 0, 0
484, 161767354, 5, 2687, 0, 0, 0, 200, 1000, 200, 1000, 0, 0, -16197, -374, -7380, -4139, -30322, 3722, -11552, 595, 4, 2, 6, 0, 0
485, 161777394, 5, 2687, 0, 0, 0, 200, 1000, 200, 1000, 0, 0, -14709, -383, -8767, -5376, -30704, 3950, -10920, 595, 4, 2, 6, 0, 0
486, 161787307, 5, 2687, 0, 0, 0, 200, 1000, 200, 1000, 0, 0, -12816, -134, -9891, -6755, -29554, 2136, -9008, 595, 4, 2, 6, 0, 0
487, 161797351, 5, 2687, 0, 0, 0, 200, 1000, 200, 1000, 0, 0, -10603, 505, -10846, -8098, -27010, -556, -7726, 595, 4, 2, 6, 0, 0
488, 161807288, 5, 2687, 0, 0, 0, 200, 0, 200, 1000, 0, 0, -8222, 1449, -11936, -9201, -23940, -3568, -8364, 595, 4, 2, 6, 0, 0
489, 161817280, 5, 2687, 0, 0, 0, 1000, 200, 1000, 200, 0, 0, -5805, 2520, -13380, -9908, -21008, -5932, -11060, 595, 4, 2, 6, 0, 0
490, 161827112, 5, 2687, 0, 0, 0, 1000, 200, 1000, 200, 0, 0, -3400, 3554, -15270, -10133, -19246, -8188, -14716, 595, 4, 2, 6, 0, 0
491, 161837092, 5, 2687, 0, 0, 0, 1000, 200, 1000, 200, 0, 0, -981, 4532, -17516, -9918, -17530, -8750, -18766, 595, 4, 2, 6, 0, 0
492, 161847046, 5, 2687, 0, 0, 0, 1000, 200, 1000, 200, 0, 0, 1489, 5386, -19925, -9280, -16408, -8800, -22636, 595, 4, 2, 6, 0, 0
493, 161856718, 5, 2687, 0, 0, 0, 1000, 200, 1000, 200, 0, 0, 4063, 6092, -22316, -8188, -15384, -7432, -25620, 595, 4, 2, 6, 0, 0
494, 161866815, 5, 2687, 0, 0, 0, 200, 0, 200, 0, 0, 0, 6753, 6609, -24188, -6696, -14834, -4936, -26844, 595, 4, 2, 6, 0, 0
495, 161876979, 5, 2687, 0, 0, 0, 200, 1000, 200, 1000, 0, 0, 9504, 6935, -24850, -4975, -14766, -1534, -25362, 595, 4, 2, 6, 0, 0
496, 161886819, 5, 2687, 0, 0, 0, 200, 1000, 200, 1000, 0, 0, 12189, 7187, -23949, -3383, -14928, 1326, -23022, 595, 4, 2, 6, 0, 0
497, 161896743, 5, 2687, 0, 0, 0, 200, 1000, 200, 1000, 0, 0, 14669, 7221, -21697, -2093, -14698, 3464, -20642, 595, 4, 2, 6, 0, 0
498, 161906802, 5, 2687, 0, 0, 0, 200, 1000, 200, 1000, 0, 0, 16845, 7005, -18760, -1187, -14694, 5156, -18778, 595, 4, 2, 6, 0, 0
499, 161916777, 5, 2687, 0, 0, 0, 200, 1000, 200, 588, 0, 0, 18710, 6578, -16051, -633, -14782, 6844, -17716, 595, 4, 2, 6, 0, 0
500, 161926848, 5, 2687, 0, 0, 0, 200, 995, 200, 308, 0, 0, 20329, 6023, -14066, -319, -14444, 7940, -17058, 595, 4, 2, 6, 0, 0
501, 161936795, 5, 2687, 0, 0, 0, 200, 840, 311, 200, 0, 0, 21774, 5473, -12690, -125, -14042, 8736, -16560, 595, 4, 2, 6, 0, 0
