index_log, time_stamp, mode, thrust, roll, pitch, yaw, ae[0], ae[1], ae[2], ae[3], phi, theta, psi, sp, sq, sr, bat_volt, P, P1, P2, temperature, pressure
0, 853153, 0, 0, 0, 0, 0, 0, 0, 0, 0, 0, 0, 0, 0, 0, 0, 637, 0, 0, 0, 0, 0
1, 900004, 0, 0, 0, 0, 0, 0, 0, 0, 0, 141, -37, 20, -43, -32, 37, 637, 0, 0, 0, 0, 0
2, 950330, 0, 0, 0, 0, 0, 0, 0, 0, 0, 135, -62, 39, -38, -33, 36, 595, 0, 0, 0, 0, 0
3, 1000002, 0, 0, 0, 0, 0, 0, 0, 0, 0, 122, -86, 60, -51, -32, 37, 595, 0, 0, 0, 0, 0
4, 1050319, 0, 0, 0, 0, 0, 0, 0, 0, 0, 113, -109, 80, -35, -33, 36, 595, 0, 0, 0, 0, 0
5, 1100002, 0, 0, 0, 0, 0, 0, 0, 0, 0, 105, -131, 99, -47, -32, 37, 595, 0, 0, 0, 0, 0
6, 1150322, 0, 0, 0, 0, 0, 0, 0, 0, 0, 94, -153, 119, -42, -32, 37, 595, 0, 0, 0, 0, 0
7, 1200000, 0, 0, 0, 0, 0, 0, 0, 0, 0, 87, -174, 139, -41, -33, 37, 595, 0, 0, 0, 0, 0
8, 1250329, 0, 0, 0, 0, 0, 0, 0, 0, 0, 78, -194, 159, -45, -33, 37, 595, 0, 0, 0, 0, 0
9, 1299999, 0, 0, 0, 0, 0, 0, 0, 0, 0, 70, -213, 179, -42, -33, 37, 595, 0, 0, 0, 0, 0
10, 1353397, 0, 0, 0, 0, 0, 0, 0, 0, 0, 60, -235, 203, -43, -31, 37, 595, 0, 0, 0, 0, 0
11, 1402994, 0, 0, 0, 0, 0, 0, 0, 0, 0, 53, -253, 223, -42, -34, 37, 595, 0, 0, 0, 0, 0
12, 1453216, 0, 0, 0, 0, 0, 0, 0, 0, 0, 45, -269, 242, -44, -36, 36, 595, 0, 0, 0, 0, 0
13, 1502821, 0, 0, 0, 0, 0, 0, 0, 0, 0, 38, -280, 262, -39, -49, 37, 595, 0, 0, 0, 0, 0
14, 1553028, 0, 0, 0, 0, 0, 0, 0, 0, 0, 33, -287, 282, -39, -48, 37, 595, 0, 0, 0, 0, 0
15, 1602626, 0, 0, 0, 0, 0, 0, 0, 0, 0, 24, -297, 301, -51, -37, 37, 595, 0, 0, 0, 0, 0
16, 1652843, 0, 0, 0, 0, 0, 0, 0, 0, 0, 14, -310, 321, -36, -34, 36, 595, 0, 0, 0, 0, 0
17, 1702425, 0, 0, 0, 0, 0, 0, 0, 0, 0, 13, -324, 340, -41, -34, 37, 595, 0, 0, 0, 0, 0
18, 1752643, 0, 0, 0, 0, 0, 0, 0, 0, 0, 2, -337, 360, -52, -32, 38, 595, 0, 0, 0, 0, 0
19, 1802222, 0, 0, 0, 0, 0, 0, 0, 0, 0, -2, -350, 379, -31, -34, 36, 595, 0, 0, 0, 0, 0
20, 1852425, 0, 0, 0, 0, 0, 0, 0, 0, 0, -6, -363, 398, -51, -33, 37, 595, 0, 0, 0, 0, 0
21, 1902008, 0, 0, 0, 0, 0, 0, 0, 0, 0, -15, -375, 417, -40, -33, 37, 595, 0, 0, 0, 0, 0
22, 1952218, 0, 0, 0, 0, 0, 0, 0, 0, 0, -18, -386, 436, -42, -32, 36, 595, 0, 0, 0, 0, 0
23, 2001811, 0, 0, 0, 0, 0, 0, 0, 0, 0, -25, -397, 455, -46, -33, 37, 595, 0, 0, 0, 0, 0
24, 2052024, 0, 0, 0, 0, 0, 0, 0, 0, 0, -29, -408, 475, -39, -33, 36, 595, 0, 0, 0, 0, 0
25, 2101617, 0, 0, 0, 0, 0, 0, 0, 0, 0, -35, -418, 494, -47, -33, 37, 595, 0, 0, 0, 0, 0
26, 2151838, 0, 0, 0, 0, 0, 0, 0, 0, 0, -40, -428, 513, -41, -32, 36, 595, 0, 0, 0, 0, 0
27, 2201437, 0, 0, 0, 0, 0, 0, 0, 0, 0, -45, -438, 532, -43, -33, 37, 595, 0, 0, 0, 0, 0
28, 2251657, 0, 0, 0, 0, 0, 0, 0, 0, 0, -50, -447, 551, -42, -33, 37, 595, 0, 0, 0, 0, 0
29, 2301253, 0, 0, 0, 0, 0, 0, 0, 0, 0, -54, -456, 570, -42, -33, 37, 595, 0, 0, 0, 0, 0
30, 2351459, 0, 0, 0, 0, 0, 0, 0, 0, 0, -58, -466, 589, -42, -33, 37, 595, 0, 0, 0, 0, 0
31, 2401036, 0, 0, 0, 0, 0, 0, 0, 0, 0, -62, -474, 608, -45, -32, 38, 595, 0, 0, 0, 0, 0
32, 2451262, 0, 0, 0, 0, 0, 0, 0, 0, 0, -66, -483, 627, -41, -33, 37, 595, 0, 0, 0, 0, 0
33, 2500840, 0, 0, 0, 0, 0, 0, 0, 0, 0, -69, -491, 646, -44, -33, 37, 595, 0, 0, 0, 0, 0
34, 2551071, 0, 0, 0, 0, 0, 0, 0, 0, 0, -74, -499, 665, -44, -32, 36, 595, 0, 0, 0, 0, 0
35, 2600637, 0, 0, 0, 0, 0, 0, 0, 0, 0, -77, -506, 683, -41, -34, 37, 595, 0, 0, 0, 0, 0
36, 2650877, 0, 0, 0, 0, 0, 0, 0, 0, 0, -81, -513, 702, -43, -32, 36, 595, 0, 0, 0, 0, 0
37, 2700466, 0, 0, 0, 0, 0, 0, 0, 0, 0, -84, -519, 721, -43, -32, 37, 595, 0, 0, 0, 0, 0
38, 2750683, 0, 0, 0, 0, 0, 0, 0, 0, 0, -89, -526, 740, -43, -33, 37, 595, 0, 0, 0, 0, 0
39, 2800269, 0, 0, 0, 0, 0, 0, 0, 0, 0, -90, -532, 758, -41, -33, 37, 595, 0, 0, 0, 0, 0
40, 2850503, 0, 0, 0, 0, 0, 0, 0, 0, 0, -94, -539, 777, -48, -33, 37, 595, 0, 0, 0, 0, 0
41, 2900102, 0, 0, 0, 0, 0, 0, 0, 0, 0, -97, -545, 796, -37, -32, 37, 595, 0, 0, 0, 0, 0
42, 2950312, 0, 0, 0, 0, 0, 0, 0, 0, 0, -98, -551, 814, -46, -31, 37, 595, 0, 0, 0, 0, 0
43, 2999975, 0, 0, 0, 0, 0, 0, 0, 0, 0, -103, -557, 833, -43, -33, 36, 595, 0, 0, 0, 0, 0
44, 3050288, 0, 0, 0, 0, 0, 0, 0, 0, 0, -104, -562, 852, -41, -33, 37, 595, 0, 0, 0, 0, 0
45, 3099974, 0, 0, 0, 0, 0, 0, 0, 0, 0, -107, -567, 870, -45, -32, 36, 595, 0, 0, 0, 0, 0
46, 3150288, 0, 0, 0, 0, 0, 0, 0, 0, 0, -110, -572, 889, -41, -33, 37, 595, 0, 0, 0, 0, 0
47, 3199972, 0, 0, 0, 0, 0, 0, 0, 0, 0, -112, -577, 907, -44, -32, 36, 595, 0, 0, 0, 0, 0
48, 3250286, 0, 0, 0, 0, 0, 0, 0, 0, 0, -116, -581, 926, -42, -33, 37, 595, 0, 0, 0, 0, 0
49, 3299971, 0, 0, 0, 0, 0, 0, 0, 0, 0, -117, -585, 944, -42, -33, 37, 595, 0, 0, 0, 0, 0
50, 3350294, 0, 0, 0, 0, 0, 0, 0, 0, 0, -120, -589, 963, -44, -32, 37, 595, 0, 0, 0, 0, 0
51, 3399969, 0, 0, 0, 0, 0, 0, 0, 0, 0, -122, -593, 981, -43, -33, 37, 595, 0, 0, 0, 0, 0
52, 3450291, 0, 0, 0, 0, 0, 0, 0, 0, 0, -125, -597, 1000, -44, -32, 37, 595, 0, 0, 0, 0, 0
53, 3499967, 0, 0, 0, 0, 0, 0, 0, 0, 0, -126, -601, 1018, -43, -33, 37, 595, 0, 0, 0, 0, 0
54, 3550282, 0, 0, 0, 0, 0, 0, 0, 0, 0, -129, -605, 1036, -45, -33, 37, 595, 0, 0, 0, 0, 0
55, 3599964, 0, 0, 0, 0, 0, 0, 0, 0, 0, -131, -608, 1055, -41, -33, 37, 595, 0, 0, 0, 0, 0
56, 3650281, 0, 0, 0, 0, 0, 0, 0, 0, 0, -132, -611, 1074, -44, -33, 37, 595, 0, 0, 0, 0, 0
57, 3699962, 0, 0, 0, 0, 0, 0, 0, 0, 0, -135, -614, 1092, -42, -33, 37, 595, 0, 0, 0, 0, 0
58, 3750278, 0, 0, 0, 0, 0, 0, 0, 0, 0, -136, -618, 1111, -41, -33, 37, 595, 0, 0, 0, 0, 0
59, 3799963, 0, 0, 0, 0, 0, 0, 0, 0, 0, -138, -621, 1129, -45, -32, 37, 595, 0, 0, 0, 0, 0
60, 3850287, 0, 0, 0, 0, 0, 0, 0, 0, 0, -140, -624, 1147, -42, -33, 37, 595, 0, 0, 0, 0, 0
61, 3899961, 0, 0, 0, 0, 0, 0, 0, 0, 0, -142, -627, 1166, -44, -33, 37, 595, 0, 0, 0, 0, 0
62, 3950283, 0, 0, 0, 0, 0, 0, 0, 0, 0, -143, -630, 1184, -42, -33, 36, 595, 0, 0, 0, 0, 0
63, 3999957, 0, 0, 0, 0, 0, 0, 0, 0, 0, -144, -632, 1202, -44, -33, 36, 595, 0, 0, 0, 0, 0
64, 4050274, 0, 0, 0, 0, 0, 0, 0, 0, 0, -146, -634, 1220, -43, -33, 36, 595, 0, 0, 0, 0, 0
65, 4099956, 0, 0, 0, 0, 0, 0, 0, 0, 0, -148, -637, 1238, -44, -33, 37, 595, 0, 0, 0, 0, 0
66, 4150271, 0, 0, 0, 0, 0, 0, 0, 0, 0, -149, -639, 1256, -40, -33, 36, 595, 0, 0, 0, 0, 0
67, 4199954, 0, 0, 0, 0, 0, 0, 0, 0, 0, -149, -641, 1274, -45, -33, 37, 595, 0, 0, 0, 0, 0
68, 4250272, 0, 0, 0, 0, 0, 0, 0, 0, 0, -152, -643, 1293, -43, -33, 37, 595, 0, 0, 0, 0, 0
69, 4299954, 0, 0, 0, 0, 0, 0, 0, 0, 0, -152, -646, 1311, -41, -32, 37, 595, 0, 0, 0, 0, 0
70, 4350268, 0, 0, 0, 0, 0, 0, 0, 0, 0, -155, -649, 1330, -44, -32, 37, 595, 0, 0, 0, 0, 0
71, 4399952, 0, 0, 0, 0, 0, 0, 0, 0, 0, -155, -651, 1347, -43, -32, 37, 595, 0, 0, 0, 0, 0
72, 4450269, 0, 0, 0, 0, 0, 0, 0, 0, 0, -158, -653, 1366, -45, -33, 36, 595, 0, 0, 0, 0, 0
73, 4499953, 0, 0, 0, 0, 0, 0, 0, 0, 0, -158, -654, 1384, -41, -33, 37, 595, 0, 0, 0, 0, 0
74, 4550266, 0, 0, 0, 0, 0, 0, 0, 0, 0, -160, -656, 1402, -44, -33, 36, 595, 0, 0, 0, 0, 0
75, 4599948, 0, 0, 0, 0, 0, 0, 0, 0, 0, -159, -658, 1420, -41, -33, 37, 595, 0, 0, 0, 0, 0
76, 4650266, 0, 0, 0, 0, 0, 0, 0, 0, 0, -163, -660, 1439, -48, -33, 37, 595, 0, 0, 0, 0, 0
77, 4699949, 0, 0, 0, 0, 0, 0, 0, 0, 0, -161, -661, 1457, -36, -33, 36, 595, 0, 0, 0, 0, 0
78, 4750264, 0, 0, 0, 0, 0, 0, 0, 0, 0, -164, -662, 1475, -53, -32, 37, 595, 0, 0, 0, 0, 0
79, 4799945, 0, 0, 0, 0, 0, 0, 0, 0, 0, -165, -664, 1493, -34, -33, 36, 595, 0, 0, 0, 0, 0
80, 4850263, 0, 0, 0, 0, 0, 0, 0, 0, 0, -164, -666, 1511, -50, -32, 37, 595, 0, 0, 0, 0, 0
81, 4899945, 0, 0, 0, 0, 0, 0, 0, 0, 0, -168, -667, 1529, -40, -33, 36, 595, 0, 0, 0, 0, 0
82, 4950261, 0, 0, 0, 0, 0, 0, 0, 0, 0, -166, -668, 1547, -43, -33, 37, 595, 0, 0, 0, 0, 0
83, 4999942, 0, 0, 0, 0, 0, 0, 0, 0, 0, -169, -670, 1565, -44, -33, 37, 595, 0, 0, 0, 0, 0
84, 5050258, 0, 0, 0, 0, 0, 0, 0, 0, 0, -169, -671, 1583, -41, -33, 37, 595, 0, 0, 0, 0, 0
85, 5099942, 0, 0, 0, 0, 0, 0, 0, 0, 0, -170, -672, 1601, -45, -33, 37, 595, 0, 0, 0, 0, 0
86, 5150258, 0, 0, 0, 0, 0, 0, 0, 0, 0, -170, -673, 1620, -42, -33, 37, 595, 0, 0, 0, 0, 0
87, 5199941, 0, 0, 0, 0, 0, 0, 0, 0, 0, -172, -674, 1638, -46, -33, 37, 595, 0, 0, 0, 0, 0
88, 5250255, 0, 0, 0, 0, 0, 0, 0, 0, 0, -172, -676, 1656, -39, -33, 36, 595, 0, 0, 0, 0, 0
89, 5299940, 0, 0, 0, 0, 0, 0, 0, 0, 0, -172, -677, 1674, -46, -32, 37, 595, 0, 0, 0, 0, 0
90, 5350255, 0, 0, 0, 0, 0, 0, 0, 0, 0, -175, -678, 1692, -45, -33, 37, 595, 0, 0, 0, 0, 0
91, 5399938, 0, 0, 0, 0, 0, 0, 0, 0, 0, -175, -679, 1710, -40, -33, 36, 595, 0, 0, 0, 0, 0
92, 5450253, 0, 0, 0, 0, 0, 0, 0, 0, 0, -174, -680, 1728, -42, -32, 36, 595, 0, 0, 0, 0, 0
93, 5499935, 0, 0, 0, 0, 0, 0, 0, 0, 0, -176, -681, 1746, -48, -32, 37, 595, 0, 0, 0, 0, 0
94, 5550251, 0, 0, 0, 0, 0, 0, 0, 0, 0, -177, -681, 1763, -40, -33, 36, 595, 0, 0, 0, 0, 0
95, 5599934, 0, 0, 0, 0, 0, 0, 0, 0, 0, -176, -682, 1781, -44, -32, 38, 595, 0, 0, 0, 0, 0
96, 5650249, 0, 0, 0, 0, 0, 0, 0, 0, 0, -179, -683, 1799, -44, -33, 37, 595, 0, 0, 0, 0, 0
97, 5699934, 0, 0, 0, 0, 0, 0, 0, 0, 0, -178, -684, 1818, -42, -33, 37, 595, 0, 0, 0, 0, 0
98, 5750247, 0, 0, 0, 0, 0, 0, 0, 0, 0, -180, -685, 1836, -43, -33, 37, 595, 0, 0, 0, 0, 0
99, 5799930, 0, 0, 0, 0, 0, 0, 0, 0, 0, -178, -685, 1854, -39, -33, 37, 595, 0, 0, 0, 0, 0
100, 5850246, 0, 0, 0, 0, 0, 0, 0, 0, 0, -180, -686, 1872, -48, -32, 37, 595, 0, 0, 0, 0, 0
101, 5899930, 0, 0, 0, 0, 0, 0, 0, 0, 0, -180, -687, 1889, -38, -33, 36, 595, 0, 0, 0, 0, 0
102, 5950246, 0, 0, 0, 0, 0, 0, 0, 0, 0, -180, -687, 1907, -46, -33, 37, 595, 0, 0, 0, 0, 0
103, 5999929, 0, 0, 0, 0, 0, 0, 0, 0, 0, -183, -688, 1925, -46, -32, 37, 595, 0, 0, 0, 0, 0
104, 6050245, 0, 0, 0, 0, 0, 0, 0, 0, 0, -182, -688, 1943, -35, -33, 36, 595, 0, 0, 0, 0, 0
105, 6099928, 0, 0, 0, 0, 0, 0, 0, 0, 0, -180, -688, 1961, -47, -33, 37, 595, 0, 0, 0, 0, 0
106, 6150243, 0, 0, 0, 0, 0, 0, 0, 0, 0, -184, -689, 1979, -46, -32, 37, 595, 0, 0, 0, 0, 0
107, 6199927, 0, 0, 0, 0, 0, 0, 0, 0, 0, -181, -690, 1997, -35, -33, 36, 595, 0, 0, 0, 0, 0
108, 6250241, 0, 0, 0, 0, 0, 0, 0, 0, 0, -182, -690, 2015, -51, -32, 38, 595, 0, 0, 0, 0, 0
109, 6299925, 0, 0, 0, 0, 0, 0, 0, 0, 0, -185, -691, 2033, -40, -33, 36, 595, 0, 0, 0, 0, 0
110, 6350253, 0, 0, 0, 0, 0, 0, 0, 0, 0, -182, -691, 2051, -43, -32, 37, 595, 0, 0, 0, 0, 0
111, 6399921, 0, 0, 0, 0, 0, 0, 0, 0, 0, -185, -692, 2069, -45, -32, 37, 595, 0, 0, 0, 0, 0
112, 6450240, 0, 0, 0, 0, 0, 0, 0, 0, 0, -184, -693, 2087, -40, -32, 36, 595, 0, 0, 0, 0, 0
113, 6503006, 0, 0, 0, 0, 0, 0, 0, 0, 0, -186, -693, 2108, -46, -32, 37, 595, 0, 0, 0, 0, 0
114, 6553334, 0, 0, 0, 0, 0, 0, 0, 0, 0, -186, -693, 2126, -39, -32, 37, 595, 0, 0, 0, 0, 0
115, 6602822, 0, 0, 0, 0, 0, 0, 0, 0, 0, -184, -694, 2144, -44, -33, 37, 595, 0, 0, 0, 0, 0
116, 6653031, 0, 0, 0, 0, 0, 0, 0, 0, 0, -187, -693, 2162, -47, -33, 37, 595, 0, 0, 0, 0, 0
117, 6702630, 0, 0, 0, 0, 0, 0, 0, 0, 0, -186, -694, 2180, -35, -33, 36, 595, 0, 0, 0, 0, 0
118, 6752841, 0, 0, 0, 0, 0, 0, 0, 0, 0, -185, -694, 2198, -50, -33, 37, 595, 0, 0, 0, 0, 0
119, 6802430, 4, 0, 0, 0, 0, 0, 0, 0, 0, -190, -694, 2216, -41, -33, 36, 595, 0, 0, 0, 0, 0
120, 6852657, 4, 0, 0, 0, 0, 0, 0, 0, 0, -184, -694, 2234, -35, -31, 36, 595, 0, 0, 0, 0, 0
121, 6902224, 4, 0, 0, 0, 0, 0, 0, 0, 0, -188, -695, 2252, -56, -33, 38, 595, 0, 0, 0, 0, 0
122, 6952465, 4, 0, 0, 0, 0, 0, 0, 0, 0, -189, -695, 2270, -31, -33, 36, 595, 0, 0, 0, 0, 0
123, 7002027, 4, 0, 0, 0, 0, 0, 0, 0, 0, -185, -696, 2288, -49, -32, 37, 595, 0, 0, 0, 0, 0
124, 7052249, 4, 0, 0, 0, 0, 0, 0, 0, 0, -190, -696, 2306, -42, -33, 36, 595, 0, 0, 0, 0, 0
125, 7101830, 4, 0, 0, 0, 0, 0, 0, 0, 0, -187, -696, 2323, -41, -33, 37, 595, 0, 0, 0, 0, 0
126, 7152055, 4, 0, 0, 0, 0, 0, 0, 0, 0, -188, -696, 2342, -43, -33, 37, 595, 0, 0, 0, 0, 0
127, 7201644, 4, 0, 0, 0, 0, 0, 0, 0, 0, -188, -696, 2359, -45, -33, 36, 595, 0, 0, 0, 0, 0
128, 7251866, 4, 0, 0, 0, 0, 0, 0, 0, 0, -190, -696, 2377, -41, -33, 36, 595, 0, 0, 0, 0, 0
129, 7301449, 4, 0, 0, 0, 0, 0, 0, 0, 0, -187, -697, 2395, -43, -33, 37, 595, 0, 0, 0, 0, 0
130, 7351666, 4, 0, 0, 0, 0, 0, 0, 0, 0, -189, -697, 2413, -44, -33, 37, 595, 0, 0, 0, 0, 0
131, 7401244, 4, 0, 0, 0, 0, 0, 0, 0, 0, -187, -697, 2431, -40, -33, 37, 595, 0, 0, 0, 0, 0
132, 7451466, 4, 0, 0, 0, 0, 0, 0, 0, 0, -189, -697, 2449, -46, -33, 37, 595, 0, 0, 0, 0, 0
133, 7501047, 4, 0, 0, 0, 0, 0, 0, 0, 0, 24, -697, 2449, 930, -36, -108, 595, 0, 0, 0, 0, 0
134, 7551259, 4, 0, 0, 0, 0, 0, 0, 0, 0, 703, -698, 2304, 941, -23, -176, 595, 0, 0, 0, 0, 0
135, 7600850, 4, 0, 0, 0, 0, 0, 0, 0, 0, 750, -696, 2298, -843, -29, 72, 595, 0, 0, 0, 0, 0
136, 7651076, 4, 0, 0, 0, 0, 0, 0, 0, 0, 57, -700, 2366, -1373, -17, 189, 595, 0, 0, 0, 0, 0
137, 7700655, 4, 0, 0, 0, 0, 0, 0, 0, 0, -212, -699, 2458, 175, -36, 73, 595, 0, 0, 0, 0, 0
138, 7751053, 4, 0, 0, 0, 0, 0, 0, 0, 0, -3, -697, 2472, 171, -33, 27, 595, 0, 0, 0, 0, 0
139, 7800470, 4, 0, 0, 0, 0, 0, 0, 0, 0, -73, -695, 2456, -456, -21, -146, 595, 0, 0, 0, 0, 0
140, 7850668, 4, 0, 0, 0, 0, 0, 0, 0, 0, -193, -681, 2510, 107, -40, 437, 595, 0, 0, 0, 0, 0
141, 7900269, 4, 0, 0, 0, 0, 0, 0, 0, 0, -77, -707, 2609, 29, -33, -126, 595, 0, 0, 0, 0, 0
142, 7950492, 4, 0, 0, 0, 0, 0, 0, 0, 0, -447, -682, 2595, -1082, -705, 181, 595, 0, 0, 0, 0, 0
143, 8000070, 4, 0, 0, 0, 0, 0, 0, 0, 0, -569, 5, 2605, 709, -276, -135, 595, 0, 0, 0, 0, 0
144, 8050280, 4, 0, 0, 0, 0, 0, 0, 0, 0, 201, 137, 2509, 1803, -573, -273, 595, 0, 0, 0, 0, 0
145, 8099897, 4, 2047, 0, 0, 0, 255, 255, 255, 255, 912, -311, 2023, 798, 1395, -1073, 595, 0, 0, 0, 0, 0
146, 8150213, 4, 2047, 0, 0, 0, 255, 255, 255, 255, 1338, -803, 1206, 633, 656, -1739, 595, 0, 0, 0, 0, 0
147, 8199894, 4, 2047, 0, 0, 0, 255, 255, 255, 255, 1692, -515, 239, 428, -760, -1337, 595, 0, 0, 0, 0, 0
148, 8250211, 4, 2047, 0, 0, 0, 255, 255, 255, 255, 1800, 414, 317, -194, -1655, 852, 595, 0, 0, 0, 0, 0
149, 8299894, 4, 2047, 0, 0, 0, 255, 255, 255, 255, 2178, 1616, 1625, 1381, -3308, 2849, 595, 0, 0, 0, 0, 0
150, 8350218, 4, 2047, 0, 0, 0, 255, 255, 255, 255, 4046, 3143, 3815, 3338, -4142, 2394, 595, 0, 0, 0, 0, 0
151, 8399891, 4, 2047, 0, 0, 0, 255, 255, 255, 255, 6577, 3849, 5459, 4058, -1889, 1163, 595, 0, 0, 0, 0, 0
152, 8450207, 4, 2047, 0, 0, 0, 255, 255, 255, 255, 8835, 4213, 5997, 2754, -38, -841, 595, 0, 0, 0, 0, 0
153, 8499889, 4, 2047, 0, 0, 0, 255, 255, 255, 255, 9057, 3959, 4533, -154, 4203, -1484, 595, 0, 0, 0, 0, 0
154, 8550206, 4, 2047, 0, 0, 0, 255, 255, 255, 255, 7625, 3002, 2394, -2772, 3017, -823, 595, 0, 0, 0, 0, 0
155, 8599888, 4, 2047, 0, 0, 0, 255, 255, 255, 255, 5343, 1290, 1008, -3592, 4849, 891, 595, 0, 0, 0, 0, 0
156, 8650204, 4, 2047, 0, 0, 0, 255, 255, 255, 255, 3676, 27, 1482, -2387, -207, 3170, 595, 0, 0, 0, 0, 0
157, 8699888, 4, 2047, 0, 0, 0, 255, 255, 255, 255, 2572, -383, 3809, -522, -705, 4887, 595, 0, 0, 0, 0, 0
158, 8750213, 4, 2047, 0, 0, 0, 255, 255, 255, 255, 3188, 81, 6880, 2319, -2574, 5004, 595, 0, 0, 0, 0, 0
159, 8799887, 4, 2047, 0, 0, 0, 255, 255, 255, 255, 4593, -243, 9287, 3270, -255, 2873, 595, 0, 0, 0, 0, 0
160, 8850203, 4, 2047, 0, 0, 0, 255, 255, 255, 255, 6853, -215, 9809, 4969, -1777, -1677, 595, 0, 0, 0, 0, 0
161, 8899885, 4, 2047, 0, 0, 0, 255, 255, 255, 255, 9213, 1135, 9125, 3893, -400, -3022, 595, 0, 0, 0, 0, 0
162, 8950200, 4, 2047, 0, 0, 0, 255, 255, 255, 255, 10783, 1998, 7894, 2528, 1485, -2284, 595, 0, 0, 0, 0, 0
163, 8999882, 4, 2047, 0, 0, 0, 255, 255, 255, 255, 11222, 2644, 6031, -294, 3939, -3000, 595, 0, 0, 0, 0, 0
164, 9050199, 4, 2047, 0, 0, 0, 255, 255, 255, 255, 9255, 2665, 3106, -4212, 4257, -1970, 595, 0, 0, 0, 0, 0
165, 9099880, 4, 2047, 0, 0, 0, 255, 255, 255, 255, 6638, 1813, 1724, -3264, 1242, 672, 595, 0, 0, 0, 0, 0
166, 9150197, 4, 2047, 0, 0, 0, 255, 255, 255, 255, 4645, 1870, 2370, -4978, -572, 1786, 595, 0, 0, 0, 0, 0
167, 9199879, 4, 2047, 0, 0, 0, 255, 255, 255, 255, 1794, 932, 3959, -4468, 2561, 4641, 595, 0, 0, 0, 0, 0
168, 9250195, 4, 2047, 0, 0, 0, 255, 255, 255, 255, 956, 166, 6761, 934, -906, 4899, 595, 0, 0, 0, 0, 0
169, 9299880, 4, 2047, 0, 0, 0, 255, 255, 255, 255, 1736, 280, 8933, 1799, -126, 3048, 595, 0, 0, 0, 0, 0
170, 9350194, 4, 2047, 0, 0, 0, 255, 255, 255, 255, 3295, -64, 10175, 3812, -360, 1555, 595, 0, 0, 0, 0, 0
171, 9399875, 4, 2047, 0, 0, 0, 255, 255, 255, 255, 5563, 292, 10825, 4447, -1432, -22, 595, 0, 0, 0, 0, 0
172, 9450192, 4, 2047, 0, 0, 0, 255, 255, 255, 255, 7970, 528, 10382, 5202, 313, -2171, 595, 0, 0, 0, 0, 0
173, 9499874, 4, 2047, 0, 0, 0, 255, 255, 255, 255, 10647, 2226, 9445, 4879, -722, -4670, 595, 0, 0, 0, 0, 0
174, 9550191, 4, 2047, 0, 0, 0, 255, 255, 255, 255, 12720, 4493, 8766, 2881, -484, -2782, 595, 0, 0, 0, 0, 0
175, 9599872, 4, 2047, 0, 0, 0, 255, 255, 255, 255, 13440, 5258, 8156, -277, 2289, -957, 595, 0, 0, 0, 0, 0
176, 9650189, 4, 2047, 0, 0, 0, 255, 255, 255, 255, 11420, 5777, 6090, -3274, 2573, -2385, 595, 0, 0, 0, 0, 0
177, 9699871, 4, 2047, 0, 0, 0, 255, 255, 255, 255, 8882, 5811, 4978, -3622, 440, 567, 595, 0, 0, 0, 0, 0
178, 9750187, 4, 2047, 0, 0, 0, 255, 255, 255, 255, 6280, 4521, 4564, -4182, 3449, 2503, 595, 0, 0, 0, 0, 0
179, 9799870, 4, 2047, 0, 0, 0, 255, 255, 255, 255, 4991, 2928, 6391, -3023, -903, 5060, 595, 0, 0, 0, 0, 0
180, 9850186, 4, 2047, 0, 0, 0, 255, 255, 255, 255, 3522, 2065, 8767, -3363, 1483, 4456, 595, 0, 0, 0, 0, 0
181, 9899870, 4, 2047, 0, 0, 0, 255, 255, 255, 255, 3115, 1008, 11141, 832, -823, 4331, 595, 0, 0, 0, 0, 0
182, 9950184, 4, 2047, 0, 0, 0, 255, 255, 255, 255, 4074, 830, 13308, 1697, -432, 3150, 595, 0, 0, 0, 0, 0
183, 9999868, 4, 2047, 0, 0, 0, 255, 255, 255, 255, 5187, -244, 13877, 3061, 1301, 266, 595, 0, 0, 0, 0, 0
184, 10050184, 4, 2047, 0, 0, 0, 255, 255, 255, 255, 7198, -113, 13613, 4276, -1210, -1256, 595, 0, 0, 0, 0, 0
185, 10099865, 4, 2047, 0, 0, 0, 255, 255, 255, 255, 9262, 381, 13098, 3513, 1055, -1475, 595, 0, 0, 0, 0, 0
186, 10150183, 4, 2047, 0, 0, 0, 255, 255, 255, 255, 11068, 1061, 12152, 3046, 123, -2903, 595, 0, 0, 0, 0, 0
187, 10199866, 4, 2047, 0, 0, 0, 255, 255, 255, 255, 12093, 2600, 10877, 846, 2109, -3538, 595, 0, 0, 0, 0, 0
188, 10250189, 4, 2047, 0, 0, 0, 255, 255, 255, 255, 11423, 3626, 8644, -956, 2493, -2962, 595, 0, 0, 0, 0, 0
189, 10299863, 4, 2047, 0, 0, 0, 255, 255, 255, 255, 9792, 4340, 6548, -2275, 3816, -2644, 595, 0, 0, 0, 0, 0
190, 10350179, 4, 2047, 0, 0, 0, 255, 255, 255, 255, 7718, 4139, 4664, -2467, 797, -480, 595, 0, 0, 0, 0, 0
191, 10399861, 4, 2047, 0, 0, 0, 255, 255, 255, 255, 5584, 3806, 4405, -4647, 3436, 542, 595, 0, 0, 0, 0, 0
192, 10450177, 4, 2047, 0, 0, 0, 255, 255, 255, 255, 3912, 2365, 5031, -1458, -574, 3586, 595, 0, 0, 0, 0, 0
193, 10499859, 4, 2047, 0, 0, 0, 255, 255, 255, 255, 3257, 2114, 7420, -2450, 622, 4282, 595, 0, 0, 0, 0, 0
194, 10550175, 4, 2047, 0, 0, 0, 255, 255, 255, 255, 2953, 1435, 9552, 681, -1608, 3671, 595, 0, 0, 0, 0, 0
195, 10599858, 4, 2047, 0, 0, 0, 255, 255, 255, 255, 3945, 1853, 11866, 1155, -1617, 3766, 595, 0, 0, 0, 0, 0
196, 10650173, 4, 2047, 0, 0, 0, 255, 255, 255, 255, 4842, 1454, 13707, 1516, -310, 2612, 595, 0, 0, 0, 0, 0
197, 10699857, 4, 2047, 0, 0, 0, 255, 255, 255, 255, 6236, 1008, 14857, 3185, -959, 1871, 595, 0, 0, 0, 0, 0
198, 10750173, 4, 2047, 0, 0, 0, 255, 255, 255, 255, 7935, 644, 15487, 2754, 629, 421, 595, 0, 0, 0, 0, 0
199, 10799856, 4, 2047, 0, 0, 0, 255, 255, 255, 255, 9237, 135, 14414, 2276, 2088, -2184, 595, 0, 0, 0, 0, 0
200, 10850171, 4, 2047, 0, 0, 0, 255, 255, 255, 255, 10209, 1086, 12957, 1386, 877, -3238, 595, 0, 0, 0, 0, 0
201, 10899853, 4, 2047, 0, 0, 0, 255, 255, 255, 255, 10356, 1561, 10659, 562, 4152, -3067, 595, 0, 0, 0, 0, 0
202, 10950169, 4, 2047, 0, 0, 0, 255, 255, 255, 255, 10093, 2531, 8125, 178, 1593, -4032, 595, 0, 0, 0, 0, 0
203, 10999853, 4, 2047, 0, 0, 0, 255, 255, 255, 255, 9584, 3509, 6505, -833, 2487, -1685, 595, 0, 0, 0, 0, 0
204, 11050167, 4, 2047, 0, 0, 0, 255, 255, 255, 255, 8280, 3368, 4903, -1741, 2051, -1324, 595, 0, 0, 0, 0, 0
205, 11099850, 4, 2047, 0, 0, 0, 255, 255, 255, 255, 7037, 3026, 3964, -1587, 621, 57, 595, 0, 0, 0, 0, 0
206, 11150164, 4, 2047, 0, 0, 0, 255, 255, 255, 255, 6042, 2542, 3976, -2434, 2238, 718, 595, 0, 0, 0, 0, 0
207, 11199850, 4, 2047, 0, 0, 0, 255, 255, 255, 255, 4605, 1058, 3673, -2176, 2469, 1309, 595, 0, 0, 0, 0, 0
208, 11250163, 4, 2047, 0, 0, 0, 255, 255, 255, 255, 3486, -637, 4573, -1413, 2318, 4017, 595, 0, 0, 0, 0, 0
209, 11299848, 4, 2047, 0, 0, 0, 255, 255, 255, 255, 3024, -2551, 7013, 379, 1066, 5314, 595, 0, 0, 0, 0, 0
210, 11350167, 4, 2047, 0, 0, 0, 255, 255, 255, 255, 2148, -3581, 9073, -941, 257, 2427, 595, 0, 0, 0, 0, 0
211, 11399846, 4, 2047, 0, 0, 0, 255, 255, 255, 255, 1808, -3140, 10010, 744, -1338, 935, 595, 0, 0, 0, 0, 0
212, 11450167, 4, 2047, 0, 0, 0, 255, 255, 255, 255, 2247, -2869, 10194, 928, -742, -395, 595, 0, 0, 0, 0, 0
213, 11499845, 4, 2047, 0, 0, 0, 255, 255, 255, 255, 2573, -2519, 9859, 125, -739, -1248, 595, 0, 0, 0, 0, 0
214, 11553404, 4, 2047, 0, 0, 0, 255, 255, 255, 255, 2942, 33, 9030, 1075, -5410, -2442, 595, 0, 0, 0, 0, 0
215, 11602970, 4, 2047, 0, 0, 0, 255, 255, 255, 255, 4003, 2990, 9300, 2413, -4249, -456, 595, 0, 0, 0, 0, 0
216, 11653364, 4, 2047, 0, 0, 0, 255, 255, 255, 255, 5450, 4565, 9661, 2075, -2129, -695, 595, 0, 0, 0, 0, 0
217, 11703265, 4, 2047, 0, 0, 0, 255, 255, 255, 255, 6999, 5849, 10226, 2562, -2872, -479, 595, 0, 0, 0, 0, 0
218, 11753450, 4, 2047, 0, 0, 0, 255, 255, 255, 255, 8879, 6976, 11208, 2371, -1788, -374, 595, 0, 0, 0, 0, 0
219, 11803082, 4, 2047, 0, 0, 0, 255, 255, 255, 255, 10862, 7906, 12009, 2193, -2401, -891, 595, 0, 0, 0, 0, 0
220, 11853206, 4, 2047, 0, 0, 0, 255, 255, 255, 255, 12376, 8490, 12839, 1369, 194, -117, 595, 0, 0, 0, 0, 0
221, 11902850, 4, 2047, 0, 0, 0, 255, 255, 255, 255, 12500, 8378, 12068, 681, 2950, -198, 595, 0, 0, 0, 0, 0
222, 11953071, 4, 2047, 0, 0, 0, 255, 255, 255, 255, 9996, 6950, 8330, -560, 7976, 418, 595, 0, 0, 0, 0, 0
223, 12002328, 4, 2047, 0, 0, 0, 255, 255, 255, 255, 8165, 3128, 4751, -191, 8489, 2790, 595, 0, 0, 0, 0, 0
224, 12052410, 4, 2047, 0, 0, 0, 255, 255, 255, 255, 7473, -137, 3783, -1254, 4358, 2335, 595, 0, 0, 0, 0, 0
225, 12101998, 4, 2047, 0, 0, 0, 255, 255, 255, 255, 6962, -2639, 3166, -773, 4331, 1717, 595, 0, 0, 0, 0, 0
226, 12152240, 4, 2047, 0, 0, 0, 255, 255, 255, 255, 6721, -4955, 2794, -515, 2802, 2275, 595, 0, 0, 0, 0, 0
227, 12202133, 4, 2047, 0, 0, 0, 255, 255, 255, 255, 6553, -6827, 2820, -85, 2513, 1635, 595, 0, 0, 0, 0, 0
228, 12252347, 4, 2047, 0, 0, 0, 255, 255, 255, 255, 6479, -8201, 2942, 75, 1330, 1539, 595, 0, 0, 0, 0, 0
229, 12301931, 4, 2047, 0, 0, 0, 255, 255, 255, 255, 6350, -9140, 3473, 1058, 302, 1022, 595, 0, 0, 0, 0, 0
230, 12352309, 4, 2047, 0, 0, 0, 255, 255, 255, 255, 6230, -8924, 4471, 1057, -2525, 576, 595, 0, 0, 0, 0, 0
231, 12401866, 4, 2047, 0, 0, 0, 255, 255, 255, 255, 4984, -6420, 7016, 832, -9075, 236, 595, 0, 0, 0, 0, 0
232, 12451771, 4, 2047, 0, 0, 0, 255, 255, 255, 255, 4745, -1039, 9901, 2072, -10160, -406, 595, 0, 0, 0, 0, 0
233, 12501368, 4, 2047, 0, 0, 0, 255, 255, 255, 255, 5640, 2104, 10783, 944, -3440, -2059, 595, 0, 0, 0, 0, 0
234, 12551582, 4, 2047, 0, 0, 0, 255, 255, 255, 255, 5978, 3928, 10560, 627, -1967, -2014, 595, 0, 0, 0, 0, 0
235, 12601174, 4, 2047, 0, 0, 0, 255, 255, 255, 255, 6230, 5207, 10096, 993, -1291, -1647, 595, 0, 0, 0, 0, 0
236, 12651692, 4, 2047, 0, 0, 0, 255, 255, 255, 255, 6959, 6723, 10620, 362, -2755, -356, 595, 0, 0, 0, 0, 0
237, 12701274, 4, 2047, 0, 0, 0, 255, 255, 255, 255, 7131, 7106, 10731, -241, 2405, -335, 595, 0, 0, 0, 0, 0
238, 12751175, 4, 2047, 0, 0, 0, 255, 255, 255, 255, 5122, 3751, 7795, -1885, 11371, -582, 595, 0, 0, 0, 0, 0
239, 12800608, 4, 2047, 0, 0, 0, 255, 255, 255, 255, 3871, -2120, 5394, -1367, 9358, 1024, 595, 0, 0, 0, 0, 0
240, 12851179, 4, 2047, 0, 0, 0, 255, 255, 255, 255, 3755, -5527, 4661, -301, 3567, 1012, 595, 0, 0, 0, 0, 0
241, 12900734, 4, 2047, 0, 0, 0, 255, 255, 255, 255, 3459, -6827, 4876, -252, 1478, 1038, 595, 0, 0, 0, 0, 0
242, 12950973, 4, 2047, 0, 0, 0, 255, 255, 255, 255, 2999, -6903, 5369, -533, -2906, 253, 595, 0, 0, 0, 0, 0
243, 13000211, 4, 2047, 0, 0, 0, 255, 255, 255, 255, 1960, -2627, 6504, -391, -11046, -231, 595, 0, 0, 0, 0, 0
244, 13050411, 4, 2047, 0, 0, 0, 255, 255, 255, 255, 2350, 2924, 7599, 1103, -8332, 162, 595, 0, 0, 0, 0, 0
245, 13100330, 4, 2047, 0, 0, 0, 255, 255, 255, 255, 3063, 5613, 8240, 340, -1664, -576, 595, 0, 0, 0, 0, 0
246, 13150231, 4, 2047, 0, 0, 0, 255, 255, 255, 255, 2490, 3429, 7169, -781, 9816, -615, 595, 0, 0, 0, 0, 0
247, 13199833, 4, 2047, 0, 0, 0, 255, 255, 255, 255, 1882, -3389, 5677, -1230, 12444, 675, 595, 0, 0, 0, 0, 0
248, 13250358, 4, 2047, 0, 0, 0, 255, 255, 255, 255, 1372, -6702, 5607, -133, 638, 314, 595, 0, 0, 0, 0, 0
249, 13299816, 4, 2047, 0, 0, 0, 255, 255, 255, 255, 1093, -3602, 6280, 10, -11754, 789, 595, 0, 0, 0, 0, 0
250, 13350132, 4, 2047, 0, 0, 0, 255, 255, 255, 255, 1425, 3014, 7912, 1063, -8759, 1850, 595, 0, 0, 0, 0, 0
251, 13399816, 4, 2047, 0, 0, 0, 255, 255, 255, 255, 1832, 4174, 8629, -815, 3178, -4, 595, 0, 0, 0, 0, 0
252, 13450131, 4, 2047, 0, 0, 0, 255, 255, 255, 255, 901, -479, 7768, -1524, 10262, -962, 595, 0, 0, 0, 0, 0
253, 13499814, 4, 2047, 0, 0, 0, 255, 255, 255, 255, 439, -3154, 7127, -313, -935, 96, 595, 0, 0, 0, 0, 0
254, 13550130, 4, 2047, 0, 0, 0, 255, 255, 255, 255, 599, 269, 8064, 971, -7565, 2014, 595, 0, 0, 0, 0, 0
255, 13599812, 4, 2047, 0, 0, 0, 255, 255, 255, 255, 660, 2129, 8857, -1291, -287, 392, 595, 0, 0, 0, 0, 0
256, 13650127, 4, 2047, 0, 0, 0, 255, 255, 255, 255, -283, 2066, 8997, -1933, 162, 200, 595, 0, 0, 0, 0, 0
257, 13699812, 4, 2047, 0, 0, 0, 255, 255, 255, 255, -1445, 1392, 9057, -2105, 1487, -99, 595, 0, 0, 0, 0, 0
258, 13750135, 4, 2047, 0, 0, 0, 255, 255, 255, 255, -2434, 1240, 9237, -1564, -550, 695, 595, 0, 0, 0, 0, 0
259, 13799808, 4, 2047, 0, 0, 0, 255, 255, 255, 255, -3172, 1221, 9666, -1019, 1374, 526, 595, 0, 0, 0, 0, 0
260, 13850124, 4, 2047, 0, 0, 0, 255, 255, 255, 255, -2918, 806, 9963, 1326, -63, 244, 595, 0, 0, 0, 0, 0
261, 13899808, 4, 2047, 0, 0, 0, 255, 255, 255, 255, -1733, 300, 9973, 3151, 1455, -350, 595, 0, 0, 0, 0, 0
262, 13950124, 4, 2047, 0, 0, 0, 255, 255, 255, 255, 479, 345, 10088, 4734, -965, 444, 595, 0, 0, 0, 0, 0
263, 13999806, 4, 2047, 0, 0, 0, 255, 255, 255, 255, 2992, 379, 9895, 4880, 806, -964, 595, 0, 0, 0, 0, 0
264, 14050122, 4, 2047, 0, 0, 0, 255, 255, 255, 255, 5535, 131, 9167, 4665, 1144, -793, 595, 0, 0, 0, 0, 0
265, 14099803, 4, 2047, 0, 0, 0, 255, 255, 255, 255, 8255, 465, 9196, 4561, -2275, 138, 595, 0, 0, 0, 0, 0
266, 14150121, 4, 2047, 0, 0, 0, 255, 255, 255, 255, 10049, 1060, 10214, 924, -629, -55, 595, 0, 0, 0, 0, 0
267, 14199803, 4, 2047, 0, 0, 0, 255, 255, 255, 255, 10315, 1145, 10068, -9, -283, -88, 595, 0, 0, 0, 0, 0
268, 14250117, 4, 2047, 0, 0, 0, 255, 255, 255, 255, 10033, 1463, 10737, -2109, -1554, 3, 595, 0, 0, 0, 0, 0
269, 14299800, 4, 2047, 0, 0, 0, 255, 255, 255, 255, 8382, 1798, 10821, -4021, -96, -602, 595, 0, 0, 0, 0, 0
270, 14350117, 4, 2047, 0, 0, 0, 255, 255, 255, 255, 5819, 2326, 10744, -5215, -697, -846, 595, 0, 0, 0, 0, 0
271, 14399801, 4, 2047, 0, 0, 0, 255, 255, 255, 255, 2609, 2631, 10282, -5476, -74, -775, 595, 0, 0, 0, 0, 0
272, 14450114, 4, 2047, 0, 0, 0, 255, 255, 255, 255, -496, 2797, 10043, -5248, 41, -213, 595, 0, 0, 0, 0, 0
273, 14499797, 4, 2047, 0, 0, 0, 255, 255, 255, 255, -3105, 1661, 10087, -3232, 2432, -320, 595, 0, 0, 0, 0, 0
274, 14550114, 4, 2047, 0, 0, 0, 255, 255, 255, 255, -3909, 1227, 10242, -386, -4, 254, 595, 0, 0, 0, 0, 0
275, 14599798, 4, 2047, 0, 0, 0, 255, 255, 255, 255, -3569, 988, 10341, 1404, 903, -119, 595, 0, 0, 0, 0, 0
276, 14650113, 4, 2047, 0, 0, 0, 255, 255, 255, 255, -1889, 851, 10371, 4565, -864, 167, 595, 0, 0, 0, 0, 0
277, 14699794, 4, 2047, 0, 0, 0, 255, 255, 255, 255, 889, 1301, 10527, 5719, -183, 362, 595, 0, 0, 0, 0, 0
278, 14750119, 4, 2047, 0, 0, 0, 255, 255, 255, 255, 4088, 1254, 10580, 6362, 413, 83, 595, 0, 0, 0, 0, 0
279, 14799795, 4, 2047, 0, 0, 0, 255, 255, 255, 255, 7630, 1601, 11204, 5470, -2793, 1111, 595, 0, 0, 0, 0, 0
280, 14850110, 4, 2047, 0, 0, 0, 255, 255, 255, 255, 10013, 1794, 12577, 1802, -637, 862, 595, 0, 0, 0, 0, 0
281, 14899793, 4, 2047, 0, 0, 0, 255, 255, 255, 255, 10733, 1668, 12670, 384, -112, -379, 595, 0, 0, 0, 0, 0
282, 14950108, 4, 2047, 0, 0, 0, 255, 255, 255, 255, 10677, 1994, 12718, -1412, -415, -756, 595, 0, 0, 0, 0, 0
283, 14999791, 4, 2047, 0, 0, 0, 255, 255, 255, 255, 9330, 2476, 12448, -3517, 1107, -1207, 595, 0, 0, 0, 0, 0
284, 15050107, 4, 2047, 0, 0, 0, 255, 255, 255, 255, 7119, 2244, 11423, -3493, 505, -602, 595, 0, 0, 0, 0, 0
285, 15099788, 4, 2047, 0, 0, 0, 255, 255, 255, 255, 5071, 3078, 11741, -4053, -1712, -264, 595, 0, 0, 0, 0, 0
286, 15150104, 4, 2047, 0, 0, 0, 255, 255, 255, 255, 2750, 2508, 11129, -3061, 3088, -848, 595, 0, 0, 0, 0, 0
287, 15199788, 4, 2047, 0, 0, 0, 255, 255, 255, 255, 1474, 1981, 10788, -1560, -1215, 73, 595, 0, 0, 0, 0, 0
288, 15250105, 4, 2047, 0, 0, 0, 255, 255, 255, 255, 625, 2218, 10771, -1538, 1394, -370, 595, 0, 0, 0, 0, 0
289, 15299786, 4, 2047, 0, 0, 0, 255, 255, 255, 255, 38, 812, 10461, -394, 2132, -514, 595, 0, 0, 0, 0, 0
290, 15350101, 4, 2047, 0, 0, 0, 255, 255, 255, 255, 1, 351, 10189, 75, 154, -441, 595, 0, 0, 0, 0, 0
291, 15399786, 4, 2047, 0, 0, 0, 255, 255, 255, 255, 14, 175, 10097, 44, 322, 55, 595, 0, 0, 0, 0, 0
292, 15450100, 4, 2047, 0, 0, 0, 255, 255, 255, 255, 194, 528, 10191, 541, -1273, 267, 595, 0, 0, 0, 0, 0
293, 15499782, 4, 2047, 0, 0, 0, 255, 255, 255, 255, 845, 562, 10293, 2057, 661, 196, 595, 0, 0, 0, 0, 0
294, 15550098, 4, 2047, 0, 0, 0, 255, 255, 255, 255, 2507, 756, 10525, 4023, -1144, 353, 595, 0, 0, 0, 0, 0
295, 15599783, 4, 2047, 0, 0, 0, 255, 255, 255, 255, 5261, 1252, 10631, 6037, -923, -580, 595, 0, 0, 0, 0, 0
296, 15650097, 4, 2047, 0, 0, 0, 255, 255, 255, 255, 8632, 1969, 10748, 5337, -1620, -395, 595, 0, 0, 0, 0, 0
297, 15699781, 4, 2047, 0, 0, 0, 255, 255, 255, 255, 11007, 2371, 11607, 1681, -990, 757, 595, 0, 0, 0, 0, 0
298, 15750104, 4, 2047, 0, 0, 0, 255, 255, 255, 255, 11515, 2032, 11509, 167, 1034, -106, 595, 0, 0, 0, 0, 0
299, 15799780, 4, 2047, 0, 0, 0, 255, 255, 255, 255, 11481, 1965, 11233, -328, -260, -80, 595, 0, 0, 0, 0, 0
300, 15850095, 4, 2047, 0, 0, 0, 255, 255, 255, 255, 11141, 2001, 11220, -1076, 356, -168, 595, 0, 0, 0, 0, 0
301, 15899776, 4, 2047, 0, 0, 0, 255, 255, 255, 255, 10336, 2123, 11281, -2394, -516, -57, 595, 0, 0, 0, 0, 0
302, 15950091, 4, 2047, 0, 0, 0, 255, 255, 255, 255, 8609, 2366, 11487, -4356, -306, -379, 595, 0, 0, 0, 0, 0
303, 15999776, 4, 2047, 0, 0, 0, 255, 255, 255, 255, 5863, 1993, 10911, -4465, 746, -104, 595, 0, 0, 0, 0, 0
304, 16050091, 4, 2047, 0, 0, 0, 255, 255, 255, 255, 3310, 2723, 11216, -5316, -1175, -512, 595, 0, 0, 0, 0, 0
305, 16099774, 4, 2047, 0, 0, 0, 255, 255, 255, 255, 130, 1206, 10388, -4376, 4368, -813, 595, 0, 0, 0, 0, 0
306, 16150090, 4, 2047, 0, 0, 0, 255, 255, 255, 255, -1219, 473, 10360, -1119, -954, 337, 595, 0, 0, 0, 0, 0
307, 16199772, 4, 2047, 0, 0, 0, 255, 255, 255, 255, -1648, 441, 10514, -129, 712, 58, 595, 0, 0, 0, 0, 0
308, 16250087, 4, 2047, 0, 0, 0, 255, 255, 255, 255, -1333, 576, 10482, 838, -378, -2, 595, 0, 0, 0, 0, 0
309, 16299772, 4, 2047, 0, 0, 0, 255, 255, 255, 255, -582, -28, 10442, 2519, 1948, -165, 595, 0, 0, 0, 0, 0
310, 16350086, 4, 2047, 0, 0, 0, 255, 255, 255, 255, 1806, -82, 10399, 6077, -1274, -214, 595, 0, 0, 0, 0, 0
311, 16399769, 4, 2047, 0, 0, 0, 255, 255, 255, 255, 5458, 866, 10608, 7442, -2465, -83, 595, 0, 0, 0, 0, 0
312, 16450091, 4, 2047, 0, 0, 0, 255, 255, 255, 255, 9173, 1656, 11564, 4519, -1342, 827, 595, 0, 0, 0, 0, 0
313, 16499767, 4, 2047, 0, 0, 0, 255, 255, 255, 255, 10926, 1449, 12146, 777, 233, 216, 595, 0, 0, 0, 0, 0
314, 16550089, 4, 2047, 0, 0, 0, 255, 255, 255, 255, 10967, 1179, 11213, -334, 1772, -828, 595, 0, 0, 0, 0, 0
315, 16599767, 4, 2047, 0, 0, 0, 255, 255, 255, 255, 10629, 1228, 10687, -983, 199, -220, 595, 0, 0, 0, 0, 0
316, 16653501, 4, 2047, 0, 0, 0, 255, 255, 255, 255, 9803, 1517, 11137, -2044, -1052, 192, 595, 0, 0, 0, 0, 0
317, 16703043, 4, 2047, 0, 0, 0, 255, 255, 255, 255, 8498, 2023, 11712, -3510, -1839, -320, 595, 0, 0, 0, 0, 0
318, 16753272, 4, 2047, 0, 0, 0, 255, 255, 255, 255, 6175, 2500, 11806, -4839, 1296, -637, 595, 0, 0, 0, 0, 0
319, 16802696, 4, 2047, 0, 0, 0, 255, 255, 255, 255, 3467, 1424, 10922, -3589, 1766, -240, 595, 0, 0, 0, 0, 0
320, 16852944, 4, 2047, 0, 0, 0, 255, 255, 255, 255, 1800, 1739, 11110, -2842, -1437, 459, 595, 0, 0, 0, 0, 0
321, 16902518, 4, 2047, 0, 0, 0, 255, 255, 255, 255, 326, 1330, 11217, -2005, 1968, 156, 595, 0, 0, 0, 0, 0
322, 16952749, 4, 2047, 0, 0, 0, 255, 255, 255, 255, -130, 1109, 11316, 1, -1257, 293, 595, 0, 0, 0, 0, 0
323, 17002358, 4, 2047, 0, 0, 0, 255, 255, 255, 255, -164, 1841, 11545, -313, -702, 358, 595, 0, 0, 0, 0, 0
324, 17052548, 4, 2047, 0, 0, 0, 255, 255, 255, 255, -281, 1775, 11579, -20, 303, -183, 595, 0, 0, 0, 0, 0
325, 17102149, 4, 2047, 0, 0, 0, 255, 255, 255, 255, -236, 1677, 11446, 122, -82, -145, 595, 0, 0, 0, 0, 0
326, 17152379, 4, 2047, 0, 0, 0, 255, 255, 255, 255, -191, 1871, 11475, -25, -421, 165, 595, 0, 0, 0, 0, 0
327, 17201956, 4, 2047, 0, 0, 0, 255, 255, 255, 255, -181, 1973, 11500, 16, -68, -101, 595, 0, 0, 0, 0, 0
328, 17252170, 4, 2047, 0, 0, 0, 255, 255, 255, 255, -175, 2006, 11446, -69, -96, -11, 595, 0, 0, 0, 0, 0
329, 17301786, 4, 2047, 0, 0, 0, 255, 255, 255, 255, -218, 2160, 11505, -173, -382, 143, 595, 0, 0, 0, 0, 0
330, 17352005, 4, 2047, 0, 0, 0, 255, 255, 255, 255, -348, 2397, 11581, -462, -80, 118, 595, 0, 0, 0, 0, 0
331, 17401574, 4, 2047, 0, 0, 0, 255, 255, 255, 255, -397, 2036, 11701, 451, 172, 279, 595, 0, 0, 0, 0, 0
332, 17451807, 4, 2047, 0, 0, 0, 255, 255, 255, 255, 162, 1653, 11836, 1462, 2467, 48, 595, 0, 0, 0, 0, 0
333, 17501394, 4, 2047, 0, 0, 0, 255, 255, 255, 255, 2011, 434, 11599, 5630, -597, -507, 595, 0, 0, 0, 0, 0
334, 17551724, 4, 2047, 0, 0, 0, 255, 255, 255, 255, 5475, 1052, 11250, 7575, -504, -1637, 595, 0, 0, 0, 0, 0
335, 17601316, 4, 2047, 0, 0, 0, 255, 255, 255, 255, 9598, 2190, 10884, 6508, -1244, -1437, 595, 0, 0, 0, 0, 0
336, 17651545, 4, 2047, 0, 0, 0, 255, 255, 255, 255, 12108, 2763, 11287, 919, -39, 398, 595, 0, 0, 0, 0, 0
337, 17701120, 4, 2047, 0, 0, 0, 255, 255, 255, 255, 11930, 2310, 10722, -736, 1804, -207, 595, 0, 0, 0, 0, 0
338, 17751351, 4, 2047, 0, 0, 0, 255, 255, 255, 255, 11362, 2175, 9947, -1125, 835, -351, 595, 0, 0, 0, 0, 0
339, 17800925, 4, 2047, 0, 0, 0, 255, 255, 255, 255, 10367, 2125, 9804, -2870, 688, 367, 595, 0, 0, 0, 0, 0
340, 17851124, 4, 2047, 0, 0, 0, 255, 255, 255, 255, 8474, 1554, 9503, -3322, 417, 418, 595, 0, 0, 0, 0, 0
341, 17900711, 4, 2047, 0, 0, 0, 255, 255, 255, 255, 6755, 1816, 10155, -3632, -1506, 902, 595, 0, 0, 0, 0, 0
342, 17950930, 4, 2047, 0, 0, 0, 255, 255, 255, 255, 4645, 1862, 10709, -3941, -40, 613, 595, 0, 0, 0, 0, 0
343, 18000357, 4, 2047, 0, 0, 0, 255, 255, 255, 255, 2634, 1853, 10945, -3428, -212, 22, 595, 0, 0, 0, 0, 0
344, 18050573, 4, 2047, 0, 0, 0, 255, 255, 255, 255, 738, 1358, 10645, -3008, 1748, -472, 595, 0, 0, 0, 0, 0
345, 18100353, 4, 2047, 0, 0, 0, 255, 255, 255, 255, -448, 626, 10675, -1000, -94, 381, 595, 0, 0, 0, 0, 0
346, 18150411, 4, 2047, 0, 0, 0, 255, 255, 255, 255, -608, 1305, 10893, -265, -1061, 490, 595, 0, 0, 0, 0, 0
347, 18199984, 4, 2047, 0, 0, 0, 255, 255, 255, 255, -663, 1010, 10953, 251, 1322, -309, 595, 0, 0, 0, 0, 0
348, 18250198, 4, 2047, 0, 0, 0, 255, 255, 255, 255, -152, 239, 10663, 1600, 1369, -744, 595, 0, 0, 0, 0, 0
349, 18299795, 4, 2047, 0, 0, 0, 255, 255, 255, 255, 1496, -540, 10019, 4700, 502, -1554, 595, 0, 0, 0, 0, 0
350, 18350131, 4, 2047, 0, 0, 0, 255, 255, 255, 255, 4505, -43, 9255, 5816, -747, -1297, 595, 0, 0, 0, 0, 0
351, 18399741, 4, 2047, 0, 0, 0, 255, 255, 255, 255, 7265, 529, 9336, 3973, -1280, 331, 595, 0, 0, 0, 0, 0
352, 18450057, 4, 2047, 0, 0, 0, 255, 255, 255, 255, 9080, 794, 9924, 1905, -401, 3, 595, 0, 0, 0, 0, 0
353, 18499739, 4, 2047, 0, 0, 0, 255, 255, 255, 255, 9790, 779, 9520, 374, 1075, -582, 595, 0, 0, 0, 0, 0
354, 18550056, 4, 2047, 0, 0, 0, 255, 255, 255, 255, 9871, 756, 9208, -254, -238, -18, 595, 0, 0, 0, 0, 0
355, 18599738, 4, 2047, 0, 0, 0, 255, 255, 255, 255, 9503, 722, 9276, -1051, 574, 31, 595, 0, 0, 0, 0, 0
356, 18650061, 4, 2047, 0, 0, 0, 255, 255, 255, 255, 9087, 491, 8873, -331, 462, -209, 595, 0, 0, 0, 0, 0
357, 18699737, 4, 2047, 0, 0, 0, 255, 255, 255, 255, 8904, 584, 9066, -779, -921, 425, 595, 0, 0, 0, 0, 0
358, 18750051, 4, 2047, 0, 0, 0, 255, 255, 255, 255, 8313, 490, 9284, -1113, 715, 96, 595, 0, 0, 0, 0, 0
359, 18799736, 4, 2047, 0, 0, 0, 255, 255, 255, 255, 7903, 486, 9194, -686, -938, 37, 595, 0, 0, 0, 0, 0
360, 18850051, 4, 2047, 0, 0, 0, 255, 255, 255, 255, 7277, 1043, 10023, -2155, -971, 427, 595, 0, 0, 0, 0, 0
361, 18899733, 4, 2047, 0, 0, 0, 255, 255, 255, 255, 6035, 721, 9654, -1788, 1440, -755, 595, 0, 0, 0, 0, 0
362, 18950050, 4, 2047, 0, 0, 0, 255, 255, 255, 255, 5269, 645, 9190, -1002, -135, -288, 595, 0, 0, 0, 0, 0
363, 18999733, 4, 2047, 0, 0, 0, 255, 255, 255, 255, 4704, 936, 9363, -1303, -797, 189, 595, 0, 0, 0, 0, 0
364, 19050048, 4, 2047, 0, 0, 0, 255, 255, 255, 255, 3883, 1044, 9444, -1673, 288, -139, 595, 0, 0, 0, 0, 0
365, 19099729, 4, 2047, 0, 0, 0, 255, 255, 255, 255, 3050, 1051, 9340, -1460, -567, -125, 595, 0, 0, 0, 0, 0
366, 19150044, 4, 2047, 0, 0, 0, 255, 255, 255, 255, 1964, 1233, 9339, -2417, 923, -183, 595, 0, 0, 0, 0, 0
367, 19199729, 4, 2047, 0, 0, 0, 255, 255, 255, 255, 940, 550, 9116, -991, 397, -139, 595, 0, 0, 0, 0, 0
368, 19250045, 4, 2047, 0, 0, 0, 255, 255, 255, 255, 551, 589, 9225, -595, 253, 305, 595, 0, 0, 0, 0, 0
369, 19299727, 4, 2047, 0, 0, 0, 255, 255, 255, 255, 473, 284, 9269, 224, 554, -36, 595, 0, 0, 0, 0, 0
370, 19350042, 4, 2047, 0, 0, 0, 255, 255, 255, 255, 761, -304, 9139, 737, 1338, -297, 595, 0, 0, 0, 0, 0
371, 19399724, 4, 2047, 0, 0, 0, 255, 255, 255, 255, 1302, -892, 8902, 1024, 602, -350, 595, 0, 0, 0, 0, 0
372, 19450042, 4, 2047, 0, 0, 0, 255, 255, 255, 255, 2000, -1164, 8585, 1288, 621, -714, 595, 0, 0, 0, 0, 0
373, 19499723, 4, 2047, 0, 0, 0, 255, 255, 255, 255, 2709, -1533, 7975, 928, 1224, -983, 595, 0, 0, 0, 0, 0
374, 19550038, 4, 2047, 0, 0, 0, 255, 255, 255, 255, 3365, -1676, 7365, 1201, -385, -945, 595, 0, 0, 0, 0, 0
375, 19599722, 4, 2047, 0, 0, 0, 255, 255, 255, 255, 4287, -1062, 6785, 1658, -787, -1777, 595, 0, 0, 0, 0, 0
376, 19650040, 4, 2047, 0, 0, 0, 255, 255, 255, 255, 5133, -391, 6042, 986, -452, -1761, 595, 0, 0, 0, 0, 0
377, 19699723, 4, 2047, 0, 0, 0, 255, 255, 255, 255, 5616, 375, 5007, 825, -886, -2872, 595, 0, 0, 0, 0, 0
378, 19750036, 4, 2047, 0, 0, 0, 255, 255, 255, 255, 5946, 1541, 3943, 434, 306, -2586, 595, 0, 0, 0, 0, 0
379, 19799720, 4, 2047, 0, 0, 0, 255, 255, 255, 255, 5794, 2050, 2671, 47, 33, -2189, 595, 0, 0, 0, 0, 0
380, 19850037, 4, 2047, 0, 0, 0, 255, 255, 255, 255, 5459, 2648, 1873, -694, 102, -917, 595, 0, 0, 0, 0, 0
381, 19899719, 4, 2047, 0, 0, 0, 255, 255, 255, 255, 5135, 2871, 1412, -134, -190, -1013, 595, 0, 0, 0, 0, 0
382, 19950032, 4, 2047, 0, 0, 0, 255, 255, 255, 255, 4934, 3122, 1020, -409, -274, -626, 595, 0, 0, 0, 0, 0
383, 19999716, 4, 2047, 0, 0, 0, 255, 255, 255, 255, 4555, 3600, 832, -693, -483, -538, 595, 0, 0, 0, 0, 0
384, 20050031, 4, 2047, 0, 0, 0, 255, 255, 255, 255, 4170, 3937, 960, -775, -162, 59, 595, 0, 0, 0, 0, 0
385, 20099714, 4, 2047, 0, 0, 0, 255, 255, 255, 255, 3896, 3766, 808, -54, 384, 97, 595, 0, 0, 0, 0, 0
386, 20150031, 4, 2047, 0, 0, 0, 255, 255, 255, 255, 3855, 3537, 758, -190, 270, -117, 595, 0, 0, 0, 0, 0
387, 20199715, 4, 2047, 0, 0, 0, 255, 255, 255, 255, 3685, 3558, 751, -407, -197, 24, 595, 0, 0, 0, 0, 0
388, 20250030, 4, 2047, 0, 0, 0, 255, 255, 255, 255, 3689, 3199, 503, 414, 315, -279, 595, 0, 0, 0, 0, 0
389, 20299712, 4, 2047, 0, 0, 0, 255, 255, 255, 255, 3809, 3221, 345, -112, -316, -161, 595, 0, 0, 0, 0, 0
390, 20350028, 4, 2047, 0, 0, 0, 255, 255, 255, 255, 3585, 3395, 536, -314, 169, 333, 595, 0, 0, 0, 0, 0
391, 20399712, 4, 2047, 0, 0, 0, 255, 255, 255, 255, 3894, 3277, 494, 533, 44, -234, 595, 0, 0, 0, 0, 0
392, 20450026, 4, 2047, 0, 0, 0, 255, 255, 255, 255, 3471, 2588, 340, -1237, 1451, 1038, 595, 0, 0, 0, 0, 0
393, 20499709, 4, 2047, 0, 0, 0, 255, 255, 255, 255, 3420, 2134, 845, 144, -856, 813, 595, 0, 0, 0, 0, 0
394, 20550034, 4, 2047, 0, 0, 0, 255, 255, 255, 255, 3426, 2054, 1082, -904, 1078, 82, 595, 0, 0, 0, 0, 0
395, 20599708, 4, 2047, 0, 0, 0, 255, 255, 255, 255, 2849, 1338, 1072, -548, 1039, 142, 595, 0, 0, 0, 0, 0
396, 20650022, 4, 2047, 0, 0, 0, 255, 255, 255, 255, 2480, 1171, 927, -968, 215, 210, 595, 0, 0, 0, 0, 0
397, 20699706, 4, 2047, 0, 0, 0, 255, 255, 255, 255, 1831, 693, 1633, -1467, 672, 1930, 595, 0, 0, 0, 0, 0
398, 20750021, 4, 2047, 0, 0, 0, 255, 255, 255, 255, 1303, 527, 2296, -424, -798, 814, 595, 0, 0, 0, 0, 0
399, 20799705, 4, 2047, 0, 0, 0, 255, 255, 255, 255, 987, 531, 2784, -1158, 720, 877, 595, 0, 0, 0, 0, 0
400, 20850019, 4, 2047, 0, 0, 0, 255, 255, 255, 255, 393, 166, 3116, -696, -308, 412, 595, 0, 0, 0, 0, 0
401, 20899705, 4, 2047, 0, 0, 0, 255, 255, 255, 255, 301, 693, 3327, -114, -1141, 372, 595, 0, 0, 0, 0, 0
402, 20950018, 4, 2047, 0, 0, 0, 255, 255, 255, 255, 89, 1084, 3535, -545, -399, 373, 595, 0, 0, 0, 0, 0
403, 20999702, 4, 2047, 0, 0, 0, 255, 255, 255, 255, -56, 1375, 3760, -158, -1195, 86, 595, 0, 0, 0, 0, 0
404, 21050016, 4, 2047, 0, 0, 0, 255, 255, 255, 255, -57, 2148, 3824, 8, -823, 236, 595, 0, 0, 0, 0, 0
405, 21099701, 4, 2047, 0, 0, 0, 255, 255, 255, 255, 121, 2190, 3824, 679, 71, -100, 595, 0, 0, 0, 0, 0
406, 21150015, 4, 2047, 0, 0, 0, 255, 255, 255, 255, 984, 2062, 3976, 2278, 678, 735, 595, 0, 0, 0, 0, 0
407, 21199697, 4, 2047, 0, 0, 0, 255, 255, 255, 255, 2676, 1311, 4403, 3327, 1148, 846, 595, 0, 0, 0, 0, 0
408, 21250013, 4, 2047, 0, 0, 0, 255, 255, 255, 255, 4800, 1165, 4614, 4583, -361, 233, 595, 0, 0, 0, 0, 0
409, 21299695, 4, 2047, 0, 0, 0, 255, 255, 255, 255, 7504, 934, 4659, 4827, 143, 383, 595, 0, 0, 0, 0, 0
410, 21350012, 4, 2047, 0, 0, 0, 255, 255, 255, 255, 9994, 656, 4431, 3966, 1258, -359, 595, 0, 0, 0, 0, 0
411, 21399696, 4, 2047, 0, 0, 0, 255, 255, 255, 255, 11795, 757, 3544, 2206, 909, -1199, 595, 0, 0, 0, 0, 0
412, 21450010, 4, 2047, 0, 0, 0, 255, 255, 255, 255, 12561, 922, 3351, 723, 40, 206, 595, 0, 0, 0, 0, 0
413, 21499694, 4, 2047, 0, 0, 0, 255, 255, 255, 255, 12931, 920, 3242, 443, 88, -280, 595, 0, 0, 0, 0, 0
414, 21550018, 4, 2047, 0, 0, 0, 255, 255, 255, 255, 12975, 921, 3177, -747, 144, 194, 595, 0, 0, 0, 0, 0
415, 21599691, 4, 2047, 0, 0, 0, 255, 255, 255, 255, 11962, 796, 3177, -3061, -20, 134, 595, 0, 0, 0, 0, 0
416, 21650019, 4, 2047, 0, 0, 0, 255, 255, 255, 255, 9907, 669, 3168, -4282, 525, 276, 595, 0, 0, 0, 0, 0
417, 21699691, 4, 2047, 0, 0, 0, 255, 255, 255, 255, 7582, 258, 3201, -4016, -56, 667, 595, 0, 0, 0, 0, 0
418, 21750012, 4, 2047, 0, 0, 0, 255, 255, 255, 255, 5749, -101, 3121, -2520, 1264, -123, 595, 0, 0, 0, 0, 0
419, 21802740, 4, 2047, 0, 0, 0, 255, 255, 255, 255, 4234, -633, 2773, -2183, 345, -80, 595, 0, 0, 0, 0, 0
420, 21852936, 4, 2047, 0, 0, 0, 255, 255, 255, 255, 3137, -347, 2977, -1435, -1040, 349, 595, 0, 0, 0, 0, 0
421, 21902546, 4, 2047, 0, 0, 0, 255, 255, 255, 255, 2327, -487, 2940, -1712, 654, -201, 595, 0, 0, 0, 0, 0
422, 21952749, 4, 2047, 0, 0, 0, 255, 255, 255, 255, 1417, -919, 2851, -1294, 1098, 179, 595, 0, 0, 0, 0, 0
423, 22002355, 4, 2047, 0, 0, 0, 255, 255, 255, 255, 815, -1409, 2817, -1032, 540, -100, 595, 0, 0, 0, 0, 0
424, 22052589, 4, 2047, 0, 0, 0, 255, 255, 255, 255, 280, -1529, 2870, -720, 40, 372, 595, 0, 0, 0, 0, 0
425, 22102162, 4, 2047, 0, 0, 0, 255, 255, 255, 255, 11, -1638, 3020, -491, 317, 101, 595, 0, 0, 0, 0, 0
426, 22152402, 4, 2047, 0, 0, 0, 255, 255, 255, 255, -79, -1731, 3022, 256, -14, -22, 595, 0, 0, 0, 0, 0
427, 22201976, 4, 2047, 0, 0, 0, 255, 255, 255, 255, 657, -1784, 2886, 2358, 212, -476, 595, 0, 0, 0, 0, 0
428, 22252195, 4, 2047, 0, 0, 0, 255, 255, 255, 255, 3034, -1750, 2603, 5909, -931, -622, 595, 0, 0, 0, 0, 0
429, 22301904, 4, 2047, 0, 0, 0, 255, 255, 255, 255, 6650, -686, 2997, 6673, -1771, 335, 595, 0, 0, 0, 0, 0
430, 22352155, 4, 2047, 0, 0, 0, 255, 255, 255, 255, 9490, -974, 3295, 3564, 644, 906, 595, 0, 0, 0, 0, 0
431, 22401735, 4, 2047, 0, 0, 0, 255, 255, 255, 255, 10815, -1283, 3240, 917, -39, -238, 595, 0, 0, 0, 0, 0
432, 22451961, 4, 2047, 0, 0, 0, 255, 255, 255, 255, 10698, -1084, 3314, -1768, -960, -218, 595, 0, 0, 0, 0, 0
433, 22501523, 4, 2047, 0, 0, 0, 255, 255, 255, 255, 8550, -284, 4283, -6064, -2787, 106, 595, 0, 0, 0, 0, 0
434, 22551880, 4, 2047, 0, 0, 0, 255, 255, 255, 255, 4652, 201, 4867, -6895, 361, -152, 595, 0, 0, 0, 0, 0
435, 22601348, 4, 2047, 0, 0, 0, 255, 255, 255, 255, 2106, -443, 4528, -2178, 1004, -24, 595, 0, 0, 0, 0, 0
436, 22651571, 4, 2047, 0, 0, 0, 255, 255, 255, 255, 930, -272, 5106, -2908, -1381, 1699, 595, 0, 0, 0, 0, 0
437, 22701170, 4, 2047, 0, 0, 0, 255, 255, 255, 255, -314, 361, 5660, -1407, -441, -95, 595, 0, 0, 0, 0, 0
438, 22751378, 4, 2047, 0, 0, 0, 255, 255, 255, 255, -1280, 465, 5395, -2013, 633, -282, 595, 0, 0, 0, 0, 0
439, 22800977, 4, 2047, 0, 0, 0, 255, 255, 255, 255, -2207, -66, 5403, -1031, 1027, -338, 595, 0, 0, 0, 0, 0
440, 22851206, 4, 2047, 0, 0, 0, 255, 255, 255, 255, -2445, -505, 5357, -163, 435, -216, 595, 0, 0, 0, 0, 0
441, 22900801, 4, 2047, 0, 0, 0, 255, 255, 255, 255, -2515, -671, 5301, -87, 380, -75, 595, 0, 0, 0, 0, 0
442, 22951036, 4, 2047, 0, 0, 0, 255, 255, 255, 255, -2125, -982, 5302, 1451, 718, -196, 595, 0, 0, 0, 0, 0
443, 23000610, 4, 2047, 0, 0, 0, 255, 255, 255, 255, -547, -1541, 5344, 4073, 1116, 188, 595, 0, 0, 0, 0, 0
444, 23050849, 4, 2047, 0, 0, 0, 255, 255, 255, 255, 2393, -1837, 5549, 6493, 1187, 196, 595, 0, 0, 0, 0, 0
445, 23100561, 4, 2047, 0, 0, 0, 255, 255, 255, 255, 5791, -2371, 5271, 5239, 240, -451, 595, 0, 0, 0, 0, 0
446, 23150784, 4, 2047, 0, 0, 0, 255, 255, 255, 255, 8541, -2305, 4364, 4386, 1007, -2025, 595, 0, 0, 0, 0, 0
447, 23200276, 4, 2047, 0, 0, 0, 255, 255, 255, 255, 10842, -1414, 3569, 2663, -337, -1786, 595, 0, 0, 0, 0, 0
448, 23250501, 4, 2047, 0, 0, 0, 255, 255, 255, 255, 11242, -870, 3594, -1123, -199, 4, 595, 0, 0, 0, 0, 0
449, 23300103, 4, 2047, 0, 0, 0, 255, 255, 255, 255, 10512, -880, 3753, -1512, -405, 351, 595, 0, 0, 0, 0, 0
450, 23350339, 4, 2047, 0, 0, 0, 255, 255, 255, 255, 9337, -921, 4262, -2833, -927, 671, 595, 0, 0, 0, 0, 0
451, 23400041, 4, 2047, 0, 0, 0, 255, 255, 255, 255, 7419, -899, 4852, -3978, -658, 708, 595, 0, 0, 0, 0, 0
452, 23450249, 4, 2047, 0, 0, 0, 255, 255, 255, 255, 4705, -668, 5392, -5740, -1129, 486, 595, 0, 0, 0, 0, 0
453, 23499721, 4, 2047, 0, 0, 0, 255, 255, 255, 255, 1533, -581, 5708, -4157, 939, -156, 595, 0, 0, 0, 0, 0
454, 23549987, 4, 2047, 0, 0, 0, 255, 255, 255, 255, 324, -1377, 5275, -1344, 1303, -331, 595, 0, 0, 0, 0, 0
455, 23599660, 4, 2047, 0, 0, 0, 255, 255, 255, 255, -602, -1571, 5384, -1965, 123, 203, 595, 0, 0, 0, 0, 0
456, 23649976, 4, 2047, 0, 0, 0, 255, 255, 255, 255, -1506, -1625, 5633, -1041, 417, 631, 595, 0, 0, 0, 0, 0
457, 23699661, 4, 2047, 0, 0, 0, 255, 255, 255, 255, -2122, -1902, 5951, -1107, 294, 242, 595, 0, 0, 0, 0, 0
458, 23749976, 4, 2047, 0, 0, 0, 255, 255, 255, 255, -2651, -2040, 6023, -710, 347, 35, 595, 0, 0, 0, 0, 0
459, 23799659, 4, 2047, 0, 0, 0, 255, 255, 255, 255, -2770, -2242, 6057, -60, 76, -41, 595, 0, 0, 0, 0, 0
460, 23849975, 4, 2047, 0, 0, 0, 255, 255, 255, 255, -2890, -2195, 6086, -228, -315, 203, 595, 0, 0, 0, 0, 0
461, 23899656, 4, 2047, 0, 0, 0, 255, 255, 255, 255, -2679, -2012, 6117, 801, 55, 10, 595, 0, 0, 0, 0, 0
462, 23949971, 4, 2047, 0, 0, 0, 255, 255, 255, 255, -1379, -2596, 6115, 4063, 1829, -369, 595, 0, 0, 0, 0, 0
463, 23999655, 4, 2047, 0, 0, 0, 255, 255, 255, 255, 2206, -3197, 6042, 8177, 282, 20, 595, 0, 0, 0, 0, 0
464, 24049970, 4, 2047, 0, 0, 0, 255, 255, 255, 255, 6254, -3232, 6215, 6048, 88, 274, 595, 0, 0, 0, 0, 0
465, 24099655, 4, 2047, 0, 0, 0, 255, 255, 255, 255, 8572, -3614, 5864, 1938, 674, -86, 595, 0, 0, 0, 0, 0
466, 24149969, 4, 2047, 0, 0, 0, 255, 255, 255, 255, 9114, -3729, 5570, -310, -78, -310, 595, 0, 0, 0, 0, 0
467, 24199651, 4, 2047, 0, 0, 0, 255, 255, 255, 255, 8796, -3613, 5559, -742, -146, 80, 595, 0, 0, 0, 0, 0
468, 24249967, 4, 2047, 0, 0, 0, 255, 255, 255, 255, 8176, -3472, 5801, -1696, -922, 67, 595, 0, 0, 0, 0, 0
469, 24299652, 4, 2047, 0, 0, 0, 255, 255, 255, 255, 6615, -2944, 6310, -3323, -1893, -128, 595, 0, 0, 0, 0, 0
470, 24349965, 4, 2047, 0, 0, 0, 255, 255, 255, 255, 4360, -2068, 6774, -4191, -1028, -15, 595, 0, 0, 0, 0, 0
471, 24399651, 4, 2047, 0, 0, 0, 255, 255, 255, 255, 2246, -1802, 6912, -3266, -528, 183, 595, 0, 0, 0, 0, 0
472, 24449963, 4, 2047, 0, 0, 0, 255, 255, 255, 255, 747, -1554, 7052, -2048, 286, -44, 595, 0, 0, 0, 0, 0
473, 24499650, 4, 2047, 0, 0, 0, 255, 255, 255, 255, -229, -2087, 7089, -1682, 919, 299, 595, 0, 0, 0, 0, 0
474, 24549971, 4, 2047, 0, 0, 0, 255, 255, 255, 255, -1092, -2286, 7268, -1331, -189, 266, 595, 0, 0, 0, 0, 0
475, 24599645, 4, 2047, 0, 0, 0, 255, 255, 255, 255, -1714, -2269, 7429, -915, 389, 259, 595, 0, 0, 0, 0, 0
476, 24649962, 4, 2047, 0, 0, 0, 255, 255, 255, 255, -2027, -2438, 7467, -321, -251, -143, 595, 0, 0, 0, 0, 0
477, 24699646, 4, 2047, 0, 0, 0, 255, 255, 255, 255, -2008, -2219, 7315, 166, -394, -101, 595, 0, 0, 0, 0, 0
478, 24749961, 4, 2047, 0, 0, 0, 255, 255, 255, 255, -1522, -1763, 7478, 1407, -1352, 1078, 595, 0, 0, 0, 0, 0
479, 24799644, 4, 2047, 0, 0, 0, 255, 255, 255, 255, -934, -594, 8610, 888, -2290, 3113, 595, 0, 0, 0, 0, 0
480, 24849960, 4, 2047, 0, 0, 0, 255, 255, 255, 255, -463, 1168, 10628, 771, -2331, 4316, 595, 0, 0, 0, 0, 0
481, 24899642, 4, 2047, 0, 0, 0, 255, 255, 255, 255, -216, 1472, 13159, -1046, 250, 4456, 595, 0, 0, 0, 0, 0
482, 24949956, 4, 2047, 0, 0, 0, 255, 255, 255, 255, -463, 651, 15505, -277, 2282, 3942, 595, 0, 0, 0, 0, 0
483, 24999641, 4, 2047, 0, 0, 0, 255, 255, 255, 255, -389, -631, 17388, 93, 2310, 2472, 595, 0, 0, 0, 0, 0
484, 25049956, 4, 2047, 0, 0, 0, 255, 255, 255, 255, -272, -1930, 18178, 571, 1422, 752, 595, 0, 0, 0, 0, 0
485, 25099638, 4, 2047, 0, 0, 0, 255, 255, 255, 255, -95, -2121, 18342, 208, -701, -236, 595, 0, 0, 0, 0, 0
486, 25149953, 4, 2047, 0, 0, 0, 255, 255, 255, 255, 29, -2083, 17879, -20, -68, -1370, 595, 0, 0, 0, 0, 0
487, 25199637, 4, 2047, 0, 0, 0, 255, 255, 255, 255, 289, -1893, 16692, 101, -800, -2615, 595, 0, 0, 0, 0, 0
488, 25249951, 4, 2047, 0, 0, 0, 255, 255, 255, 255, 401, -1699, 14861, -340, -380, -3991, 595, 0, 0, 0, 0, 0
489, 25299636, 4, 2047, 0, 0, 0, 255, 255, 255, 255, 598, -1511, 12195, -418, -612, -5122, 595, 0, 0, 0, 0, 0
490, 25349951, 4, 2047, 0, 0, 0, 255, 255, 255, 255, 410, -891, 9628, -590, -296, -3612, 595, 0, 0, 0, 0, 0
491, 25399634, 4, 2047, 0, 0, 0, 255, 255, 255, 255, 497, -93, 8743, 431, -1334, -370, 595, 0, 0, 0, 0, 0
492, 25449948, 4, 2047, 0, 0, 0, 255, 255, 255, 255, 578, 469, 8824, -408, 16, 461, 595, 0, 0, 0, 0, 0
493, 25499633, 4, 2047, 0, 0, 0, 255, 255, 255, 255, 470, 229, 9536, 12, 748, 2160, 595, 0, 0, 0, 0, 0
494, 25549948, 4, 2047, 0, 0, 0, 255, 255, 255, 255, 745, 111, 11415, 758, -3, 4214, 595, 0, 0, 0, 0, 0
495, 25599631, 4, 2047, 0, 0, 0, 255, 255, 255, 255, 1169, 149, 13659, 847, -936, 3420, 595, 0, 0, 0, 0, 0
496, 25649948, 4, 2047, 0, 0, 0, 255, 255, 255, 255, 1542, 358, 15311, 465, -641, 2572, 595, 0, 0, 0, 0, 0
497, 25699630, 4, 2047, 0, 0, 0, 255, 255, 255, 255, 1724, 310, 16182, 348, -827, 205, 595, 0, 0, 0, 0, 0
498, 25749946, 4, 2047, 0, 0, 0, 255, 255, 255, 255, 1769, 796, 15225, 22, -797, -3282, 595, 0, 0, 0, 0, 0
499, 25799628, 4, 2047, 0, 0, 0, 255, 255, 255, 255, 1517, 596, 13395, 88, 1555, -2891, 595, 0, 0, 0, 0, 0
500, 25849944, 4, 2047, 0, 0, 0, 255, 255, 255, 255, 1810, 540, 11980, 824, -37, -1721, 595, 0, 0, 0, 0, 0
501, 25899626, 4, 2047, 0, 0, 0, 255, 255, 255, 255, 2145, 1058, 11931, -83, -173, 1125, 595, 0, 0, 0, 0, 0
502, 25949944, 4, 2047, 0, 0, 0, 255, 255, 255, 255, 1961, 1004, 13358, -1171, 297, 3586, 595, 0, 0, 0, 0, 0
503, 25999625, 4, 2047, 0, 0, 0, 255, 255, 255, 255, 1488, 465, 15375, -608, -8, 3520, 595, 0, 0, 0, 0, 0
504, 26049940, 4, 2047, 0, 0, 0, 255, 255, 255, 255, 1265, 257, 16684, -166, -449, 946, 595, 0, 0, 0, 0, 0
505, 26099622, 4, 2047, 0, 0, 0, 255, 255, 255, 255, 1178, 169, 16278, 40, -421, -1832, 595, 0, 0, 0, 0, 0
506, 26149939, 4, 2047, 0, 0, 0, 255, 255, 255, 255, 1040, 73, 14913, -160, 1229, -2691, 595, 0, 0, 0, 0, 0
507, 26199624, 4, 2047, 0, 0, 0, 255, 255, 255, 255, 1138, -278, 13527, 384, 167, -1739, 595, 0, 0, 0, 0, 0
508, 26249937, 4, 2047, 0, 0, 0, 255, 255, 255, 255, 1461, 243, 13468, 123, -43, 1359, 595, 0, 0, 0, 0, 0
509, 26299620, 4, 2047, 0, 0, 0, 255, 255, 255, 255, 1540, 200, 15188, 67, 156, 4088, 595, 0, 0, 0, 0, 0
510, 26349936, 4, 2047, 0, 0, 0, 255, 255, 255, 255, 1608, -90, 17186, 333, -692, 2885, 595, 0, 0, 0, 0, 0
511, 26399620, 4, 2047, 0, 0, 0, 255, 255, 255, 255, 1737, -87, 18165, 387, -635, 292, 595, 0, 0, 0, 0, 0
512, 26449936, 4, 2047, 0, 0, 0, 255, 255, 255, 255, 1709, -216, 17420, -308, 41, -2462, 595, 0, 0, 0, 0, 0
513, 26499616, 4, 2047, 0, 0, 0, 255, 255, 255, 255, 1265, -588, 15562, -1010, 1264, -3700, 595, 0, 0, 0, 0, 0
514, 26549932, 4, 2047, 0, 0, 0, 255, 255, 255, 255, 1186, -535, 13844, 276, -9, -1903, 595, 0, 0, 0, 0, 0
515, 26599617, 4, 2047, 0, 0, 0, 255, 255, 255, 255, 1632, 115, 14411, 543, -331, 3761, 595, 0, 0, 0, 0, 0
516, 26649932, 4, 2047, 0, 0, 0, 255, 255, 255, 255, 2052, 225, 17394, 729, -1107, 5408, 595, 0, 0, 0, 0, 0
517, 26699615, 4, 2047, 0, 0, 0, 255, 255, 255, 255, 2142, -146, 19680, 303, -848, 2952, 595, 0, 0, 0, 0, 0
518, 26749931, 4, 2047, 0, 0, 0, 255, 255, 255, 255, 2218, -162, 20415, 335, -412, -641, 595, 0, 0, 0, 0, 0
519, 26799614, 4, 2047, 0, 0, 0, 255, 255, 255, 255, 2098, -238, 19248, -268, -7, -3062, 595, 0, 0, 0, 0, 0
520, 26849929, 4, 2047, 0, 0, 0, 255, 255, 255, 255, 1554, -573, 16889, -1475, 2057, -4668, 595, 0, 0, 0, 0, 0
521, 26899612, 4, 2047, 0, 0, 0, 255, 255, 255, 255, 1181, -784, 14765, -386, 348, -2194, 595, 0, 0, 0, 0, 0
522, 26949927, 4, 2047, 0, 0, 0, 255, 255, 255, 255, 1342, -160, 15322, 495, -365, 3837, 595, 0, 0, 0, 0, 0
523, 26999610, 4, 2047, 0, 0, 0, 255, 255, 255, 255, 1819, -118, 18196, 1190, -295, 5033, 595, 0, 0, 0, 0, 0
524, 27049924, 4, 2047, 0, 0, 0, 255, 255, 255, 255, 2390, -571, 20123, 1730, -1575, 1913, 595, 0, 0, 0, 0, 0
525, 27099608, 4, 2047, 0, 0, 0, 255, 255, 255, 255, 3171, -37, 20228, 1310, -1284, -1921, 595, 0, 0, 0, 0, 0
526, 27149928, 4, 2047, 0, 0, 0, 255, 255, 255, 255, 3342, 268, 18453, -72, 1252, -4448, 595, 0, 0, 0, 0, 0
527, 27199606, 4, 2047, 0, 0, 0, 255, 255, 255, 255, 2841, 57, 15369, -1223, 2053, -5054, 595, 0, 0, 0, 0, 0
528, 27249927, 4, 2047, 0, 0, 0, 255, 255, 255, 255, 1934, 231, 13683, -2077, 1155, -620, 595, 0, 0, 0, 0, 0
529, 27302814, 4, 2047, 0, 0, 0, 255, 255, 255, 255, 1218, -466, 14087, 92, 566, 1233, 595, 0, 0, 0, 0, 0
530, 27353181, 4, 2047, 0, 0, 0, 255, 255, 255, 255, 1484, -918, 14913, 660, 1131, 1633, 595, 0, 0, 0, 0, 0
531, 27402613, 4, 2047, 0, 0, 0, 255, 255, 255, 255, 1815, -1891, 15319, 613, 1477, 460, 595, 0, 0, 0, 0, 0
532, 27452858, 4, 2047, 0, 0, 0, 255, 255, 255, 255, 2008, -2729, 15196, 58, 1336, -136, 595, 0, 0, 0, 0, 0
533, 27502441, 4, 2047, 0, 0, 0, 255, 255, 255, 255, 2096, -3719, 15003, -41, 1910, 110, 595, 0, 0, 0, 0, 0
534, 27552685, 4, 2047, 0, 0, 0, 255, 255, 255, 255, 2262, -4337, 14833, 352, 693, -69, 595, 0, 0, 0, 0, 0
535, 27602279, 4, 2047, 0, 0, 0, 255, 255, 255, 255, 2456, -4877, 14746, 97, 1212, 179, 595, 0, 0, 0, 0, 0
536, 27652827, 4, 2047, 0, 0, 0, 255, 255, 255, 255, 2665, -5945, 14466, 156, 3105, -75, 595, 0, 0, 0, 0, 0
537, 27702418, 4, 2047, 0, 0, 0, 255, 255, 255, 255, 3203, -7794, 13675, -161, 2550, -225, 595, 0, 0, 0, 0, 0
538, 27752634, 4, 2047, 0, 0, 0, 255, 255, 255, 255, 3718, -8857, 13074, 249, 2171, 33, 595, 0, 0, 0, 0, 0
539, 27802422, 4, 2047, 0, 0, 0, 255, 255, 255, 255, 4598, -10329, 11951, -264, 3363, -9, 595, 0, 0, 0, 0, 0
540, 27852655, 4, 2047, 0, 0, 0, 255, 255, 255, 255, 5647, -11838, 10626, -120, 2033, 226, 595, 0, 0, 0, 0, 0
541, 27902222, 4, 2047, 0, 0, 0, 255, 255, 255, 255, 7068, -12736, 9073, -414, 2598, 405, 595, 0, 0, 0, 0, 0
542, 27952444, 4, 2047, 0, 0, 0, 255, 255, 255, 255, 7992, -13658, 7760, -66, 107, 490, 595, 0, 0, 0, 0, 0
543, 28002064, 4, 2047, 0, 0, 0, 255, 255, 255, 255, 5001, -12523, 11163, 370, -4168, 422, 595, 0, 0, 0, 0, 0
544, 28052127, 4, 2047, 0, 0, 0, 255, 255, 255, 255, 2427, -10347, 13771, -1023, -5744, 588, 595, 0, 0, 0, 0, 0
545, 28101692, 4, 2047, 0, 0, 0, 255, 255, 255, 255, 934, -6065, 14956, -629, -9235, 101, 595, 0, 0, 0, 0, 0
546, 28151577, 4, 2047, 0, 0, 0, 255, 255, 255, 255, 859, -1627, 15635, 620, -6079, 755, 595, 0, 0, 0, 0, 0
547, 28201188, 4, 2047, 0, 0, 0, 255, 255, 255, 255, 1008, 322, 15852, -338, -2774, -588, 595, 0, 0, 0, 0, 0
548, 28251399, 4, 2047, 0, 0, 0, 255, 255, 255, 255, 825, 2465, 15813, -295, -4320, -82, 595, 0, 0, 0, 0, 0
549, 28301005, 4, 2047, 0, 0, 0, 255, 255, 255, 255, 758, 4558, 16084, -218, -3470, 392, 595, 0, 0, 0, 0, 0
550, 28351570, 4, 2047, 0, 0, 0, 255, 255, 255, 255, 1141, 6505, 16535, 521, -3331, 164, 595, 0, 0, 0, 0, 0
551, 28401155, 4, 2047, 0, 0, 0, 255, 255, 255, 255, 1670, 8141, 16950, 292, -2460, 312, 595, 0, 0, 0, 0, 0
552, 28451554, 4, 2047, 0, 0, 0, 255, 255, 255, 255, 2195, 9027, 17464, 208, -760, 135, 595, 0, 0, 0, 0, 0
553, 28500968, 4, 2047, 0, 0, 0, 255, 255, 255, 255, 2186, 8453, 17250, 187, 3272, -313, 595, 0, 0, 0, 0, 0
554, 28551169, 4, 2047, 0, 0, 0, 255, 255, 255, 255, 1562, 5642, 16299, -398, 6470, -429, 595, 0, 0, 0, 0, 0
555, 28600413, 4, 2047, 0, 0, 0, 255, 255, 255, 255, 1230, 1550, 15609, 187, 8534, -79, 595, 0, 0, 0, 0, 0
556, 28650700, 4, 2047, 0, 0, 0, 255, 255, 255, 255, 1829, -5394, 14590, 518, 16969, 36, 595, 0, 0, 0, 0, 0
557, 28700579, 4, 2047, 0, 0, 0, 255, 255, 255, 255, 2634, -11381, 12616, -1109, 3870, -235, 595, 0, 0, 0, 0, 0
558, 28750799, 4, 2047, 0, 0, 0, 255, 255, 255, 255, 2832, -10826, 12831, 1362, -3274, 151, 595, 0, 0, 0, 0, 0
559, 28800400, 4, 2047, 0, 0, 0, 255, 255, 255, 255, 2501, -9267, 13782, 21, -3342, 214, 595, 0, 0, 0, 0, 0
560, 28850298, 4, 2047, 0, 0, 0, 255, 255, 255, 255, 1190, -4805, 15007, -1995, -15332, 557, 595, 0, 0, 0, 0, 0
561, 28899913, 4, 2047, 0, 0, 0, 255, 255, 255, 255, 852, 3831, 17055, 1087, -10004, 3788, 595, 0, 0, 0, 0, 0
562, 28950463, 4, 2047, 0, 0, 0, 255, 255, 255, 255, 2526, 7070, 19011, 1140, -3935, 286, 595, 0, 0, 0, 0, 0
563, 29000050, 4, 2047, 0, 0, 0, 255, 255, 255, 255, 2525, 7698, 18470, 24, 1736, -1492, 595, 0, 0, 0, 0, 0
564, 29050273, 4, 2047, 0, 0, 0, 255, 255, 255, 255, 1486, 5659, 17059, -642, 5399, -1050, 595, 0, 0, 0, 0, 0
565, 29099577, 4, 2047, 0, 0, 0, 255, 255, 255, 255, 1244, 560, 16073, 630, 13128, -626, 595, 0, 0, 0, 0, 0
566, 29150077, 4, 2047, 0, 0, 0, 255, 255, 255, 255, 2321, -8393, 13813, -1549, 13143, -789, 595, 0, 0, 0, 0, 0
567, 29199656, 4, 2047, 0, 0, 0, 255, 255, 255, 255, 2625, -10503, 12526, 191, -966, -200, 595, 0, 0, 0, 0, 0
568, 29249891, 4, 2047, 0, 0, 0, 255, 255, 255, 255, 1959, -7875, 13810, 175, -7075, 649, 595, 0, 0, 0, 0, 0
569, 29299574, 4, 2047, 0, 0, 0, 255, 255, 255, 255, 1190, -4101, 14893, -701, -6665, 534, 595, 0, 0, 0, 0, 0
570, 29349890, 4, 2047, 0, 0, 0, 255, 255, 255, 255, 872, -2192, 15273, -407, -203, 21, 595, 0, 0, 0, 0, 0
571, 29399574, 4, 2047, 0, 0, 0, 255, 255, 255, 255, 357, -3609, 14939, -1748, 3521, -650, 595, 0, 0, 0, 0, 0
572, 29449897, 4, 2047, 0, 0, 0, 255, 255, 255, 255, -731, -5064, 14551, -2442, 1648, -498, 595, 0, 0, 0, 0, 0
573, 29499572, 4, 2047, 0, 0, 0, 255, 255, 255, 255, -1798, -5382, 14650, -1408, -670, 670, 595, 0, 0, 0, 0, 0
574, 29549887, 4, 2047, 0, 0, 0, 255, 255, 255, 255, -3091, -4573, 15162, -2683, -633, 1207, 595, 0, 0, 0, 0, 0
575, 29599570, 4, 2047, 0, 0, 0, 255, 255, 255, 255, -4490, -4077, 15360, -1977, -1256, 313, 595, 0, 0, 0, 0, 0
576, 29649885, 4, 2047, 0, 0, 0, 255, 255, 255, 255, -5670, -3997, 15560, -1695, 943, 375, 595, 0, 0, 0, 0, 0
577, 29699567, 4, 2047, 0, 0, 0, 255, 255, 255, 255, -5786, -4205, 15738, 1102, -223, -97, 595, 0, 0, 0, 0, 0
