index_log, time_stamp, mode, thrust, roll, pitch, yaw, ae[0], ae[1], ae[2], ae[3], phi, theta, psi, sp, sq, sr, esp, esq, esr, sax, say, saz, bat_volt, P, P1, P2, temperature, pressure
0, 318565852, 5, 3210, 0, 0, 0, 401, 401, 401, 401, -367, -6870, 1786, -42, -157, -125, -33, -201, 7, 22253, -15890, 19096, 1169, 0, 0, 0, 0, 0
1, 318569738, 5, 3210, 0, 0, 0, 401, 401, 401, 401, -385, -7074, 1786, -100, 81, 77, -92, 39, 12, 32401, -2202, 28028, 1169, 0, 0, 0, 0, 0
2, 318573642, 5, 3210, 0, 0, 0, 401, 401, 401, 401, -403, -7060, 1786, 187, -52, 73, 195, -96, 5, -4743, -1750, 5292, 1169, 0, 0, 0, 0, 0
3, 318577557, 5, 3210, 0, 0, 0, 401, 401, 401, 401, -288, -6826, 1786, -107, -77, 105, -99, -121, 15, 23513, 14902, 5124, 1169, 0, 0, 0, 0, 0
4, 318581472, 5, 3210, 0, 0, 0, 401, 401, 401, 401, -345, -6672, 1786, -26, -168, -114, -17, -210, 18, 12037, -7506, 24300, 1169, 0, 0, 0, 0, 0
5, 318585402, 5, 3210, 0, 0, 0, 401, 401, 401, 401, -381, -6855, 1786, -69, 181, 91, -61, 140, 22, -30959, -4574, 18668, 1169, 0, 0, 0, 0, 0
6, 318589299, 5, 3210, 0, 0, 0, 401, 401, 401, 401, -386, -6820, 1786, 188, -50, 44, 196, -92, 16, -1875, -54, 4352, 1169, 0, 0, 0, 0, 0
7, 318593251, 5, 3210, 0, 0, 0, 401, 401, 401, 401, -274, -6613, 1786, -125, -115, 88, -117, -157, 23, 20645, 14566, 17988, 1169, 0, 0, 0, 0, 0
8, 318597121, 5, 3210, 0, 0, 0, 401, 401, 401, 401, -409, -6429, 1786, -24, -130, -134, -15, -170, 24, 17821, -17558, 17304, 1176, 0, 0, 0, 0, 0
9, 318601035, 5, 3210, 0, 0, 0, 401, 401, 401, 401, -406, -6645, 1786, -58, 243, 106, -50, 204, 27, 32401, 366, 32460, 1176, 0, 0, 0, 0, 0
10, 318604948, 5, 3210, 0, 0, 0, 401, 401, 401, 401, -402, -6664, 1786, 179, -94, 1, 187, -134, 20, -8423, 1094, 6552, 1176, 0, 0, 0, 0, 0
11, 318608860, 5, 3210, 0, 0, 0, 401, 401, 401, 401, -280, -6916, 1786, -129, -55, 87, -121, -95, 24, 27209, 15790, 8404, 1176, 0, 0, 0, 0, 0
12, 318612781, 5, 3210, 0, 0, 0, 401, 401, 401, 401, -335, -6805, 1786, -17, -13, -136, -8, -55, 24, 7545, -7298, 22788, 1176, 0, 0, 0, 0, 0
13, 318616690, 5, 3210, 0, 0, 0, 401, 401, 401, 401, -348, -6962, 1786, -44, 203, 121, -36, 162, 28, -27803, -1766, 18324, 1176, 0, 0, 0, 0, 0
14, 318620593, 5, 3210, 0, 0, 0, 401, 401, 401, 401, -335, -6939, 1786, 177, -54, -82, 185, -97, 17, -3387, 2326, 6672, 1176, 0, 0, 0, 0, 0
15, 318624557, 5, 3210, 0, 0, 0, 401, 401, 401, 401, -187, -6735, 1786, -136, 43, 95, -127, 0, 18, 19085, 19274, 20984, 1176, 0, 0, 0, 0, 0
16, 318628474, 5, 3210, 0, 0, 0, 401, 401, 401, 401, -316, -6560, 1786, 0, 32, -111, 10, -9, 19, 15781, -16734, 16808, 1176, 0, 0, 0, 0, 0
17, 318632325, 5, 3210, 0, 0, 0, 401, 401, 401, 401, -287, -6766, 1786, -32, 72, 105, -23, 32, 21, 32401, 3574, 30008, 1176, 0, 0, 0, 0, 0
18, 318636240, 5, 3210, 0, 0, 0, 401, 401, 401, 401, -232, -6822, 1786, 163, 79, -59, 172, 38, 12, -14187, 5838, 13900, 1176, 0, 0, 0, 0, 0
19, 318640164, 5, 3210, 0, 0, 0, 401, 401, 401, 401, -81, -7049, 1786, -115, 94, 119, -106, 52, 13, 29357, 19626, 10956, 1176, 0, 0, 0, 0, 0
20, 318644079, 5, 3210, 0, 0, 0, 401, 401, 401, 401, -172, -6947, 1786, 24, -29, -74, 35, -72, 16, 6409, -11930, 18240, 1176, 0, 0, 0, 0, 0
21, 318648012, 5, 3210, 0, 0, 0, 401, 401, 401, 401, -169, -7094, 1786, -7, 23, 118, 3, -20, 18, -25627, 162, 16588, 1176, 0, 0, 0, 0, 0
22, 318651901, 5, 3210, 0, 0, 0, 401, 401, 401, 401, -114, -7071, 1786, 167, 240, -131, 177, 196, 7, -3183, 5954, 9252, 1176, 0, 0, 0, 0, 0
23, 318655845, 5, 3210, 0, 0, 0, 401, 401, 401, 401, 33, -6895, 1786, -97, 47, 92, -87, 3, 7, 15469, 19178, 24372, 1176, 0, 0, 0, 0, 0
24, 318659719, 5, 3210, 0, 0, 0, 401, 401, 401, 401, -90, -6713, 1786, 25, -121, -17, 36, -163, 14, 17221, -15938, 14576, 1176, 0, 0, 0, 0, 0
25, 318663624, 5, 3210, 0, 0, 0, 401, 401, 401, 401, -48, -6917, 1786, 12, 94, 188, 22, 53, 19, 32401, 5142, 20736, 1176, 0, 0, 0, 0, 0
26, 318667539, 5, 3210, 0, 0, 0, 401, 401, 401, 401, 19, -6989, 1786, 143, 255, -131, 154, 213, 11, -15179, 7654, 18144, 1176, 0, 0, 0, 0, 0
27, 318671486, 5, 3210, 0, 0, 0, 401, 401, 401, 401, 158, -7218, 1786, -73, -11, 50, -62, -54, 9, 29509, 18254, 13440, 1176, 0, 0, 0, 0, 0
28, 318675367, 5, 3210, 0, 0, 0, 401, 401, 401, 401, 27, -7130, 1786, 23, -133, -5, 35, -178, 17, 4977, -16806, 14164, 1176, 0, 0, 0, 0, 0
29, 318679272, 5, 3210, 0, 0, 0, 401, 401, 401, 401, 45, -7250, 1786, 16, 138, 166, 27, 94, 20, -22987, 2162, 10420, 1176, 0, 0, 0, 0, 0
30, 318683187, 5, 3210, 0, 0, 0, 401, 401, 401, 401, 99, -7183, 1786, 113, 158, -164, 124, 113, 15, 701, 6282, 14476, 1176, 0, 0, 0, 0, 0
31, 318687149, 5, 3210, 0, 0, 0, 401, 401, 401, 401, 208, -7054, 1786, -62, -4, 10, -50, -48, 9, 9581, 14270, 22640, 1176, 0, 0, 0, 0, 0
32, 318691014, 5, 3210, 0, 0, 0, 401, 401, 401, 401, 76, -6864, 1786, 3, -67, 40, 16, -110, 19, 17805, -16810, 14316, 1176, 0, 0, 0, 0, 0
33, 318694926, 5, 3210, 0, 0, 0, 401, 401, 401, 401, 113, -7069, 1786, 8, 57, 203, 20, 15, 25, 32401, 4794, 9252, 1176, 0, 0, 0, 0, 0
34, 318698840, 5, 3210, 0, 0, 0, 401, 401, 401, 401, 171, -7116, 1786, 86, 69, -190, 98, 26, 17, -13207, 6898, 12136, 1169, 0, 0, 0, 0, 0
35, 318702753, 5, 3210, 0, 0, 0, 401, 401, 401, 401, 280, -6875, 1786, -61, 40, -37, -49, -4, 7, 23797, 14494, 21232, 1169, 0, 0, 0, 0, 0
36, 318706661, 5, 3210, 0, 0, 0, 401, 401, 401, 401, 117, -6810, 1786, -23, -12, 50, -10, -54, 15, 1685, -20594, 11120, 1169, 0, 0, 0, 0, 0
37, 318710574, 5, 3210, 0, 0, 0, 401, 401, 401, 401, 136, -6896, 1786, -9, -49, 230, 3, -90, 22, -17271, 2578, 780, 1169, 0, 0, 0, 0, 0
38, 318714495, 5, 3210, 0, 0, 0, 401, 401, 401, 401, 185, -6778, 1786, 69, 63, -176, 81, 21, 19, 7981, 5890, 18840, 1169, 0, 0, 0, 0, 0
39, 318718447, 5, 3210, 0, 0, 0, 401, 401, 401, 401, 246, -6696, 1786, -69, 95, -96, -57, 54, 7, 3517, 8270, 21188, 1169, 0, 0, 0, 0, 0
40, 318722313, 5, 3210, 0, 0, 0, 401, 401, 401, 401, 96, -6520, 1786, -61, -75, 104, -48, -115, 15, 16461, -18618, 17864, 1169, 0, 0, 0, 0, 0
41, 318726227, 5, 3210, 0, 0, 0, 401, 401, 401, 401, 123, -6709, 1786, -20, -93, 301, -8, -132, 22, -30011, 3562, 3580, 1169, 0, 0, 0, 0, 0
42, 318730132, 5, 3210, 0, 0, 0, 401, 401, 401, 401, 166, -6714, 1786, 61, 111, -167, 73, 71, 19, -7763, 5230, 5096, 1169, 0, 0, 0, 0, 0
43, 318734080, 5, 3210, 0, 0, 0, 401, 401, 401, 401, 238, -6531, 1786, -74, 83, -134, -62, 42, 8, 16521, 9770, 23664, 1169, 0, 0, 0, 0, 0
44, 318737968, 5, 3210, 0, 0, 0, 401, 401, 401, 401, 71, -6500, 1786, -84, -151, 157, -71, -190, 18, -3539, -20782, 12640, 1169, 0, 0, 0, 0, 0
45, 318741879, 5, 3210, 0, 0, 0, 401, 401, 401, 401, 92, -6535, 1786, -17, -14, 328, -5, -53, 28, -10735, 2826, -5652, 1169, 0, 0, 0, 0, 0
46, 318746146, 5, 3210, 0, 0, 0, 401, 401, 401, 401, 137, -6339, 1786, 46, 70, -76, 58, 31, 34, 18405, 5430, 19184, 1169, 0, 0, 0, 0, 0
47, 318749737, 5, 3210, 0, 0, 0, 401, 401, 401, 401, 147, -6298, 1786, -95, 62, -155, -83, 24, 23, -1227, 1886, 21180, 1169, 0, 0, 0, 0, 0
48, 318753610, 5, 3210, 0, 0, 0, 401, 401, 401, 401, 17, -6149, 1786, -98, -94, 184, -86, -131, 32, 13413, -16038, 18076, 1169, 0, 0, 0, 0, 0
49, 318757520, 5, 3210, 0, 0, 0, 401, 401, 401, 401, 33, -6293, 1786, -9, 52, 366, 2, 16, 43, -24623, 2098, 2592, 1169, 0, 0, 0, 0, 0
50, 318761435, 5, 3210, 0, 0, 0, 401, 401, 401, 401, 55, -6227, 1786, 48, -86, -65, 59, -123, 50, 2829, 2538, -1472, 1169, 0, 0, 0, 0, 0
51, 318765346, 5, 3210, 0, 0, 0, 401, 401, 401, 401, 74, -6094, 1786, -92, 85, -212, -81, 48, 39, 10545, 2962, 25644, 1169, 0, 0, 0, 0, 0
52, 318769269, 5, 3210, 0, 0, 0, 401, 401, 401, 401, -36, -6153, 1786, -100, 23, 170, -88, -13, 47, -13619, -13602, 14376, 1169, 0, 0, 0, 0, 0
53, 318773175, 5, 3210, 0, 0, 0, 401, 401, 401, 401, 2, -6144, 1786, 12, -52, 413, 23, -88, 58, -4515, 4774, -11788, 1169, 0, 0, 0, 0, 0
54, 318777141, 5, 3210, 0, 0, 0, 401, 401, 401, 401, 37, -6348, 1786, 37, -178, -48, 48, -214, 66, 32400, 4142, 16884, 1169, 0, 0, 0, 0, 0
55, 318781044, 5, 3210, 0, 0, 0, 401, 401, 401, 401, 15, -6332, 1786, -84, 140, -362, -73, 102, 50, -4823, -2322, 25064, 1169, 0, 0, 0, 0, 0
56, 318784907, 5, 3210, 0, 0, 0, 401, 401, 401, 401, -67, -6254, 1786, -108, 76, 140, -97, 38, 52, 3489, -10006, 21788, 1169, 0, 0, 0, 0, 0
57, 318788820, 5, 3210, 0, 0, 0, 401, 401, 401, 401, -48, -6320, 1786, 28, -175, 464, 39, -212, 62, -15643, 2122, 1780, 1169, 0, 0, 0, 0, 0
58, 318792734, 5, 3210, 0, 0, 0, 401, 401, 401, 401, -35, -6134, 1786, 50, -151, -31, 61, -189, 71, 16473, 1358, -1720, 1169, 0, 0, 0, 0, 0
59, 318796653, 5, 3210, 0, 0, 0, 401, 401, 401, 401, -57, -6064, 1786, -72, 197, -409, -61, 161, 54, 2025, -2570, 26200, 1183, 0, 0, 0, 0, 0
60, 318800557, 5, 3210, 0, 0, 0, 401, 401, 401, 401, -99, -6223, 1786, -108, 2, 96, -97, -34, 50, -26231, -4826, 20580, 1183, 0, 0, 0, 0, 0
61, 318804469, 5, 3210, 0, 0, 0, 401, 401, 401, 401, -44, -6180, 1786, 36, -173, 425, 46, -210, 56, -1651, 6702, -8904, 1183, 0, 0, 0, 0, 0
62, 318808384, 5, 3210, 0, 0, 0, 401, 401, 401, 401, -13, -6397, 1786, 44, -112, -2, 55, -149, 60, 32400, 3610, 9840, 1183, 0, 0, 0, 0, 0
63, 318812339, 5, 3210, 0, 0, 0, 401, 401, 401, 401, -51, -6392, 1786, -81, 173, -465, -70, 135, 41, -6527, -4550, 30240, 1183, 0, 0, 0, 0, 0
64, 318816204, 5, 3210, 0, 0, 0, 401, 401, 401, 401, -70, -6412, 1786, -100, -81, 49, -89, -119, 33, -8239, -1942, 21936, 1183, 0, 0, 0, 0, 0
65, 318820117, 5, 3210, 0, 0, 0, 401, 401, 401, 401, -47, -6457, 1786, 47, -44, 468, 58, -82, 39, -11707, 2458, 5048, 1183, 0, 0, 0, 0, 0
66, 318824034, 5, 3210, 0, 0, 0, 401, 401, 401, 401, -47, -6666, 1786, 9, -152, 40, 20, -191, 46, 31229, -90, 1852, 1183, 0, 0, 0, 0, 0
67, 318827944, 5, 3210, 0, 0, 0, 401, 401, 401, 401, -81, -6648, 1786, -97, 124, -501, -86, 84, 27, -4747, -3978, 20460, 1183, 0, 0, 0, 0, 0
68, 318831850, 5, 3210, 0, 0, 0, 401, 401, 401, 401, -90, -6858, 1786, -94, -47, -14, -83, -87, 16, 32401, -750, 24312, 1183, 0, 0, 0, 0, 0
69, 318835774, 5, 3210, 0, 0, 0, 401, 401, 401, 401, -19, -6837, 1786, 32, 45, 469, 42, 3, 19, -4155, 8806, -1196, 1183, 0, 0, 0, 0, 0
70, 318839705, 5, 3210, 0, 0, 0, 401, 401, 401, 401, 37, -7041, 1786, -30, -283, 116, -19, -325, 30, 32400, 7170, 9896, 1183, 0, 0, 0, 0, 0
71, 318843638, 5, 3210, 0, 0, 0, 401, 401, 401, 401, -21, -7044, 1786, -118, 101, -523, -107, 58, 20, -7759, -6790, 29040, 1183, 0, 0, 0, 0, 0
72, 318847533, 5, 3210, 0, 0, 0, 401, 401, 401, 401, 7, -7161, 1786, -84, 38, -33, -73, -5, 9, -22071, 3938, 22340, 1169, 0, 0, 0, 0, 0
73, 318851418, 5, 3210, 0, 0, 0, 401, 401, 401, 401, 47, -7202, 1786, 13, 15, 494, 24, -29, 11, -12151, 5086, 9552, 1169, 0, 0, 0, 0, 0
74, 318855329, 5, 3210, 0, 0, 0, 401, 401, 401, 401, 40, -7404, 1786, -75, -326, 172, -63, -371, 23, 32400, -490, 3288, 1169, 0, 0, 0, 0, 0
75, 318859241, 5, 3210, 0, 0, 0, 401, 401, 401, 401, -1, -7420, 1786, -132, 162, -514, -120, 116, 17, -10067, -4662, 20624, 1169, 0, 0, 0, 0, 0
76, 318863155, 5, 3210, 0, 0, 0, 401, 401, 401, 401, 6, -7620, 1786, -86, 61, -95, -75, 15, 5, 32401, 1402, 24956, 1169, 0, 0, 0, 0, 0
77, 318867060, 5, 3210, 0, 0, 0, 401, 401, 401, 401, 68, -7625, 1786, -5, -10, 514, 6, -58, 10, -7907, 7922, 6108, 1169, 0, 0, 0, 0, 0
78, 318870974, 5, 3210, 0, 0, 0, 401, 401, 401, 401, 160, -7823, 1786, -92, -295, 216, -80, -343, 24, 32400, 12246, 15700, 1169, 0, 0, 0, 0, 0
79, 318874929, 5, 3210, 0, 0, 0, 401, 401, 401, 401, 70, -7785, 1786, -104, 227, -482, -91, 177, 23, -3975, -10830, 25400, 1169, 0, 0, 0, 0, 0
80, 318878794, 5, 3210, 0, 0, 0, 401, 401, 401, 401, 132, -7986, 1786, -71, -9, -157, -59, -58, 10, 32401, 8274, 22596, 1169, 0, 0, 0, 0, 0
81, 318882742, 5, 3210, 0, 0, 0, 401, 401, 401, 401, 169, -8020, 1786, 1, 73, 492, 13, 22, 12, -12451, 4826, 12156, 1169, 0, 0, 0, 0, 0
82, 318886632, 5, 3210, 0, 0, 0, 401, 401, 401, 401, 194, -8215, 1786, -85, -289, 245, -72, -340, 24, 32400, 3694, 7124, 1169, 0, 0, 0, 0, 0
83, 318890538, 5, 3210, 0, 0, 0, 401, 401, 401, 401, 144, -8204, 1786, -65, 115, -460, -52, 62, 27, -7235, -5930, 18812, 1169, 0, 0, 0, 0, 0
84, 318894457, 5, 3210, 0, 0, 0, 401, 401, 401, 401, 151, -8405, 1786, -55, -83, -186, -42, -136, 16, 32401, 1346, 22752, 1169, 0, 0, 0, 0, 0
85, 318898357, 5, 3210, 0, 0, 0, 401, 401, 401, 401, 202, -8422, 1786, 5, 194, 512, 18, 140, 19, -11383, 6606, 10692, 1169, 0, 0, 0, 0, 0
86, 318902271, 5, 3210, 0, 0, 0, 401, 401, 401, 401, 335, -8616, 1786, -59, -325, 285, -46, -379, 30, 32400, 17370, 22112, 1169, 0, 0, 0, 0, 0
87, 318906232, 5, 3210, 0, 0, 0, 401, 401, 401, 401, 212, -8547, 1786, -28, 53, -424, -14, -3, 36, 189, -15286, 21068, 1169, 0, 0, 0, 0, 0
88, 318910098, 5, 3210, 0, 0, 0, 401, 401, 401, 401, 270, -8740, 1786, -33, 29, -206, -20, -26, 25, 32401, 7686, 16728, 1169, 0, 0, 0, 0, 0
89, 318914011, 5, 3210, 0, 0, 0, 401, 401, 401, 401, 305, -8770, 1786, 16, 219, 490, 30, 162, 25, -13403, 4606, 13628, 1169, 0, 0, 0, 0, 0
90, 318917924, 5, 3210, 0, 0, 0, 401, 401, 401, 401, 366, -8964, 1786, -19, -397, 299, -5, -454, 33, 32400, 8114, 12496, 1169, 0, 0, 0, 0, 0
91, 318921829, 5, 3210, 0, 0, 0, 401, 401, 401, 401, 317, -8953, 1786, -7, 37, -420, 7, -22, 38, -7455, -5910, 21472, 1169, 0, 0, 0, 0, 0
92, 318925778, 5, 3210, 0, 0, 0, 401, 401, 401, 401, 307, -9139, 1786, -12, 116, -286, 2, 58, 27, 32401, -950, 9232, 1169, 0, 0, 0, 0, 0
93, 318929649, 5, 3210, 0, 0, 0, 401, 401, 401, 401, 359, -9161, 1786, -4, 141, 429, 10, 81, 21, -12343, 6934, 8196, 1169, 0, 0, 0, 0, 0
94, 318933563, 5, 3210, 0, 0, 0, 401, 401, 401, 401, 490, -9354, 1786, 29, -443, 309, 43, -503, 27, 32400, 16854, 32767, 1169, 0, 0, 0, 0, 0
95, 318937528, 5, 3210, 0, 0, 0, 401, 401, 401, 401, 338, -9270, 1786, 5, 167, -444, 20, 105, 29, 733, -19058, 15604, 1169, 0, 0, 0, 0, 0
96, 318941393, 5, 3210, 0, 0, 0, 401, 401, 401, 401, 355, -9454, 1786, -10, 125, -293, 4, 64, 21, 32401, 2462, 12280, 1169, 0, 0, 0, 0, 0
97, 318945308, 5, 3210, 0, 0, 0, 401, 401, 401, 401, 399, -9485, 1786, -23, 63, 394, -9, 1, 15, -13427, 6090, 5292, 1169, 0, 0, 0, 0, 0
98, 318949253, 5, 3210, 0, 0, 0, 401, 401, 401, 401, 477, -9675, 1786, 80, -431, 289, 95, -494, 18, 32400, 9822, 21548, 1169, 0, 0, 0, 0, 0
99, 318953128, 5, 3210, 0, 0, 0, 401, 401, 401, 401, 405, -9658, 1786, 4, 248, -414, 19, 184, 20, -8491, -8910, 25404, 1169, 0, 0, 0, 0, 0
100, 318957052, 5, 3210, 0, 0, 0, 401, 401, 401, 401, 364, -9842, 1786, 0, 43, -335, 15, -21, 11, 32401, -4842, -1304, 1169, 0, 0, 0, 0, 0
101, 318960952, 5, 3210, 0, 0, 0, 401, 401, 401, 401, 401, -9870, 1786, -54, 118, 300, -40, 53, -2, -13675, 5322, 6368, 1169, 0, 0, 0, 0, 0
102, 318964858, 5, 3210, 0, 0, 0, 401, 401, 401, 401, 516, -10054, 1786, 114, -362, 308, 129, -428, -1, 32400, 14438, 32767, 1169, 0, 0, 0, 0, 0
103, 318968821, 5, 3210, 0, 0, 0, 401, 401, 401, 401, 335, -9945, 1786, -6, 198, -387, 9, 131, 2, 3173, -22730, 13208, 1169, 0, 0, 0, 0, 0
104, 318972692, 5, 3210, 0, 0, 0, 401, 401, 401, 401, 317, -10131, 1786, 10, -45, -388, 24, -111, -10, 32401, -2126, 8012, 1169, 0, 0, 0, 0, 0
105, 318976603, 5, 3210, 0, 0, 0, 401, 401, 401, 401, 346, -10153, 1786, -66, 153, 342, -52, 85, -19, -13427, 4310, -3360, 1169, 0, 0, 0, 0, 0
106, 318980515, 5, 3210, 0, 0, 0, 401, 401, 401, 401, 420, -10335, 1786, 119, -356, 307, 133, -424, -19, 32400, 9058, 27908, 1169, 0, 0, 0, 0, 0
107, 318984421, 5, 3210, 0, 0, 0, 401, 401, 401, 401, 337, -10288, 1786, -30, 136, -320, -15, 67, -12, -4691, -10038, 25412, 1169, 0, 0, 0, 0, 0
108, 318988353, 5, 3210, 0, 0, 0, 401, 401, 401, 401, 285, -10468, 1786, 22, 27, -363, 36, -42, -17, 32401, -6622, -6128, 1169, 0, 0, 0, 0, 0
109, 318992251, 5, 3210, 0, 0, 0, 401, 401, 401, 401, 298, -10479, 1786, -72, 195, 330, -58, 125, -23, -12535, 2278, 7024, 1169, 0, 0, 0, 0, 0
110, 318996161, 5, 3210, 0, 0, 0, 401, 401, 401, 401, 402, -10660, 1786, 118, -384, 207, 132, -455, -30, 32400, 12978, 32767, 1162, 0, 0, 0, 0, 0
111, 319000116, 5, 3210, 0, 0, 0, 401, 401, 401, 401, 238, -10531, 1786, -61, 58, -239, -47, -14, -17, 5889, -20374, 7308, 1162, 0, 0, 0, 0, 0
112, 319003981, 5, 3210, 0, 0, 0, 401, 401, 401, 401, 188, -10708, 1786, 43, 72, -377, 56, 1, -22, 32401, -6446, 5476, 1162, 0, 0, 0, 0, 0
113, 319007893, 5, 3210, 0, 0, 0, 401, 401, 401, 401, 221, -10713, 1786, -72, 102, 349, -59, 30, -25, -11627, 4686, -6688, 1162, 0, 0, 0, 0, 0
114, 319011817, 5, 3210, 0, 0, 0, 401, 401, 401, 401, 267, -10893, 1786, 111, -396, 226, 124, -468, -29, 32400, 5422, 29432, 1162, 0, 0, 0, 0, 0
115, 319015721, 5, 3210, 0, 0, 0, 401, 401, 401, 401, 192, -10839, 1786, -78, 109, -174, -65, 35, -14, -4239, -9030, 20636, 1162, 0, 0, 0, 0, 0
116, 319019631, 5, 3210, 0, 0, 0, 401, 401, 401, 401, 132, -11015, 1786, 51, 35, -278, 64, -38, -10, 32401, -7774, -8776, 1162, 0, 0, 0, 0, 0
117, 319023546, 5, 3210, 0, 0, 0, 401, 401, 401, 401, 140, -10997, 1786, -48, 44, 352, -36, -31, -7, -8487, 1286, 11124, 1162, 0, 0, 0, 0, 0
118, 319027454, 5, 3210, 0, 0, 0, 401, 401, 401, 401, 233, -11171, 1786, 106, -329, 187, 118, -403, -15, 32400, 11382, 32180, 1162, 0, 0, 0, 0, 0
119, 319031446, 5, 3210, 0, 0, 0, 401, 401, 401, 401, 118, -11031, 1786, -101, 159, -106, -88, 83, 3, 6337, -14006, 1180, 1162, 0, 0, 0, 0, 0
120, 319035282, 5, 3210, 0, 0, 0, 401, 401, 401, 401, 45, -11209, 1786, 57, -67, -365, 69, -142, 4, 32401, -9562, 4316, 1162, 0, 0, 0, 0, 0
121, 319039187, 5, 3210, 0, 0, 0, 401, 401, 401, 401, 92, -11174, 1786, -33, 81, 404, -21, 5, 8, -6747, 6154, -2868, 1162, 0, 0, 0, 0, 0
122, 319043112, 5, 3210, 0, 0, 0, 401, 401, 401, 401, 110, -11342, 1786, 92, -195, 102, 104, -271, -5, 32400, 1878, 29572, 1162, 0, 0, 0, 0, 0
123, 319047068, 5, 3210, 0, 0, 0, 401, 401, 401, 401, 60, -11275, 1786, -118, 116, -54, -106, 39, 12, -3015, -5674, 16852, 1169, 0, 0, 0, 0, 0
124, 319050924, 5, 3210, 0, 0, 0, 401, 401, 401, 401, 4, -11453, 1786, 57, -84, -317, 69, -161, 15, 32401, -7598, -5964, 1169, 0, 0, 0, 0, 0
125, 319054844, 5, 3210, 0, 0, 0, 401, 401, 401, 401, 3, -11375, 1786, -17, 219, 375, -6, 141, 18, -2343, -30, 16684, 1169, 0, 0, 0, 0, 0
126, 319058748, 5, 3210, 0, 0, 0, 401, 401, 401, 401, 89, -11538, 1786, 75, -119, 98, 86, -196, 11, 32400, 10542, 32767, 1169, 0, 0, 0, 0, 0
127, 319062717, 5, 3210, 0, 0, 0, 401, 401, 401, 401, 38, -11423, 1786, -132, 33, -4, -120, -46, 26, 3381, -5834, 4148, 1169, 0, 0, 0, 0, 0
128, 319066583, 5, 3210, 0, 0, 0, 401, 401, 401, 401, -34, -11596, 1786, 70, 12, -303, 82, -66, 30, 32401, -9578, 3556, 1169, 0, 0, 0, 0, 0
129, 319070494, 5, 3210, 0, 0, 0, 401, 401, 401, 401, 7, -11530, 1786, -15, 308, 424, -4, 229, 35, -2483, 5226, 9776, 1169, 0, 0, 0, 0, 0
130, 319074425, 5, 3210, 0, 0, 0, 401, 401, 401, 401, 20, -11706, 1786, 48, -79, 4, 59, -158, 21, 32400, 1290, 28076, 1169, 0, 0, 0, 0, 0
131, 319078312, 5, 3210, 0, 0, 0, 401, 401, 401, 401, 24, -11636, 1786, -149, 69, 37, -138, -11, 34, -2659, 1350, 15604, 1169, 0, 0, 0, 0, 0
132, 319082226, 5, 3210, 0, 0, 0, 401, 401, 401, 401, -16, -11799, 1786, 69, 193, -324, 80, 114, 31, 32401, -5570, -3156, 1169, 0, 0, 0, 0, 0
133, 319086140, 5, 3210, 0, 0, 0, 401, 401, 401, 401, -26, -11673, 1786, -29, 316, 422, -18, 235, 36, 5061, -1138, 19544, 1169, 0, 0, 0, 0, 0
134, 319090050, 5, 3210, 0, 0, 0, 401, 401, 401, 401, 73, -11845, 1786, 17, -30, -54, 28, -110, 21, 32400, 12410, 32767, 1169, 0, 0, 0, 0, 0
135, 319094028, 5, 3210, 0, 0, 0, 401, 401, 401, 401, 60, -11744, 1786, -140, 209, 69, -128, 128, 32, 421, -886, 4900, 1169, 0, 0, 0, 0, 0
136, 319097884, 5, 3210, 0, 0, 0, 401, 401, 401, 401, 18, -11903, 1786, 65, 257, -372, 77, 177, 31, 32401, -5690, 364, 1155, 0, 0, 0, 0, 0
137, 319101791, 5, 3210, 0, 0, 0, 401, 401, 401, 401, 40, -11777, 1786, -56, 310, 444, -45, 228, 34, 5113, 3018, 14204, 1155, 0, 0, 0, 0, 0
138, 319105703, 5, 3210, 0, 0, 0, 401, 401, 401, 401, 89, -11943, 1786, 12, 94, -119, 24, 13, 20, 32400, 6178, 31616, 1155, 0, 0, 0, 0, 0
139, 319109611, 5, 3210, 0, 0, 0, 401, 401, 401, 401, 127, -11884, 1786, -123, 315, 110, -111, 233, 30, -3635, 5622, 16588, 1155, 0, 0, 0, 0, 0
140, 319113526, 5, 3210, 0, 0, 0, 401, 401, 401, 401, 120, -12043, 1786, 64, 248, -273, 76, 167, 33, 32401, -1270, 1664, 1155, 0, 0, 0, 0, 0
141, 319117429, 5, 3210, 0, 0, 0, 401, 401, 401, 401, 73, -11840, 1786, -68, 380, 503, -56, 297, 41, 14345, -5490, 18284, 1155, 0, 0, 0, 0, 0
142, 319121344, 5, 3210, 0, 0, 0, 401, 401, 401, 401, 191, -12011, 1786, -5, 323, -180, 7, 242, 24, 32400, 15130, 30776, 1155, 0, 0, 0, 0, 0
143, 319125307, 5, 3210, 0, 0, 0, 401, 401, 401, 401, 163, -11965, 1786, -98, 369, 130, -85, 287, 32, -5595, -2986, 10116, 1155, 0, 0, 0, 0, 0
144, 319129182, 5, 3210, 0, 0, 0, 401, 401, 401, 401, 176, -12133, 1786, 58, 378, -376, 71, 296, 27, 32401, 1406, 2172, 1155, 0, 0, 0, 0, 0
145, 319133075, 5, 3210, 0, 0, 0, 401, 401, 401, 401, 146, -11948, 1786, -81, 512, 544, -68, 429, 35, 11325, -3226, 13016, 1155, 0, 0, 0, 0, 0
146, 319137042, 5, 3210, 0, 0, 0, 401, 401, 401, 401, 240, -12113, 1786, -14, 460, -252, -2, 378, 19, 32400, 12230, 32767, 1155, 0, 0, 0, 0, 0
147, 319140908, 5, 3210, 0, 0, 0, 401, 401, 401, 401, 272, -12077, 1786, -86, 402, 113, -73, 319, 24, -7179, 4706, 14800, 1155, 0, 0, 0, 0, 0
148, 319144823, 5, 3210, 0, 0, 0, 401, 401, 401, 401, 269, -12236, 1786, 56, 568, -333, 69, 485, 23, 32401, -530, 3164, 1155, 0, 0, 0, 0, 0
149, 319148750, 5, 3210, 0, 0, 0, 401, 401, 401, 401, 166, -11983, 1786, -84, 579, 544, -71, 495, 31, 19417, -12494, 16172, 1169, 0, 0, 0, 0, 0
150, 319152649, 5, 3210, 0, 0, 0, 401, 401, 401, 401, 286, -12184, 1786, -35, 496, -284, -22, 414, 16, 27617, 15598, 30616, 1169, 0, 0, 0, 0, 0
151, 319156600, 5, 3210, 0, 0, 0, 401, 401, 401, 401, 186, -12180, 1786, -58, 505, 117, -44, 421, 19, -11959, -12254, 10100, 1169, 0, 0, 0, 0, 0
152, 319160471, 5, 3210, 0, 0, 0, 401, 401, 401, 401, 235, -12346, 1786, 12, 782, -364, 25, 698, 20, 32401, 6298, 5812, 1169, 0, 0, 0, 0, 0
153, 319164377, 5, 3210, 0, 0, 0, 401, 401, 401, 401, 153, -12122, 1786, -83, 596, 540, -70, 511, 26, 15513, -9798, 9176, 1169, 0, 0, 0, 0, 0
154, 319168291, 5, 3210, 0, 0, 0, 401, 401, 401, 401, 274, -12284, 1786, -61, 494, -325, -48, 411, 13, 32400, 15866, 32767, 1169, 0, 0, 0, 0, 0
155, 319172205, 5, 3210, 0, 0, 0, 401, 401, 401, 401, 245, -12296, 1786, -14, 737, 108, 0, 652, 13, -13235, -3498, 17540, 1169, 0, 0, 0, 0, 0
156, 319176119, 5, 3210, 0, 0, 0, 401, 401, 401, 401, 244, -12459, 1786, -18, 809, -376, -5, 724, 6, 32401, 146, 616, 1169, 0, 0, 0, 0, 0
157, 319180065, 5, 3210, 0, 0, 0, 401, 401, 401, 401, 94, -12225, 1786, -67, 651, 552, -54, 565, 9, 18413, -18658, 18160, 1169, 0, 0, 0, 0, 0
158, 319183940, 5, 3210, 0, 0, 0, 401, 401, 401, 401, 197, -12422, 1786, -59, 547, -273, -47, 463, 4, 27681, 13574, 30140, 1169, 0, 0, 0, 0, 0
159, 319187903, 5, 3210, 0, 0, 0, 401, 401, 401, 401, 24, -12466, 1786, 3, 883, 81, 16, 797, 1, -18455, -21998, 7196, 1169, 0, 0, 0, 0, 0
160, 319191763, 5, 3210, 0, 0, 0, 401, 401, 401, 401, 64, -12633, 1786, -39, 693, -346, -27, 607, 2, 32401, 5214, 5692, 1169, 0, 0, 0, 0, 0
161, 319195678, 5, 3210, 0, 0, 0, 401, 401, 401, 401, -57, -12421, 1786, -57, 700, 546, -45, 613, 3, 15233, -15102, 7208, 1169, 0, 0, 0, 0, 0
162, 319199589, 5, 3210, 0, 0, 0, 401, 401, 401, 401, 47, -12576, 1786, -33, 610, -252, -22, 525, 3, 32400, 13358, 31236, 1176, 0, 0, 0, 0, 0
163, 319203499, 5, 3210, 0, 0, 0, 401, 401, 401, 401, -52, -12670, 1786, 26, 851, 39, 38, 764, -2, -24651, -12822, 14152, 1176, 0, 0, 0, 0, 0
164, 319207412, 5, 3210, 0, 0, 0, 401, 401, 401, 401, -60, -12822, 1786, -54, 636, -326, -43, 549, -2, 32401, -882, 2008, 1176, 0, 0, 0, 0, 0
165, 319211326, 5, 3210, 0, 0, 0, 401, 401, 401, 401, -233, -12616, 1786, -46, 713, 493, -35, 624, -5, 14225, -22046, 19776, 1176, 0, 0, 0, 0, 0
166, 319215248, 5, 3210, 0, 0, 0, 401, 401, 401, 401, -131, -12790, 1786, -7, 536, -200, 3, 449, 0, 30177, 12890, 31552, 1176, 0, 0, 0, 0, 0
167, 319219202, 5, 3210, 0, 0, 0, 401, 401, 401, 401, -349, -12883, 1786, 13, 774, -48, 23, 686, -10, -24387, -28274, 4664, 1176, 0, 0, 0, 0, 0
168, 319223063, 5, 3210, 0, 0, 0, 401, 401, 401, 401, -334, -13013, 1786, -47, 662, -309, -38, 573, -6, -28619, 1834, 3192, 1176, 0, 0, 0, 0, 0
169, 319226975, 5, 3210, 0, 0, 0, 401, 401, 401, 401, -476, -12837, 1786, -45, 714, 456, -36, 624, -12, 10197, -18310, 8100, 1176, 0, 0, 0, 0, 0
170, 319230886, 5, 3210, 0, 0, 0, 401, 401, 401, 401, -397, -13000, 1786, 18, 350, -173, 26, 261, -2, 32400, 9530, 30660, 1176, 0, 0, 0, 0, 0
171, 319234792, 5, 3210, 0, 0, 0, 401, 401, 401, 401, -527, -13143, 1786, 10, 792, -77, 18, 702, -14, -31111, -17162, 9056, 1176, 0, 0, 0, 0, 0
172, 319238704, 5, 3210, 0, 0, 0, 401, 401, 401, 401, -509, -13282, 1786, -36, 614, -327, -29, 523, -11, -31823, 1954, 4624, 1176, 0, 0, 0, 0, 0
173, 319242628, 5, 3210, 0, 0, 0, 401, 401, 401, 401, -659, -13085, 1786, -49, 575, 384, -42, 483, -21, 11397, -19578, 17756, 1176, 0, 0, 0, 0, 0
174, 319246554, 5, 3210, 0, 0, 0, 401, 401, 401, 401, -555, -13265, 1786, 46, 151, -178, 52, 60, -15, 29017, 12442, 31720, 1176, 0, 0, 0, 0, 0
175, 319250495, 5, 3210, 0, 0, 0, 401, 401, 401, 401, -732, -13333, 1786, -5, 801, -140, 2, 709, -29, -21751, -23222, 5972, 1176, 0, 0, 0, 0, 0
176, 319254370, 5, 3210, 0, 0, 0, 401, 401, 401, 401, -709, -13404, 1786, -21, 385, -374, -15, 292, -31, -22075, 2278, 4808, 1176, 0, 0, 0, 0, 0
177, 319258274, 5, 3210, 0, 0, 0, 401, 401, 401, 401, -834, -13219, 1786, -39, 433, 288, -33, 340, -47, 10513, -16558, 7684, 1176, 0, 0, 0, 0, 0
178, 319262187, 5, 3210, 0, 0, 0, 401, 401, 401, 401, -757, -13375, 1786, 83, 85, -214, 88, -7, -45, 32400, 8522, 28556, 1176, 0, 0, 0, 0, 0
179, 319266089, 5, 3210, 0, 0, 0, 401, 401, 401, 401, -879, -13478, 1786, -10, 618, -181, -4, 525, -58, -27407, -16310, 6404, 1176, 0, 0, 0, 0, 0
180, 319270004, 5, 3210, 0, 0, 0, 401, 401, 401, 401, -820, -13575, 1786, -7, 149, -462, -2, 55, -67, -26215, 6670, 9772, 1176, 0, 0, 0, 0, 0
181, 319273918, 5, 3210, 0, 0, 0, 401, 401, 401, 401, -937, -13352, 1786, -6, 264, 208, -1, 169, -85, 14041, -15782, 20744, 1176, 0, 0, 0, 0, 0
182, 319277834, 5, 3210, 0, 0, 0, 401, 401, 401, 401, -822, -13593, 1786, 92, 14, -233, 96, -79, -87, 21809, 13254, 20976, 1176, 0, 0, 0, 0, 0
183, 319281789, 5, 3210, 0, 0, 0, 401, 401, 401, 401, -969, -13562, 1786, 20, 264, -205, 25, 169, -97, -10587, -19834, 12268, 1176, 0, 0, 0, 0, 0
184, 319285688, 5, 3210, 0, 0, 0, 401, 401, 401, 401, -899, -13637, 1786, -1, 27, -459, 3, -68, -106, -22815, 8050, 4460, 1176, 0, 0, 0, 0, 0
185, 319289568, 5, 3210, 0, 0, 0, 401, 401, 401, 401, -1006, -13411, 1786, 48, 122, 143, 52, 27, -125, 15157, -14890, 14772, 1176, 0, 0, 0, 0, 0
186, 319293479, 5, 3210, 0, 0, 0, 401, 401, 401, 401, -898, -13614, 1786, 72, -173, -218, 76, -266, -128, 25545, 12314, 25596, 1176, 0, 0, 0, 0, 0
187, 319297390, 5, 3210, 0, 0, 0, 401, 401, 401, 401, -1038, -13616, 1786, 93, -27, -177, 97, -122, -135, -13159, -19330, 5652, 1176, 0, 0, 0, 0, 0
188, 319301305, 5, 3210, 0, 0, 0, 401, 401, 401, 401, -940, -13745, 1786, 1, -58, -474, 4, -153, -144, -29327, 11518, 15472, 1176, 0, 0, 0, 0, 0
189, 319305217, 5, 3210, 0, 0, 0, 401, 401, 401, 401, -1039, -13980, 1786, 116, -136, 130, 120, -232, -160, 21001, -14262, 25908, 1176, 0, 0, 0, 0, 0
190, 319309129, 5, 3210, 0, 0, 0, 401, 401, 401, 401, -914, -13777, 1786, 55, -362, -168, 58, -460, -159, 12405, 14606, 13936, 1176, 0, 0, 0, 0, 0
191, 319313079, 5, 3210, 0, 0, 0, 401, 401, 401, 401, -1042, -13630, 1786, 174, -156, -145, 178, -252, -159, 4457, -18218, 10788, 1176, 0, 0, 0, 0, 0
192, 319316952, 5, 3210, 0, 0, 0, 401, 401, 401, 401, -913, -13764, 1786, -1, -178, -429, 2, -273, -163, -31411, 15414, 7344, 1176, 0, 0, 0, 0, 0
193, 319320856, 5, 3210, 0, 0, 0, 401, 401, 401, 401, -1060, -13985, 1786, 188, -405, 111, 192, -501, -174, 24317, -18774, 20196, 1176, 0, 0, 0, 0, 0
194, 319324771, 5, 3210, 0, 0, 0, 401, 401, 401, 401, -924, -13764, 1786, 49, -442, -120, 52, -540, -168, 15197, 16098, 23612, 1176, 0, 0, 0, 0, 0
195, 319328701, 5, 3210, 0, 0, 0, 401, 401, 401, 401, -1085, -13664, 1786, 239, -366, -132, 243, -462, -165, -515, -20846, 6672, 1176, 0, 0, 0, 0, 0
196, 319332600, 5, 3210, 0, 0, 0, 401, 401, 401, 401, -982, -13771, 1786, 4, -376, -330, 7, -471, -157, -26839, 12094, 16744, 1176, 0, 0, 0, 0, 0
197, 319336505, 5, 3210, 0, 0, 0, 401, 401, 401, 401, -1089, -14003, 1786, 233, -661, 60, 237, -757, -166, 22233, -13978, 26388, 1176, 0, 0, 0, 0, 0
198, 319340418, 5, 3210, 0, 0, 0, 401, 401, 401, 401, -928, -13833, 1786, 51, -476, -22, 54, -574, -153, 6793, 19218, 13220, 1176, 0, 0, 0, 0, 0
199, 319344392, 5, 3210, 0, 0, 0, 401, 401, 401, 401, -1043, -13691, 1786, 280, -714, -146, 284, -811, -149, 4733, -15242, 12492, 1176, 0, 0, 0, 0, 0
200, 319348311, 5, 3210, 0, 0, 0, 401, 401, 401, 401, -914, -13825, 1786, 19, -566, -215, 22, -661, -134, -31247, 15462, 9632, 1183, 0, 0, 0, 0, 0
201, 319352169, 5, 3210, 0, 0, 0, 401, 401, 401, 401, -1071, -14064, 1786, 257, -810, -25, 261, -907, -144, 21953, -20526, 21372, 1183, 0, 0, 0, 0, 0
202, 319356064, 5, 3210, 0, 0, 0, 401, 401, 401, 401, -893, -13883, 1786, 61, -609, 104, 64, -707, -124, 8957, 21386, 21172, 1183, 0, 0, 0, 0, 0
203, 319359979, 5, 3210, 0, 0, 0, 401, 401, 401, 401, -1048, -13776, 1786, 308, -992, -216, 312, -1089, -127, -263, -20330, 7436, 1183, 0, 0, 0, 0, 0
204, 319363893, 5, 3210, 0, 0, 0, 401, 401, 401, 401, -938, -13811, 1786, 17, -620, -77, 20, -716, -102, -18367, 12914, 20772, 1183, 0, 0, 0, 0, 0
205, 319367808, 5, 3210, 0, 0, 0, 401, 401, 401, 401, -1004, -13632, 1786, 272, -891, -134, 276, -987, -118, 8329, -8926, 26116, 1183, 0, 0, 0, 0, 0
206, 319371729, 5, 3210, 0, 0, 0, 401, 401, 401, 401, -783, -13456, 1786, 57, -844, 219, 61, -939, -94, 7973, 26978, 14780, 1183, 0, 0, 0, 0, 0
207, 319375673, 5, 3210, 0, 0, 0, 401, 401, 401, 401, -858, -13412, 1786, 320, -1064, -290, 325, -1158, -103, -7599, -10106, 13992, 1183, 0, 0, 0, 0, 0
208, 319379548, 5, 3210, 0, 0, 0, 401, 401, 401, 401, -745, -13487, 1786, 17, -718, 65, 22, -811, -72, -22627, 13438, 8188, 1183, 0, 0, 0, 0, 0
209, 319383453, 5, 3210, 0, 0, 0, 401, 401, 401, 401, -881, -13314, 1786, 264, -972, -298, 270, -1066, -98, 8405, -17642, 25712, 1183, 0, 0, 0, 0, 0
210, 319387358, 5, 3210, 0, 0, 0, 401, 401, 401, 401, -669, -13100, 1786, 60, -1037, 329, 65, -1130, -70, 14185, 25922, 14244, 1183, 0, 0, 0, 0, 0
211, 319391325, 5, 3210, 0, 0, 0, 401, 401, 401, 401, -753, -13080, 1786, 313, -1008, -389, 319, -1099, -86, -10507, -11130, 14088, 1183, 0, 0, 0, 0, 0
212, 319395191, 5, 3210, 0, 0, 0, 401, 401, 401, 401, -628, -12974, 1786, -7, -903, 161, -1, -994, -55, -263, 15190, 12196, 1183, 0, 0, 0, 0, 0
213, 319399102, 5, 3210, 0, 0, 0, 401, 401, 401, 401, -651, -12963, 1786, 246, -1024, -405, 252, -1114, -84, -11503, -2818, 32500, 1155, 0, 0, 0, 0, 0
214, 319403014, 5, 3210, 0, 0, 0, 401, 401, 401, 401, -902, -12740, 1786, 72, -1123, 451, 78, -1213, -55, 16125, 32250, 16404, 1155, 0, 0, 0, 0, 0
215, 319406967, 5, 3210, 0, 0, 0, 401, 401, 401, 401, -956, -12821, 1786, 292, -964, -492, 296, -1052, -76, -23459, -7418, 18460, 1155, 0, 0, 0, 0, 0
216, 319410832, 5, 3210, 0, 0, 0, 401, 401, 401, 401, -876, -12738, 1786, -6, -1126, 283, -2, -1215, -45, -1615, 9386, 1036, 1155, 0, 0, 0, 0, 0
217, 319414744, 5, 3210, 0, 0, 0, 401, 401, 401, 401, -927, -12708, 1786, 224, -966, -498, 229, -1054, -75, -9151, -6734, 28240, 1155, 0, 0, 0, 0, 0
218, 319418654, 5, 3210, 0, 0, 0, 401, 401, 401, 401, -689, -12935, 1786, 87, -1131, 522, 91, -1219, -49, 24309, 29066, 10172, 1155, 0, 0, 0, 0, 0
219, 319422570, 5, 3210, 0, 0, 0, 401, 401, 401, 401, -707, -13034, 1786, 244, -884, -517, 250, -974, -67, -26371, -2290, 22276, 1155, 0, 0, 0, 0, 0
220, 319426484, 5, 3210, 0, 0, 0, 401, 401, 401, 401, -597, -12790, 1786, 6, -1152, 346, 12, -1242, -41, 18925, 13262, 9040, 1155, 0, 0, 0, 0, 0
221, 319430405, 5, 3210, 0, 0, 0, 401, 401, 401, 401, -604, -12880, 1786, 186, -754, -529, 193, -842, -66, -23767, -534, 26424, 1155, 0, 0, 0, 0, 0
222, 319434336, 5, 3210, 0, 0, 0, 401, 401, 401, 401, -365, -13117, 1786, 153, -1177, 524, 160, -1266, -47, 23185, 29154, 17492, 1155, 0, 0, 0, 0, 0
223, 319438270, 5, 3210, 0, 0, 0, 401, 401, 401, 401, -463, -13266, 1786, 210, -756, -569, 219, -847, -64, -31631, -12042, 15716, 1155, 0, 0, 0, 0, 0
224, 319442133, 5, 3210, 0, 0, 0, 401, 401, 401, 401, -429, -13512, 1786, 58, -1057, 382, 66, -1149, -44, 21013, 3498, 7284, 1155, 0, 0, 0, 0, 0
225, 319446137, 5, 3210, 0, 0, 0, 401, 401, 401, 401, -390, -13561, 1786, 147, -578, -522, 155, -672, -58, -20151, 3730, 20544, 1155, 0, 0, 0, 0, 0
226, 319449954, 5, 3210, 0, 0, 0, 401, 401, 401, 401, -212, -13718, 1786, 200, -1228, 458, 208, -1322, -50, 31033, 23286, 9156, 1155, 0, 0, 0, 0, 0
227, 319453869, 5, 3210, 0, 0, 0, 401, 401, 401, 401, -214, -13848, 1786, 156, -545, -537, 166, -641, -59, -30907, -1414, 13480, 1155, 0, 0, 0, 0, 0
228, 319457777, 5, 3210, 0, 0, 0, 401, 401, 401, 401, -179, -13995, 1786, 106, -922, 385, 116, -1019, -45, 32313, 3554, 11176, 1155, 0, 0, 0, 0, 0
229, 319461701, 5, 3210, 0, 0, 0, 401, 401, 401, 401, -173, -14062, 1786, 100, -523, -463, 110, -621, -49, -23135, -22, 3064, 1155, 0, 0, 0, 0, 0
230, 319465614, 5, 3210, 0, 0, 0, 401, 401, 401, 401, -53, -14297, 1786, 254, -1194, 418, 264, -1292, -51, 22377, 15758, 12736, 1155, 0, 0, 0, 0, 0
231, 319469559, 5, 3210, 0, 0, 0, 401, 401, 401, 401, -150, -14413, 1786, 112, -382, -482, 123, -482, -50, -28583, -13062, 9520, 1155, 0, 0, 0, 0, 0
232, 319473424, 5, 3210, 0, 0, 0, 401, 401, 401, 401, -187, -14572, 1786, 159, -855, 357, 169, -956, -46, 29925, -5862, 18396, 1155, 0, 0, 0, 0, 0
233, 319477358, 5, 3210, 0, 0, 0, 401, 401, 401, 401, -134, -14597, 1786, 64, -528, -370, 74, -630, -38, -18327, 6234, 3500, 1155, 0, 0, 0, 0, 0
234, 319481253, 5, 3210, 0, 0, 0, 401, 401, 401, 401, -49, -14774, 1786, 290, -1037, 339, 300, -1140, -49, 28361, 11158, 11560, 1155, 0, 0, 0, 0, 0
235, 319485170, 5, 3210, 0, 0, 0, 401, 401, 401, 401, -37, -14885, 1786, 60, -301, -393, 71, -405, -41, -28795, 1014, 1140, 1155, 0, 0, 0, 0, 0
236, 319489086, 5, 3210, 0, 0, 0, 401, 401, 401, 401, -110, -15040, 1786, 182, -794, 316, 193, -899, -43, 31733, -8394, 17320, 1155, 0, 0, 0, 0, 0
237, 319492991, 5, 3210, 0, 0, 0, 401, 401, 401, 401, -126, -15066, 1786, 32, -443, -225, 42, -549, -24, -17403, -2342, -5232, 1155, 0, 0, 0, 0, 0
238, 319496941, 5, 3210, 0, 0, 0, 401, 401, 401, 401, -76, -14820, 1786, 304, -834, 271, 314, -940, -40, 15421, 6514, 5416, 1155, 0, 0, 0, 0, 0
239, 319500860, 5, 3210, 0, 0, 0, 401, 401, 401, 401, -158, -14875, 1786, 7, -223, -245, 18, -327, -20, -22031, -10694, 12680, 1155, 0, 0, 0, 0, 0
240, 319504726, 5, 3210, 0, 0, 0, 401, 401, 401, 401, -281, -15070, 1786, 169, -635, 226, 179, -740, -30, 25677, -16790, 25288, 1155, 0, 0, 0, 0, 0
241, 319508637, 5, 3210, 0, 0, 0, 401, 401, 401, 401, -254, -15076, 1786, 11, -253, -75, 20, -359, -2, -15887, 2994, 2848, 1155, 0, 0, 0, 0, 0
242, 319512543, 5, 3210, 0, 0, 0, 401, 401, 401, 401, -220, -14825, 1786, 272, -668, 186, 281, -774, -19, 17197, 4554, 7952, 1155, 0, 0, 0, 0, 0
243, 319516457, 5, 3210, 0, 0, 0, 401, 401, 401, 401, -225, -14879, 1786, -25, -120, -80, -15, -224, 10, -22571, -742, 6616, 1155, 0, 0, 0, 0, 0
244, 319520379, 5, 3210, 0, 0, 0, 401, 401, 401, 401, -319, -14642, 1786, 145, -412, 122, 155, -517, -7, 16297, -13050, 20204, 1155, 0, 0, 0, 0, 0
245, 319524285, 5, 3210, 0, 0, 0, 401, 401, 401, 401, -351, -14602, 1786, -1, -46, 103, 8, -149, 29, -8739, -4518, 3056, 1155, 0, 0, 0, 0, 0
246, 319528198, 5, 3210, 0, 0, 0, 401, 401, 401, 401, -287, -14482, 1786, 208, -526, 72, 217, -629, 7, 169, 8754, 428, 1155, 0, 0, 0, 0, 0
247, 319532162, 5, 3210, 0, 0, 0, 401, 401, 401, 401, -355, -14436, 1786, -52, 83, 25, -43, -19, 39, -8451, -8758, 17988, 1155, 0, 0, 0, 0, 0
248, 319536016, 5, 3210, 0, 0, 0, 401, 401, 401, 401, -517, -14238, 1786, 95, -138, 14, 104, -239, 17, 10217, -21658, 22044, 1155, 0, 0, 0, 0, 0
249, 319539986, 5, 3210, 0, 0, 0, 401, 401, 401, 401, -535, -14188, 1786, -16, 110, 261, -9, 10, 57, -7899, -2782, 15084, 1155, 0, 0, 0, 0, 0
250, 319543844, 5, 3210, 0, 0, 0, 401, 401, 401, 401, -450, -14096, 1786, 143, -259, -68, 150, -358, 31, -2555, 9426, 808, 1155, 0, 0, 0, 0, 0
251, 319547802, 5, 3210, 0, 0, 0, 401, 401, 401, 401, -491, -14072, 1786, -67, 296, 160, -59, 197, 66, -10087, -5274, 10928, 1183, 0, 0, 0, 0, 0
252, 319551672, 5, 3210, 0, 0, 0, 401, 401, 401, 401, -579, -14000, 1786, 32, 101, -132, 39, 3, 38, -4875, -12002, 21560, 1183, 0, 0, 0, 0, 0
253, 319555575, 5, 3210, 0, 0, 0, 401, 401, 401, 401, -633, -13825, 1786, -23, 166, 428, -16, 68, 79, 8109, -7498, 16780, 1183, 0, 0, 0, 0, 0
254, 319559488, 5, 3210, 0, 0, 0, 401, 401, 401, 401, -476, -13858, 1786, 73, 162, -204, 79, 65, 49, -18411, 19026, 2212, 1183, 0, 0, 0, 0, 0
255, 319563449, 5, 3210, 0, 0, 0, 401, 401, 401, 401, -554, -13687, 1786, -91, 409, 276, -83, 312, 82, 8245, -9922, 19864, 1183, 0, 0, 0, 0, 0
256, 319567315, 5, 3210, 0, 0, 0, 401, 401, 401, 401, -685, -13668, 1786, -55, 312, -257, -48, 217, 51, -10307, -17126, 10384, 1183, 0, 0, 0, 0, 0
257, 319571229, 5, 3210, 0, 0, 0, 401, 401, 401, 401, -771, -13486, 1786, -37, 279, 560, -31, 184, 91, 8529, -11434, 25972, 1183, 0, 0, 0, 0, 0
258, 319575143, 5, 3210, 0, 0, 0, 401, 401, 401, 401, -583, -13560, 1786, -2, 563, -339, 3, 469, 58, -23475, 23198, 12220, 1183, 0, 0, 0, 0, 0
259, 319579059, 5, 3210, 0, 0, 0, 401, 401, 401, 401, -673, -13366, 1786, -113, 390, 348, -106, 296, 85, 11705, -11434, 8264, 1183, 0, 0, 0, 0, 0
260, 319582980, 5, 3210, 0, 0, 0, 401, 401, 401, 401, -704, -13472, 1786, -113, 514, -397, -107, 421, 53, -27267, -4066, 24812, 1183, 0, 0, 0, 0, 0
261, 319586889, 5, 3210, 0, 0, 0, 401, 401, 401, 401, -796, -13685, 1786, -47, 494, 641, -41, 400, 86, 24633, -12338, 24724, 1183, 0, 0, 0, 0, 0
262, 319590783, 5, 3210, 0, 0, 0, 401, 401, 401, 401, -557, -13807, 1786, -57, 840, -467, -52, 745, 53, -29283, 30150, 7236, 1183, 0, 0, 0, 0, 0
263, 319594748, 5, 3210, 0, 0, 0, 401, 401, 401, 401, -692, -14014, 1786, -140, 382, 411, -133, 286, 77, 25737, -17130, 14184, 1183, 0, 0, 0, 0, 0
264, 319598609, 5, 3210, 0, 0, 0, 401, 401, 401, 401, -740, -14124, 1786, -152, 776, -457, -146, 678, 47, -27823, -6022, 8132, 1176, 0, 0, 0, 0, 0
265, 319602549, 5, 3210, 0, 0, 0, 401, 401, 401, 401, -875, -14367, 1786, -84, 591, 659, -78, 492, 72, 19601, -17626, 26828, 1176, 0, 0, 0, 0, 0
266, 319606437, 5, 3210, 0, 0, 0, 401, 401, 401, 401, -1128, -14509, 1786, -107, 964, -512, -102, 863, 44, 32401, -32683, 26256, 1176, 0, 0, 0, 0, 0
267, 319610351, 5, 3210, 0, 0, 0, 401, 401, 401, 401, -1294, -14706, 1786, -165, 486, 396, -162, 384, 59, 25665, -21454, 14524, 1176, 0, 0, 0, 0, 0
268, 319614256, 5, 3210, 0, 0, 0, 401, 401, 401, 401, -1320, -14858, 1786, -183, 1035, -428, -182, 932, 41, 32401, -3666, 18228, 1176, 0, 0, 0, 0, 0
269, 319618171, 5, 3210, 0, 0, 0, 401, 401, 401, 401, -1438, -15012, 1786, -100, 613, 618, -99, 508, 53, 30149, -15890, 31644, 1176, 0, 0, 0, 0, 0
270, 319622097, 5, 3210, 0, 0, 0, 401, 401, 401, 401, -1688, -15094, 1786, -141, 1238, -528, -141, 1132, 32, -25551, -32683, 6332, 1176, 0, 0, 0, 0, 0
271, 319626037, 5, 3210, 0, 0, 0, 401, 401, 401, 401, -1879, -15246, 1786, -163, 652, 340, -164, 545, 36, 29981, -25238, 14612, 1176, 0, 0, 0, 0, 0
272, 319629903, 5, 3210, 0, 0, 0, 401, 401, 401, 401, -1888, -15386, 1786, -221, 1207, -356, -224, 1099, 30, 32401, -3886, 12944, 1176, 0, 0, 0, 0, 0
273, 319633818, 5, 3210, 0, 0, 0, 401, 401, 401, 401, -2044, -15612, 1786, -105, 599, 586, -108, 490, 32, 20565, -21226, 26700, 1176, 0, 0, 0, 0, 0
274, 319637738, 5, 3210, 0, 0, 0, 401, 401, 401, 401, -2276, -15755, 1786, -196, 1449, -367, -200, 1338, 30, 32469, -32683, 28748, 1176, 0, 0, 0, 0, 0
275, 319641648, 5, 3210, 0, 0, 0, 401, 401, 401, 401, -2493, -15910, 1786, -148, 745, 246, -154, 633, 24, 30461, -29174, 20732, 1176, 0, 0, 0, 0, 0
276, 319645571, 5, 3210, 0, 0, 0, 401, 401, 401, 401, -2551, -16015, 1786, -267, 1236, -234, -275, 1123, 34, -29339, -10470, 4748, 1176, 0, 0, 0, 0, 0
277, 319649506, 5, 3210, 0, 0, 0, 401, 401, 401, 401, -2666, -16207, 1786, -84, 725, 493, -92, 611, 25, 25657, -16722, 32767, 1155, 0, 0, 0, 0, 0
278, 319653379, 5, 3210, 0, 0, 0, 401, 401, 401, 401, -2895, -16217, 1786, -231, 1559, -288, -240, 1444, 36, -17323, -32683, 10796, 1155, 0, 0, 0, 0, 0
279, 319657331, 5, 3210, 0, 0, 0, 401, 401, 401, 401, -3132, -16378, 1786, -132, 766, 204, -143, 651, 23, 29181, -32458, 17644, 1155, 0, 0, 0, 0, 0
280, 319661205, 5, 3210, 0, 0, 0, 401, 401, 401, 401, -3184, -16476, 1786, -298, 1255, -132, -311, 1139, 43, -28999, -10102, 12984, 1155, 0, 0, 0, 0, 0
281, 319665110, 5, 3210, 0, 0, 0, 401, 401, 401, 401, -3314, -16242, 1786, -66, 863, 410, -79, 746, 28, 13409, -19458, 24652, 1155, 0, 0, 0, 0, 0
282, 319669023, 5, 3210, 0, 0, 0, 401, 401, 401, 401, -3540, -16294, 1786, -264, 1466, -221, -278, 1351, 46, -22207, -32683, 24096, 1155, 0, 0, 0, 0, 0
283, 319672938, 5, 3210, 0, 0, 0, 401, 401, 401, 401, -3773, -16435, 1786, -113, 812, 138, -129, 696, 30, 31401, -32682, 29448, 1155, 0, 0, 0, 0, 0
284, 319676862, 5, 3210, 0, 0, 0, 401, 401, 401, 401, -3877, -16465, 1786, -317, 1322, -26, -335, 1205, 55, -20811, -17282, 2032, 1155, 0, 0, 0, 0, 0
285, 319680772, 5, 3210, 0, 0, 0, 401, 401, 401, 401, -3953, -16714, 1786, -28, 843, 321, -47, 726, 36, 17349, -13402, 29940, 1155, 0, 0, 0, 0, 0
286, 319684684, 5, 3210, 0, 0, 0, 401, 401, 401, 401, -4191, -16632, 1786, -269, 1290, -95, -288, 1171, 63, -6591, 30714, 19700, 1155, 0, 0, 0, 0, 0
287, 319688641, 5, 3210, 0, 0, 0, 401, 401, 401, 401, -4407, -16801, 1786, -105, 816, 65, -126, 698, 46, 27461, -31130, 17516, 1155, 0, 0, 0, 0, 0
288, 319692494, 5, 3210, 0, 0, 0, 401, 401, 401, 401, -4540, -16844, 1786, -313, 1280, 52, -336, 1160, 72, -22471, -21626, 15100, 1155, 0, 0, 0, 0, 0
289, 319696405, 5, 3210, 0, 0, 0, 401, 401, 401, 401, -4600, -16660, 1786, -26, 706, 236, -50, 586, 50, 7457, -11942, 21028, 1190, 0, 0, 0, 0, 0
290, 319700321, 5, 3210, 0, 0, 0, 401, 401, 401, 401, -4360, -16598, 1786, -251, 1178, -20, -275, 1059, 71, -8423, 25562, 16716, 1190, 0, 0, 0, 0, 0
291, 319704228, 5, 3210, 0, 0, 0, 401, 401, 401, 401, -4588, -16763, 1786, -128, 849, -19, -150, 731, 55, 27929, -32682, 29464, 1190, 0, 0, 0, 0, 0
292, 319708143, 5, 3210, 0, 0, 0, 401, 401, 401, 401, -4690, -16755, 1786, -334, 1173, 103, -358, 1054, 76, -15495, -17750, 10856, 1190, 0, 0, 0, 0, 0
293, 319712054, 5, 3210, 0, 0, 0, 401, 401, 401, 401, -4678, -16552, 1786, -73, 595, 159, -98, 476, 55, 8661, -2666, 18212, 1190, 0, 0, 0, 0, 0
294, 319715969, 5, 3210, 0, 0, 0, 401, 401, 401, 401, -4897, -16419, 1786, -273, 1123, 23, -298, 1005, 74, 1017, 32514, 20556, 1190, 0, 0, 0, 0, 0
295, 319719924, 5, 3210, 0, 0, 0, 401, 401, 401, 401, -5046, -16627, 1786, -173, 770, -87, -199, 653, 56, 23029, -24902, 21448, 1190, 0, 0, 0, 0, 0
296, 319723787, 5, 3210, 0, 0, 0, 401, 401, 401, 401, -5194, -16652, 1786, -366, 985, 122, -394, 867, 72, -20587, -23898, 18588, 1190, 0, 0, 0, 0, 0
297, 319727711, 5, 3210, 0, 0, 0, 401, 401, 401, 401, -5176, -16483, 1786, -113, 609, 119, -142, 490, 54, 4337, -2106, 15772, 1190, 0, 0, 0, 0, 0
298, 319731619, 5, 3210, 0, 0, 0, 401, 401, 401, 401, -4952, -16336, 1786, -288, 1037, 58, -317, 920, 71, 1365, 23222, 10872, 1190, 0, 0, 0, 0, 0
299, 319735525, 5, 3210, 0, 0, 0, 401, 401, 401, 401, -5136, -16517, 1786, -240, 645, -162, -267, 529, 53, 25129, -29074, 24736, 1190, 0, 0, 0, 0, 0
300, 319739447, 5, 3210, 0, 0, 0, 401, 401, 401, 401, -5208, -16522, 1786, -382, 873, 130, -410, 755, 62, -17243, -14146, 22528, 1190, 0, 0, 0, 0, 0
301, 319743352, 5, 3210, 0, 0, 0, 401, 401, 401, 401, -5090, -16338, 1786, -180, 622, 103, -209, 504, 49, 6409, 9018, 8124, 1190, 0, 0, 0, 0, 0
302, 319747289, 5, 3210, 0, 0, 0, 401, 401, 401, 401, -5312, -16172, 1786, -342, 847, 73, -370, 731, 59, 4953, 31914, 16556, 1148, 0, 0, 0, 0, 0
303, 319751241, 5, 3210, 0, 0, 0, 401, 401, 401, 401, -5397, -16394, 1786, -309, 511, -181, -339, 396, 44, 20769, -16258, 21896, 1148, 0, 0, 0, 0, 0
304, 319755088, 5, 3210, 0, 0, 0, 401, 401, 401, 401, -5524, -16432, 1786, -409, 831, 139, -439, 714, 49, -21103, -21342, 19276, 1148, 0, 0, 0, 0, 0
305, 319758993, 5, 3210, 0, 0, 0, 401, 401, 401, 401, -5430, -16283, 1786, -223, 569, 37, -254, 452, 37, 2149, 5926, 15696, 1148, 0, 0, 0, 0, 0
306, 319762908, 5, 3210, 0, 0, 0, 401, 401, 401, 401, -5197, -16092, 1786, -366, 719, 85, -397, 603, 43, 8977, 24538, 7360, 1148, 0, 0, 0, 0, 0
307, 319766832, 5, 3210, 0, 0, 0, 401, 401, 401, 401, -5345, -16281, 1786, -340, 452, -199, -369, 338, 32, 25333, -24222, 21804, 1148, 0, 0, 0, 0, 0
308, 319770725, 5, 3210, 0, 0, 0, 401, 401, 401, 401, -5355, -16317, 1786, -410, 796, 120, -440, 680, 33, -20527, -6178, 28620, 1148, 0, 0, 0, 0, 0
309, 319774636, 5, 3210, 0, 0, 0, 401, 401, 401, 401, -5185, -16156, 1786, -234, 375, 1, -264, 259, 23, 4941, 15818, 5880, 1148, 0, 0, 0, 0, 0
310, 319778551, 5, 3210, 0, 0, 0, 401, 401, 401, 401, -5402, -15979, 1786, -400, 614, 86, -429, 499, 27, 5817, -32683, 10020, 1148, 0, 0, 0, 0, 0
311, 319782515, 5, 3210, 0, 0, 0, 401, 401, 401, 401, -5470, -16188, 1786, -332, 329, -205, -362, 216, 20, 23601, -14094, 22984, 1148, 0, 0, 0, 0, 0
312, 319786380, 5, 3210, 0, 0, 0, 401, 401, 401, 401, -5503, -16268, 1786, -409, 623, 106, -440, 508, 19, -27147, -9362, 22020, 1148, 0, 0, 0, 0, 0
313, 319790293, 5, 3210, 0, 0, 0, 401, 401, 401, 401, -5347, -16114, 1786, -199, 235, -5, -230, 119, 11, 2793, 13654, 21212, 1148, 0, 0, 0, 0, 0
314, 319794226, 5, 3210, 0, 0, 0, 401, 401, 401, 401, -5600, -15898, 1786, -384, 484, 92, -414, 369, 13, 11465, 28110, 5820, 1148, 0, 0, 0, 0, 0
315, 319798117, 5, 3210, 0, 0, 0, 401, 401, 401, 401, -5740, -16049, 1786, -273, 78, -175, -305, -35, 12, 30561, -23866, 17744, 1176, 0, 0, 0, 0, 0
316, 319802023, 5, 3210, 0, 0, 0, 401, 401, 401, 401, -5676, -16155, 1786, -377, 390, 55, -410, 276, 8, -29119, 2562, 32284, 1176, 0, 0, 0, 0, 0
317, 319805937, 5, 3210, 0, 0, 0, 401, 401, 401, 401, -5519, -15975, 1786, -130, 139, 31, -163, 24, 3, 6713, 15358, 9952, 1176, 0, 0, 0, 0, 0
318, 319809852, 5, 3210, 0, 0, 0, 401, 401, 401, 401, -5754, -15815, 1786, -362, 306, 58, -393, 193, 2, 5445, 30106, 792, 1176, 0, 0, 0, 0, 0
319, 319813802, 5, 3210, 0, 0, 0, 401, 401, 401, 401, -5882, -15990, 1786, -211, -190, -155, -244, -302, 4, 26977, -22886, 21560, 1176, 0, 0, 0, 0, 0
320, 319817683, 5, 3210, 0, 0, 0, 401, 401, 401, 401, -5830, -16119, 1786, -325, 236, 5, -359, 123, -4, 32401, 694, 20620, 1176, 0, 0, 0, 0, 0
321, 319821590, 5, 3210, 0, 0, 0, 401, 401, 401, 401, -5693, -15954, 1786, -54, 27, 24, -88, -88, -5, 5417, 12250, 25156, 1176, 0, 0, 0, 0, 0
322, 319825493, 5, 3210, 0, 0, 0, 401, 401, 401, 401, -5919, -15752, 1786, -334, 56, -25, -367, -57, -12, 10289, 30898, 4412, 1176, 0, 0, 0, 0, 0
323, 319829408, 5, 3210, 0, 0, 0, 401, 401, 401, 401, -6127, -15882, 1786, -142, -465, -141, -176, -577, -8, 32141, -31666, 8860, 1176, 0, 0, 0, 0, 0
324, 319833319, 5, 3210, 0, 0, 0, 401, 401, 401, 401, -6054, -16017, 1786, -270, 110, -43, -306, -3, -19, 32401, 2962, 30104, 1176, 0, 0, 0, 0, 0
325, 319837268, 5, 3210, 0, 0, 0, 401, 401, 401, 401, -5951, -15855, 1786, 5, -188, -12, -30, -302, -19, 4357, 7282, 10572, 1176, 0, 0, 0, 0, 0
326, 319841139, 5, 3210, 0, 0, 0, 401, 401, 401, 401, -5703, -15675, 1786, -279, -178, -24, -314, -291, -26, 6785, 25506, 1708, 1176, 0, 0, 0, 0, 0
327, 319845103, 5, 3210, 0, 0, 0, 401, 401, 401, 401, -5911, -15918, 1786, -93, -665, -163, -126, -776, -24, 18957, -31634, 11108, 1176, 0, 0, 0, 0, 0
328, 319848993, 5, 3210, 0, 0, 0, 401, 401, 401, 401, -5828, -16058, 1786, -189, -28, -1, -223, -141, -30, 32401, 3790, 15584, 1162, 0, 0, 0, 0, 0
329, 319852878, 5, 3210, 0, 0, 0, 401, 401, 401, 401, -5744, -15927, 1786, 37, -489, -73, 3, -603, -35, -55, 4930, 17176, 1162, 0, 0, 0, 0, 0
330, 319856825, 5, 3210, 0, 0, 0, 401, 401, 401, 401, -5990, -15703, 1786, -230, -413, -61, -263, -526, -44, 13709, 27762, 6332, 1162, 0, 0, 0, 0, 0
331, 319860697, 5, 3210, 0, 0, 0, 401, 401, 401, 401, -6203, -15872, 1786, -68, -835, -160, -103, -946, -43, 27309, -32682, 7536, 1162, 0, 0, 0, 0, 0
332, 319864610, 5, 3210, 0, 0, 0, 401, 401, 401, 401, -6157, -16005, 1786, -127, -227, -44, -164, -340, -49, 32401, 518, 23692, 1162, 0, 0, 0, 0, 0
333, 319868522, 5, 3210, 0, 0, 0, 401, 401, 401, 401, -6070, -15955, 1786, 45, -697, -144, 9, -811, -60, -9235, 4926, 15956, 1162, 0, 0, 0, 0, 0
334, 319872437, 5, 3210, 0, 0, 0, 401, 401, 401, 401, -5833, -15703, 1786, -156, -551, -42, -192, -664, -67, 15857, 23298, 6888, 1162, 0, 0, 0, 0, 0
335, 319876400, 5, 3210, 0, 0, 0, 401, 401, 401, 401, -6040, -15516, 1786, -47, -912, -181, -81, -1023, -68, 7829, -31918, 11236, 1162, 0, 0, 0, 0, 0
336, 319880265, 5, 3210, 0, 0, 0, 401, 401, 401, 401, -5990, -15648, 1786, -56, -502, -21, -91, -612, -70, 32401, 926, 12948, 1162, 0, 0, 0, 0, 0
337, 319884171, 5, 3210, 0, 0, 0, 401, 401, 401, 401, -5927, -15641, 1786, 60, -802, -258, 25, -913, -88, -13807, 1978, 6724, 1162, 0, 0, 0, 0, 0
338, 319888095, 5, 3210, 0, 0, 0, 401, 401, 401, 401, -5727, -15802, 1786, -98, -756, 22, -132, -867, -85, 29933, 20394, 5776, 1162, 0, 0, 0, 0, 0
339, 319892009, 5, 3210, 0, 0, 0, 401, 401, 401, 401, -5940, -15553, 1786, -37, -993, -238, -70, -1105, -91, 16021, -32682, 9600, 1162, 0, 0, 0, 0, 0
340, 319895910, 5, 3210, 0, 0, 0, 401, 401, 401, 401, -5903, -15593, 1786, 4, -772, 63, -31, -882, -84, -19811, -974, 8072, 1169, 0, 0, 0, 0, 0
341, 319899859, 5, 3210, 0, 0, 0, 401, 401, 401, 401, -5754, -15694, 1786, 80, -811, -336, 46, -921, -104, -27543, 12838, 21696, 1169, 0, 0, 0, 0, 0
342, 319903735, 5, 3210, 0, 0, 0, 401, 401, 401, 401, -5541, -15828, 1786, -24, -956, 79, -57, -1067, -98, 32400, 21810, 9512, 1169, 0, 0, 0, 0, 0
343, 319907690, 5, 3210, 0, 0, 0, 401, 401, 401, 401, -5674, -15794, 1786, -36, -1057, -301, -67, -1169, -106, -11163, -22210, 20344, 1169, 0, 0, 0, 0, 0
344, 319911566, 5, 3210, 0, 0, 0, 401, 401, 401, 401, -5688, -15888, 1786, 66, -945, 113, 34, -1057, -99, -28111, -7618, 13080, 1169, 0, 0, 0, 0, 0
345, 319915480, 5, 3210, 0, 0, 0, 401, 401, 401, 401, -5545, -16003, 1786, 100, -849, -390, 67, -962, -119, -31403, 12298, -1216, 1169, 0, 0, 0, 0, 0
346, 319919384, 5, 3210, 0, 0, 0, 401, 401, 401, 401, -5397, -16130, 1786, 55, -1207, 128, 24, -1321, -107, 32400, 13242, 7160, 1169, 0, 0, 0, 0, 0
347, 319923294, 5, 3210, 0, 0, 0, 401, 401, 401, 401, -5501, -16058, 1786, -24, -1014, -389, -54, -1129, -122, -6783, -18382, 19216, 1169, 0, 0, 0, 0, 0
348, 319927199, 5, 3210, 0, 0, 0, 401, 401, 401, 401, -5491, -15904, 1786, 121, -1057, 194, 90, -1171, -107, 3913, -4750, -5988, 1169, 0, 0, 0, 0, 0
349, 319931113, 5, 3210, 0, 0, 0, 401, 401, 401, 401, -5280, -16035, 1786, 114, -906, -507, 83, -1019, -129, 32401, 20998, 16860, 1169, 0, 0, 0, 0, 0
350, 319935027, 5, 3210, 0, 0, 0, 401, 401, 401, 401, -5107, -16168, 1786, 121, -1363, 130, 92, -1477, -119, 32400, 16386, 23020, 1169, 0, 0, 0, 0, 0
351, 319938989, 5, 3210, 0, 0, 0, 401, 401, 401, 401, -5188, -16258, 1786, -2, -867, -460, -30, -982, -136, -28363, -15322, 21388, 1169, 0, 0, 0, 0, 0
352, 319942877, 5, 3210, 0, 0, 0, 401, 401, 401, 401, -5280, -16203, 1786, 161, -1101, 254, 132, -1217, -119, -8627, -17602, 15884, 1169, 0, 0, 0, 0, 0
353, 319946781, 5, 3210, 0, 0, 0, 401, 401, 401, 401, -5028, -16331, 1786, 112, -899, -465, 83, -1014, -132, 32401, 26410, -3504, 1162, 0, 0, 0, 0, 0
354, 319950670, 5, 3210, 0, 0, 0, 401, 401, 401, 401, -4943, -16461, 1786, 186, -1335, 93, 158, -1451, -127, 32400, 4990, 13080, 1162, 0, 0, 0, 0, 0
355, 319954592, 5, 3210, 0, 0, 0, 401, 401, 401, 401, -4960, -16520, 1786, 4, -605, -499, -23, -722, -144, -24143, -7006, 28516, 1162, 0, 0, 0, 0, 0
356, 319958495, 5, 3210, 0, 0, 0, 401, 401, 401, 401, -4983, -16754, 1786, 193, -1112, 253, 166, -1230, -132, 19713, -8778, -3420, 1162, 0, 0, 0, 0, 0
357, 319962410, 5, 3210, 0, 0, 0, 401, 401, 401, 401, -4780, -16868, 1786, 95, -807, -532, 68, -927, -144, -32307, 20614, -1620, 1162, 0, 0, 0, 0, 0
358, 319966323, 5, 3210, 0, 0, 0, 401, 401, 401, 401, -4706, -16988, 1786, 233, -1198, 49, 207, -1319, -146, 32400, 5630, 32767, 1162, 0, 0, 0, 0, 0
359, 319970286, 5, 3210, 0, 0, 0, 401, 401, 401, 401, -4815, -17121, 1786, 3, -404, -497, -22, -526, -158, 32401, -18578, 12004, 1162, 0, 0, 0, 0, 0
360, 319974142, 5, 3210, 0, 0, 0, 401, 401, 401, 401, -4936, -16999, 1786, 218, -1079, 259, 192, -1202, -149, -1103, -19262, 22208, 1162, 0, 0, 0, 0, 0
361, 319978055, 5, 3210, 0, 0, 0, 401, 401, 401, 401, -5178, -17127, 1786, 90, -649, -521, 63, -771, -157, 32401, 29254, -4832, 1162, 0, 0, 0, 0, 0
362, 319981967, 5, 3210, 0, 0, 0, 401, 401, 401, 401, -5147, -17253, 1786, 273, -1025, -90, 244, -1148, -171, 32400, -538, 18460, 1162, 0, 0, 0, 0, 0
363, 319985879, 5, 3210, 0, 0, 0, 401, 401, 401, 401, -5139, -17346, 1786, -15, -270, -465, -43, -393, -176, -29003, -3854, 29252, 1162, 0, 0, 0, 0, 0
364, 319989794, 5, 3210, 0, 0, 0, 401, 401, 401, 401, -5176, -17601, 1786, 259, -1001, 209, 231, -1125, -175, 15653, -9118, 8548, 1162, 0, 0, 0, 0, 0
365, 319993708, 5, 3210, 0, 0, 0, 401, 401, 401, 401, -5035, -17583, 1786, 87, -496, -481, 58, -622, -173, -15915, 12502, -8364, 1162, 0, 0, 0, 0, 0
366, 319997628, 5, 3210, 0, 0, 0, 401, 401, 401, 401, -5051, -17700, 1786, 308, -889, -133, 280, -1015, -190, 32400, -6618, 32767, 1162, 0, 0, 0, 0, 0
367, 320001582, 5, 3210, 0, 0, 0, 401, 401, 401, 401, -5108, -17821, 1786, -27, -256, -423, -55, -383, -187, 32401, -12026, 13788, 1162, 0, 0, 0, 0, 0
368, 320005477, 5, 3210, 0, 0, 0, 401, 401, 401, 401, -5216, -17721, 1786, 305, -807, 202, 277, -935, -191, -5999, -18446, 27280, 1162, 0, 0, 0, 0, 0
369, 320009359, 5, 3210, 0, 0, 0, 401, 401, 401, 401, -5002, -17750, 1786, 133, -399, -359, 104, -526, -184, -20551, 21686, 1076, 1162, 0, 0, 0, 0, 0
370, 320013272, 5, 3210, 0, 0, 0, 401, 401, 401, 401, -5013, -17876, 1786, 327, -744, -195, 300, -871, -202, 32400, -6078, 14796, 1162, 0, 0, 0, 0, 0
371, 320017176, 5, 3210, 0, 0, 0, 401, 401, 401, 401, -4960, -17993, 1786, -10, -214, -361, -37, -342, -193, 32525, 2050, 25704, 1162, 0, 0, 0, 0, 0
372, 320021090, 5, 3210, 0, 0, 0, 401, 401, 401, 401, -4985, -17822, 1786, 333, -609, 223, 306, -738, -195, 3905, -7806, 12084, 1162, 0, 0, 0, 0, 0
373, 320024995, 5, 3210, 0, 0, 0, 401, 401, 401, 401, -4893, -17697, 1786, 162, -363, -389, 135, -491, -186, -1243, 6022, -2180, 1162, 0, 0, 0, 0, 0
374, 320028908, 5, 3210, 0, 0, 0, 401, 401, 401, 401, -4997, -17865, 1786, 321, -591, -202, 295, -718, -202, 26249, -17866, 29272, 1162, 0, 0, 0, 0, 0
375, 320032872, 5, 3210, 0, 0, 0, 401, 401, 401, 401, -4970, -17979, 1786, 25, -118, -256, -2, -246, -187, 32401, -1486, 23680, 1162, 0, 0, 0, 0, 0
376, 320036744, 5, 3210, 0, 0, 0, 401, 401, 401, 401, -5064, -17935, 1786, 338, -438, 253, 311, -567, -187, -13267, -16630, 28196, 1162, 0, 0, 0, 0, 0
377, 320040650, 5, 3210, 0, 0, 0, 401, 401, 401, 401, -4903, -17856, 1786, 202, -323, -226, 174, -452, -169, -7479, 14502, 3928, 1162, 0, 0, 0, 0, 0
378, 320044555, 5, 3210, 0, 0, 0, 401, 401, 401, 401, -4962, -18004, 1786, 309, -382, -254, 283, -510, -179, 29605, -11966, 13204, 1162, 0, 0, 0, 0, 0
379, 320048538, 5, 3210, 0, 0, 0, 401, 401, 401, 401, -4879, -18095, 1786, 47, -10, -147, 20, -139, -159, -28895, 5626, 19504, 1183, 0, 0, 0, 0, 0
380, 320052384, 5, 3210, 0, 0, 0, 401, 401, 401, 401, -4884, -18036, 1786, 295, -378, 245, 269, -508, -157, -9815, -4962, 7724, 1183, 0, 0, 0, 0, 0
381, 320056288, 5, 3210, 0, 0, 0, 401, 401, 401, 401, -4821, -18279, 1786, 218, -260, -112, 192, -390, -134, 16481, 4150, 8368, 1183, 0, 0, 0, 0, 0
382, 320060207, 5, 3210, 0, 0, 0, 401, 401, 401, 401, -4973, -18095, 1786, 252, -136, -322, 226, -267, -146, 4713, -23550, 18404, 1183, 0, 0, 0, 0, 0
383, 320064168, 5, 3210, 0, 0, 0, 401, 401, 401, 401, -4891, -18216, 1786, 64, 37, -26, 37, -93, -121, 32401, 5354, 26348, 1183, 0, 0, 0, 0, 0
384, 320068032, 5, 3210, 0, 0, 0, 401, 401, 401, 401, -4963, -18256, 1786, 235, -231, 225, 209, -362, -119, -23347, -13190, 14856, 1183, 0, 0, 0, 0, 0
385, 320071944, 5, 3210, 0, 0, 0, 401, 401, 401, 401, -4891, -18004, 1786, 206, -73, 13, 179, -204, -96, 13105, 3178, 10024, 1183, 0, 0, 0, 0, 0
386, 320075854, 5, 3210, 0, 0, 0, 401, 401, 401, 401, -4946, -17795, 1786, 164, 160, -380, 138, 31, -108, 8625, -12634, 14132, 1183, 0, 0, 0, 0, 0
387, 320079758, 5, 3210, 0, 0, 0, 401, 401, 401, 401, -4835, -17817, 1786, 41, 77, 84, 14, -51, -80, -20375, 9190, 12588, 1183, 0, 0, 0, 0, 0
388, 320083673, 5, 3210, 0, 0, 0, 401, 401, 401, 401, -4735, -17905, 1786, 156, 55, 175, 130, -73, -83, -28687, 7262, 5136, 1183, 0, 0, 0, 0, 0
389, 320087586, 5, 3210, 0, 0, 0, 401, 401, 401, 401, -4695, -18025, 1786, 177, 114, 128, 152, -15, -51, 32400, -506, 11900, 1183, 0, 0, 0, 0, 0
390, 320091515, 5, 3210, 0, 0, 0, 401, 401, 401, 401, -4822, -17994, 1786, 71, 448, -443, 46, 319, -66, -13883, -21262, 12664, 1183, 0, 0, 0, 0, 0
391, 320095455, 5, 3210, 0, 0, 0, 401, 401, 401, 401, -4739, -18105, 1786, 11, 99, 117, -15, -30, -42, -31943, 5902, 19740, 1183, 0, 0, 0, 0, 0
392, 320099331, 5, 3210, 0, 0, 0, 401, 401, 401, 401, -4712, -18224, 1786, 84, 453, 172, 59, 323, -47, 32401, -1606, -1788, 1162, 0, 0, 0, 0, 0
393, 320103245, 5, 3210, 0, 0, 0, 401, 401, 401, 401, -4734, -18340, 1786, 118, 157, 197, 93, 26, -21, 32400, -8018, 16424, 1162, 0, 0, 0, 0, 0
394, 320107160, 5, 3210, 0, 0, 0, 401, 401, 401, 401, -4731, -18297, 1786, -19, 677, -515, -44, 545, -37, -13863, -4150, 19324, 1162, 0, 0, 0, 0, 0
395, 320111084, 5, 3210, 0, 0, 0, 401, 401, 401, 401, -4637, -18251, 1786, -35, 167, 117, -60, 35, -21, -12575, 7630, 8964, 1162, 0, 0, 0, 0, 0
396, 320114969, 5, 3210, 0, 0, 0, 401, 401, 401, 401, -4402, -18372, 1786, 10, 757, 181, -14, 626, -25, 32401, 25618, 9480, 1162, 0, 0, 0, 0, 0
397, 320118883, 5, 3210, 0, 0, 0, 401, 401, 401, 401, -4412, -18486, 1786, 44, 151, 228, 21, 19, -4, 32400, -5886, 13284, 1162, 0, 0, 0, 0, 0
398, 320122798, 5, 3210, 0, 0, 0, 401, 401, 401, 401, -4484, -18520, 1786, -74, 902, -561, -97, 769, -18, -22931, -13046, 13452, 1162, 0, 0, 0, 0, 0
399, 320126753, 5, 3210, 0, 0, 0, 401, 401, 401, 401, -4477, -18641, 1786, -71, 346, 48, -94, 213, -14, 32401, -3114, 8872, 1162, 0, 0, 0, 0, 0
400, 320130627, 5, 3210, 0, 0, 0, 401, 401, 401, 401, -4318, -18752, 1786, -32, 926, 245, -55, 792, -13, 32401, 16186, -12, 1162, 0, 0, 0, 0, 0
401, 320134539, 5, 3210, 0, 0, 0, 401, 401, 401, 401, -4392, -18863, 1786, -30, 175, 189, -52, 40, -2, 32400, -13438, 14768, 1162, 0, 0, 0, 0, 0
402, 320138443, 5, 3210, 0, 0, 0, 401, 401, 401, 401, -4291, -18943, 1786, -94, 1104, -526, -116, 968, -11, -28319, 9142, 28892, 1162, 0, 0, 0, 0, 0
403, 320142355, 5, 3210, 0, 0, 0, 401, 401, 401, 401, -4255, -18972, 1786, -96, 496, -140, -118, 359, -25, -22707, 926, 3520, 1162, 0, 0, 0, 0, 0
404, 320146293, 5, 3210, 0, 0, 0, 401, 401, 401, 401, -4487, -19078, 1786, -50, 998, 370, -71, 861, -13, 32401, 32018, 20, 1176, 0, 0, 0, 0, 0
405, 320150178, 5, 3210, 0, 0, 0, 401, 401, 401, 401, -4504, -19182, 1786, -54, 280, 134, -77, 142, -12, 32400, -6286, 19584, 1176, 0, 0, 0, 0, 0
406, 320154133, 5, 3210, 0, 0, 0, 401, 401, 401, 401, -4539, -19126, 1786, -63, 1326, -425, -86, 1187, -11, -12467, -8478, 14604, 1176, 0, 0, 0, 0, 0
407, 320158040, 5, 3210, 0, 0, 0, 401, 401, 401, 401, -4601, -19229, 1786, -97, 665, -325, -120, 527, -39, 32401, -11826, -1880, 1176, 0, 0, 0, 0, 0
408, 320161915, 5, 3210, 0, 0, 0, 401, 401, 401, 401, -4389, -19341, 1786, -32, 1150, 456, -56, 1011, -21, 32401, 22866, -436, 1176, 0, 0, 0, 0, 0
409, 320165820, 5, 3210, 0, 0, 0, 401, 401, 401, 401, -4412, -19452, 1786, -46, 442, 88, -68, 302, -28, 32400, -7002, 9376, 1176, 0, 0, 0, 0, 0
410, 320169735, 5, 3210, 0, 0, 0, 401, 401, 401, 401, -4289, -19490, 1786, -17, 1458, -294, -39, 1317, -14, -23403, 11534, 31740, 1176, 0, 0, 0, 0, 0
411, 320173647, 5, 3210, 0, 0, 0, 401, 401, 401, 401, -4277, -19602, 1786, -57, 749, -515, -78, 608, -53, 32401, -2326, 2680, 1176, 0, 0, 0, 0, 0
412, 320177557, 5, 3210, 0, 0, 0, 401, 401, 401, 401, -4030, -19674, 1786, -1, 1320, 527, -22, 1178, -32, -29211, 27442, -10284, 1176, 0, 0, 0, 0, 0
413, 320181469, 5, 3210, 0, 0, 0, 401, 401, 401, 401, -4026, -19778, 1786, -14, 552, 31, -33, 410, -44, 32400, -3282, 22972, 1176, 0, 0, 0, 0, 0
