index_log, time_stamp, mode, thrust, roll, pitch, yaw, ae[0], ae[1], ae[2], ae[3], phi, theta, psi, sp, sq, sr, sax, say, saz, bat_volt, P, P1, P2, temperature, pressure
0, 360406, 0, 0, 0, 0, 0, 0, 0, 0, 0, 0, 0, 0, -77, -58, 68, -1712, 616, 15028, 637, 0, 0, 0, 0, 0
1, 363250, 0, 0, 0, 0, 0, 0, 0, 0, 0, 0, 0, 0, -42, -31, 37, -1832, 624, 15152, 637, 0, 0, 0, 0, 0
2, 366966, 0, 0, 0, 0, 0, 0, 0, 0, 0, 0, 0, 0, -42, -36, 36, -1928, 520, 15028, 637, 0, 0, 0, 0, 0
3, 370704, 0, 0, 0, 0, 0, 0, 0, 0, 0, 0, 0, 0, -42, -29, 36, -1792, 548, 14964, 637, 0, 0, 0, 0, 0
4, 374451, 0, 0, 0, 0, 0, 0, 0, 0, 0, 0, 0, 0, -42, -33, 37, -1908, 680, 15032, 637, 0, 0, 0, 0, 0
5, 378200, 0, 0, 0, 0, 0, 0, 0, 0, 0, 0, 0, 0, -42, -35, 36, -1820, 552, 14904, 637, 0, 0, 0, 0, 0
6, 381937, 0, 0, 0, 0, 0, 0, 0, 0, 0, 0, 0, 0, -43, -27, 37, -1832, 500, 15092, 637, 0, 0, 0, 0, 0
7, 385679, 0, 0, 0, 0, 0, 0, 0, 0, 0, 0, 0, 0, -41, -38, 39, -1784, 612, 15124, 637, 0, 0, 0, 0, 0
8, 389423, 0, 0, 0, 0, 0, 0, 0, 0, 0, 0, 0, 0, -39, -28, 38, -1716, 548, 14876, 637, 0, 0, 0, 0, 0
9, 393166, 0, 0, 0, 0, 0, 0, 0, 0, 0, 0, 0, 0, -44, -30, 37, -1832, 576, 15008, 637, 0, 0, 0, 0, 0
10, 396908, 0, 0, 0, 0, 0, 0, 0, 0, 0, 0, 0, 0, -43, -37, 36, -1792, 508, 15072, 637, 0, 0, 0, 0, 0
11, 400652, 0, 0, 0, 0, 0, 0, 0, 0, 0, 0, 0, 0, -42, -27, 36, -1756, 528, 14864, 637, 0, 0, 0, 0, 0
12, 404396, 0, 0, 0, 0, 0, 0, 0, 0, 0, 0, 0, 0, -41, -30, 37, -1752, 616, 15208, 602, 0, 0, 0, 0, 0
13, 408140, 0, 0, 0, 0, 0, 0, 0, 0, 0, 0, 0, 0, -42, -37, 35, -1712, 608, 15056, 602, 0, 0, 0, 0, 0
14, 411878, 0, 0, 0, 0, 0, 0, 0, 0, 0, 0, 0, 0, -43, -29, 36, -1680, 512, 15008, 602, 0, 0, 0, 0, 0
15, 415631, 0, 0, 0, 0, 0, 0, 0, 0, 0, 0, 0, 0, -43, -33, 36, -1824, 532, 15104, 602, 0, 0, 0, 0, 0
16, 419366, 0, 0, 0, 0, 0, 0, 0, 0, 0, 0, 0, 0, -44, -33, 38, -1684, 520, 14936, 602, 0, 0, 0, 0, 0
17, 423111, 0, 0, 0, 0, 0, 0, 0, 0, 0, 0, 0, 0, -42, -27, 32, -1632, 520, 14940, 602, 0, 0, 0, 0, 0
18, 426855, 0, 0, 0, 0, 0, 0, 0, 0, 0, 0, 0, 0, -45, -35, 34, -1792, 596, 15136, 602, 0, 0, 0, 0, 0
19, 430605, 0, 0, 0, 0, 0, 0, 0, 0, 0, 0, 0, 0, -43, -29, 35, -1752, 472, 14920, 602, 0, 0, 0, 0, 0
20, 434338, 0, 0, 0, 0, 0, 0, 0, 0, 0, 0, 0, 0, -43, -27, 36, -1720, 572, 15032, 602, 0, 0, 0, 0, 0
21, 438082, 0, 0, 0, 0, 0, 0, 0, 0, 0, 0, 0, 0, -41, -34, 36, -1776, 596, 15112, 602, 0, 0, 0, 0, 0
22, 441823, 0, 0, 0, 0, 0, 0, 0, 0, 0, 0, 0, 0, -43, -27, 34, -1684, 500, 14892, 602, 0, 0, 0, 0, 0
23, 445567, 0, 0, 0, 0, 0, 0, 0, 0, 0, 0, 0, 0, -42, -30, 38, -1780, 476, 15060, 602, 0, 0, 0, 0, 0
24, 449309, 0, 0, 0, 0, 0, 0, 0, 0, 0, 0, 0, 0, -41, -30, 35, -1708, 548, 14996, 602, 0, 0, 0, 0, 0
25, 453081, 0, 0, 0, 0, 0, 0, 0, 0, 0, 0, 0, 0, -44, -27, 37, -1720, 424, 15064, 595, 0, 0, 0, 0, 0
26, 456795, 0, 0, 0, 0, 0, 0, 0, 0, 0, 0, 0, 0, -41, -34, 37, -1752, 536, 15204, 595, 0, 0, 0, 0, 0
27, 460541, 0, 0, 0, 0, 0, 0, 0, 0, 0, 0, 0, 0, -41, -33, 34, -1676, 532, 15156, 595, 0, 0, 0, 0, 0
28, 464280, 0, 0, 0, 0, 0, 0, 0, 0, 0, 0, 0, 0, -45, -29, 38, -1776, 492, 14980, 595, 0, 0, 0, 0, 0
29, 468023, 0, 0, 0, 0, 0, 0, 0, 0, 0, 0, 0, 0, -42, -31, 34, -1716, 544, 15108, 595, 0, 0, 0, 0, 0
30, 471772, 0, 0, 0, 0, 0, 0, 0, 0, 0, 0, 0, 0, -42, -32, 36, -1760, 484, 15056, 595, 0, 0, 0, 0, 0
31, 475507, 0, 0, 0, 0, 0, 0, 0, 0, 0, 0, 0, 0, -41, -29, 38, -1764, 548, 14916, 595, 0, 0, 0, 0, 0
32, 479262, 0, 0, 0, 0, 0, 0, 0, 0, 0, 0, 0, 0, -45, -33, 36, -1772, 552, 15104, 595, 0, 0, 0, 0, 0
33, 482996, 0, 0, 0, 0, 0, 0, 0, 0, 0, 0, 0, 0, -42, -29, 36, -1796, 496, 15028, 595, 0, 0, 0, 0, 0
34, 486736, 0, 0, 0, 0, 0, 0, 0, 0, 0, 0, 0, 0, -38, -26, 35, -1780, 560, 14820, 595, 0, 0, 0, 0, 0
35, 490483, 0, 0, 0, 0, 0, 0, 0, 0, 0, 0, 0, 0, -43, -32, 39, -1792, 544, 15028, 595, 0, 0, 0, 0, 0
36, 494225, 0, 0, 0, 0, 0, 0, 0, 0, 0, 0, 0, 0, -41, -30, 37, -1672, 512, 15036, 595, 0, 0, 0, 0, 0
37, 497976, 0, 0, 0, 0, 0, 0, 0, 0, 0, 0, 0, 0, -41, -34, 38, -1760, 516, 15164, 595, 0, 0, 0, 0, 0
38, 552657, 0, 0, 0, 0, 0, 0, 0, 0, 0, 0, 0, 0, -41, -34, 38, -1760, 516, 15164, 595, 0, 0, 0, 0, 0
39, 555935, 0, 0, 0, 0, 0, 0, 0, 0, 0, 0, 0, 0, -45, -22, 36, -1672, 464, 14592, 595, 0, 0, 0, 0, 0
40, 559621, 0, 0, 0, 0, 0, 0, 0, 0, 0, 0, 0, 0, -41, -35, 36, -1928, 484, 15300, 595, 0, 0, 0, 0, 0
41, 563341, 0, 0, 0, 0, 0, 0, 0, 0, 0, 0, 0, 0, -40, -39, 36, -1748, 488, 15076, 595, 0, 0, 0, 0, 0
42, 567085, 0, 0, 0, 0, 0, 0, 0, 0, 0, 0, 0, 0, -44, -11, 36, -1636, 572, 14704, 595, 0, 0, 0, 0, 0
43, 570876, 0, 0, 0, 0, 0, 0, 0, 0, 0, 0, 0, 0, -44, -35, 36, -1884, 532, 15528, 595, 0, 0, 0, 0, 0
44, 574572, 0, 0, 0, 0, 0, 0, 0, 0, 0, 0, 0, 0, -40, -58, 36, -1764, 460, 15296, 595, 0, 0, 0, 0, 0
45, 578317, 0, 0, 0, 0, 0, 0, 0, 0, 0, 0, 0, 0, -40, -14, 36, -1532, 544, 14276, 595, 0, 0, 0, 0, 0
46, 582061, 0, 0, 0, 0, 0, 0, 0, 0, 0, 0, 0, 0, -41, -29, 38, -2016, 556, 15140, 595, 0, 0, 0, 0, 0
47, 585847, 0, 0, 0, 0, 0, 0, 0, 0, 0, 0, 0, 0, -44, -46, 35, -1572, 532, 14664, 595, 0, 0, 0, 0, 0
48, 589547, 0, 0, 0, 0, 0, 0, 0, 0, 0, 0, 0, 0, -42, -8, 33, -1864, 544, 15380, 595, 0, 0, 0, 0, 0
49, 593288, 0, 0, 0, 0, 0, 0, 0, 0, 0, 0, 0, 0, -42, -52, 36, -2136, 500, 15868, 595, 0, 0, 0, 0, 0
50, 597027, 0, 0, 0, 0, 0, 0, 0, 0, 0, 0, 0, 0, -40, -35, 36, -1588, 448, 14876, 595, 0, 0, 0, 0, 0
51, 600820, 0, 0, 0, 0, 0, 0, 0, 0, 0, 0, 0, 0, -43, -6, 36, -1640, 496, 14768, 595, 0, 0, 0, 0, 0
52, 604514, 0, 0, 0, 0, 0, 0, 0, 0, 0, 0, 0, 0, -42, -48, 35, -2004, 444, 15532, 595, 0, 0, 0, 0, 0
53, 608263, 0, 0, 0, 0, 0, 0, 0, 0, 0, 0, 0, 0, -44, -34, 36, -1648, 604, 14752, 595, 0, 0, 0, 0, 0
54, 612004, 0, 0, 0, 0, 0, 0, 0, 0, 0, 0, 0, 0, -39, -10, 36, -1824, 560, 15108, 595, 0, 0, 0, 0, 0
55, 615795, 0, 0, 0, 0, 0, 0, 0, 0, 0, 0, 0, 0, -41, -57, 38, -1928, 560, 15272, 595, 0, 0, 0, 0, 0
56, 619493, 0, 0, 0, 0, 0, 0, 0, 0, 0, 0, 0, 0, -43, -21, 34, -1588, 536, 14372, 595, 0, 0, 0, 0, 0
57, 623234, 0, 0, 0, 0, 0, 0, 0, 0, 0, 0, 0, 0, -45, -16, 36, -1684, 540, 14904, 595, 0, 0, 0, 0, 0
58, 626977, 0, 0, 0, 0, 0, 0, 0, 0, 0, 0, 0, 0, -43, -53, 37, -1996, 540, 15484, 595, 0, 0, 0, 0, 0
59, 630771, 0, 0, 0, 0, 0, 0, 0, 0, 0, 0, 0, 0, -42, -13, 34, -1548, 636, 14624, 595, 0, 0, 0, 0, 0
60, 634465, 0, 0, 0, 0, 0, 0, 0, 0, 0, 0, 0, 0, -44, -27, 38, -1964, 524, 15492, 595, 0, 0, 0, 0, 0
61, 638203, 0, 0, 0, 0, 0, 0, 0, 0, 0, 0, 0, 0, -43, -52, 37, -1872, 452, 14980, 595, 0, 0, 0, 0, 0
62, 641953, 0, 0, 0, 0, 0, 0, 0, 0, 0, 0, 0, 0, -46, -13, 33, -1560, 600, 14580, 595, 0, 0, 0, 0, 0
63, 645740, 0, 0, 0, 0, 0, 0, 0, 0, 0, 0, 0, 0, -40, -35, 37, -1996, 576, 15512, 595, 0, 0, 0, 0, 0
64, 649433, 0, 0, 0, 0, 0, 0, 0, 0, 0, 0, 0, 0, -40, -46, 41, -1592, 468, 14772, 595, 0, 0, 0, 0, 0
65, 653206, 0, 0, 0, 0, 0, 0, 0, 0, 0, 0, 0, 0, -44, -11, 34, -1600, 468, 14660, 595, 0, 0, 0, 0, 0
66, 656923, 0, 0, 0, 0, 0, 0, 0, 0, 0, 0, 0, 0, -41, -42, 35, -1972, 516, 15488, 595, 0, 0, 0, 0, 0
67, 660710, 0, 0, 0, 0, 0, 0, 0, 0, 0, 0, 0, 0, -41, -37, 35, -1696, 404, 14908, 595, 0, 0, 0, 0, 0
68, 664407, 0, 0, 0, 0, 0, 0, 0, 0, 0, 0, 0, 0, -45, -16, 38, -1732, 488, 15028, 595, 0, 0, 0, 0, 0
69, 668149, 0, 0, 0, 0, 0, 0, 0, 0, 0, 0, 0, 0, -43, -46, 34, -1960, 420, 15284, 595, 0, 0, 0, 0, 0
70, 671897, 0, 0, 0, 0, 0, 0, 0, 0, 0, 0, 0, 0, -41, -31, 35, -1636, 560, 14748, 595, 0, 0, 0, 0, 0
71, 675685, 0, 0, 0, 0, 0, 0, 0, 0, 0, 0, 0, 0, -41, -19, 38, -1876, 648, 15224, 595, 0, 0, 0, 0, 0
72, 679383, 0, 0, 0, 0, 0, 0, 0, 0, 0, 0, 0, 0, -43, -43, 36, -1828, 564, 15256, 595, 0, 0, 0, 0, 0
73, 683133, 0, 0, 0, 0, 0, 0, 0, 0, 0, 0, 0, 0, -42, -29, 35, -1708, 444, 14904, 595, 0, 0, 0, 0, 0
74, 686868, 0, 0, 0, 0, 0, 0, 0, 0, 0, 0, 0, 0, -44, -27, 36, -1804, 524, 15064, 595, 0, 0, 0, 0, 0
75, 690659, 0, 0, 0, 0, 0, 0, 0, 0, 0, 0, 0, 0, -43, -40, 37, -1728, 552, 15088, 595, 0, 0, 0, 0, 0
76, 694358, 0, 0, 0, 0, 0, 0, 0, 0, 0, 0, 0, 0, -41, -23, 36, -1692, 564, 15048, 595, 0, 0, 0, 0, 0
77, 698092, 0, 0, 0, 0, 0, 0, 0, 0, 0, 0, 0, 0, -41, -34, 34, -1860, 424, 15312, 595, 0, 0, 0, 0, 0
78, 701842, 0, 0, 0, 0, 0, 0, 0, 0, 0, 0, 0, 0, -42, -35, 36, -1748, 520, 14820, 595, 0, 0, 0, 0, 0
79, 705640, 0, 0, 0, 0, 0, 0, 0, 0, 0, 0, 0, 0, -42, -25, 36, -1716, 528, 14944, 595, 0, 0, 0, 0, 0
80, 709454, 0, 0, 0, 0, 0, 0, 0, 0, 0, 0, 0, 0, -44, -34, 37, -1852, 500, 15004, 595, 0, 0, 0, 0, 0
81, 713195, 0, 0, 0, 0, 0, 0, 0, 0, 0, 0, 0, 0, -42, -32, 35, -1836, 484, 15056, 595, 0, 0, 0, 0, 0
82, 716941, 0, 0, 0, 0, 0, 0, 0, 0, 0, 0, 0, 0, -41, -26, 37, -1744, 532, 15036, 595, 0, 0, 0, 0, 0
83, 720729, 0, 0, 0, 0, 0, 0, 0, 0, 0, 0, 0, 0, -45, -38, 38, -1900, 596, 15104, 595, 0, 0, 0, 0, 0
84, 724428, 0, 0, 0, 0, 0, 0, 0, 0, 0, 0, 0, 0, -44, -29, 35, -1692, 536, 14720, 595, 0, 0, 0, 0, 0
85, 728170, 0, 0, 0, 0, 0, 0, 0, 0, 0, 0, 0, 0, -42, -24, 37, -1924, 468, 14904, 595, 0, 0, 0, 0, 0
86, 731914, 0, 0, 0, 0, 0, 0, 0, 0, 0, 0, 0, 0, -42, -36, 36, -1796, 468, 15036, 595, 0, 0, 0, 0, 0
87, 735699, 0, 0, 0, 0, 0, 0, 0, 0, 0, 0, 0, 0, -45, -28, 36, -1748, 496, 14876, 595, 0, 0, 0, 0, 0
88, 739400, 0, 0, 0, 0, 0, 0, 0, 0, 0, 0, 0, 0, -43, -29, 35, -1808, 516, 15168, 595, 0, 0, 0, 0, 0
89, 743142, 0, 0, 0, 0, 0, 0, 0, 0, 0, 0, 0, 0, -46, -35, 34, -1852, 564, 15116, 595, 0, 0, 0, 0, 0
90, 746881, 0, 0, 0, 0, 0, 0, 0, 0, 0, 0, 0, 0, -43, -25, 36, -1836, 440, 14984, 595, 0, 0, 0, 0, 0
91, 750673, 0, 0, 0, 0, 0, 0, 0, 0, 0, 0, 0, 0, -43, -33, 40, -1880, 488, 15180, 595, 0, 0, 0, 0, 0
92, 754402, 0, 0, 0, 0, 0, 0, 0, 0, 0, 0, 0, 0, -42, -28, 35, -1820, 596, 15108, 595, 0, 0, 0, 0, 0
93, 758125, 0, 0, 0, 0, 0, 0, 0, 0, 0, 0, 0, 0, -42, -30, 35, -1804, 560, 15132, 595, 0, 0, 0, 0, 0
94, 761856, 0, 0, 0, 0, 0, 0, 0, 0, 0, 0, 0, 0, -44, -46, 39, -1780, 516, 14872, 595, 0, 0, 0, 0, 0
95, 765651, 0, 0, 0, 0, 0, 0, 0, 0, 0, 0, 0, 0, -44, -13, 38, -1580, 468, 14424, 595, 0, 0, 0, 0, 0
96, 769347, 0, 0, 0, 0, 0, 0, 0, 0, 0, 0, 0, 0, -39, -24, 37, -1928, 556, 15204, 595, 0, 0, 0, 0, 0
97, 773096, 0, 0, 0, 0, 0, 0, 0, 0, 0, 0, 0, 0, -45, -42, 38, -1904, 496, 15152, 595, 0, 0, 0, 0, 0
98, 776836, 0, 0, 0, 0, 0, 0, 0, 0, 0, 0, 0, 0, -42, -8, 37, -1600, 636, 14920, 595, 0, 0, 0, 0, 0
99, 780624, 0, 0, 0, 0, 0, 0, 0, 0, 0, 0, 0, 0, -43, -49, 37, -1960, 420, 15804, 595, 0, 0, 0, 0, 0
100, 784319, 0, 0, 0, 0, 0, 0, 0, 0, 0, 0, 0, 0, -41, -39, 36, -1668, 540, 14512, 595, 0, 0, 0, 0, 0
101, 788060, 0, 0, 0, 0, 0, 0, 0, 0, 0, 0, 0, 0, -43, -6, 33, -1640, 508, 14800, 595, 0, 0, 0, 0, 0
102, 791801, 0, 0, 0, 0, 0, 0, 0, 0, 0, 0, 0, 0, -42, -51, 37, -2012, 380, 15380, 595, 0, 0, 0, 0, 0
103, 795601, 0, 0, 0, 0, 0, 0, 0, 0, 0, 0, 0, 0, -42, -34, 37, -1584, 564, 14504, 595, 0, 0, 0, 0, 0
104, 799289, 0, 0, 0, 0, 0, 0, 0, 0, 0, 0, 0, 0, -40, -10, 38, -1740, 492, 15096, 595, 0, 0, 0, 0, 0
105, 803034, 0, 0, 0, 0, 0, 0, 0, 0, 0, 0, 0, 0, -46, -48, 39, -2012, 368, 15472, 595, 0, 0, 0, 0, 0
106, 806776, 0, 0, 0, 0, 0, 0, 0, 0, 0, 0, 0, 0, -42, -31, 37, -1588, 516, 14820, 595, 0, 0, 0, 0, 0
107, 810562, 0, 0, 0, 0, 0, 0, 0, 0, 0, 0, 0, 0, -43, -14, 34, -1788, 552, 15016, 595, 0, 0, 0, 0, 0
108, 814270, 0, 0, 0, 0, 0, 0, 0, 0, 0, 0, 0, 0, -44, -50, 37, -1908, 504, 15352, 595, 0, 0, 0, 0, 0
109, 818007, 0, 0, 0, 0, 0, 0, 0, 0, 0, 0, 0, 0, -42, -20, 30, -1552, 512, 14692, 595, 0, 0, 0, 0, 0
110, 821757, 0, 0, 0, 0, 0, 0, 0, 0, 0, 0, 0, 0, -40, -26, 36, -1892, 496, 15324, 595, 0, 0, 0, 0, 0
111, 825532, 0, 0, 0, 0, 0, 0, 0, 0, 0, 0, 0, 0, -43, -47, 37, -1860, 424, 14708, 595, 0, 0, 0, 0, 0
112, 829232, 0, 0, 0, 0, 0, 0, 0, 0, 0, 0, 0, 0, -47, -19, 37, -1708, 556, 14872, 595, 0, 0, 0, 0, 0
113, 832979, 0, 0, 0, 0, 0, 0, 0, 0, 0, 0, 0, 0, -42, -31, 37, -1908, 552, 15220, 595, 0, 0, 0, 0, 0
114, 836718, 0, 0, 0, 0, 0, 0, 0, 0, 0, 0, 0, 0, -40, -43, 36, -1964, 516, 15156, 595, 0, 0, 0, 0, 0
115, 840505, 0, 0, 0, 0, 0, 0, 0, 0, 0, 0, 0, 0, -44, -18, 37, -1652, 412, 14772, 595, 0, 0, 0, 0, 0
116, 844206, 0, 0, 0, 0, 0, 0, 0, 0, 0, 0, 0, 0, -42, -39, 36, -1944, 452, 15364, 595, 0, 0, 0, 0, 0
117, 847948, 0, 0, 0, 0, 0, 0, 0, 0, 0, 0, 0, 0, -43, -40, 38, -1760, 532, 14892, 595, 0, 0, 0, 0, 0
118, 851726, 0, 0, 0, 0, 0, 0, 0, 0, 0, 0, 0, 0, -39, -14, 35, -1776, 520, 14916, 595, 0, 0, 0, 0, 0
119, 855482, 0, 0, 0, 0, 0, 0, 0, 0, 0, 0, 0, 0, -43, -45, 38, -1944, 516, 15192, 595, 0, 0, 0, 0, 0
120, 859178, 0, 0, 0, 0, 0, 0, 0, 0, 0, 0, 0, 0, -43, -28, 35, -1620, 456, 14620, 595, 0, 0, 0, 0, 0
121, 862921, 0, 0, 0, 0, 0, 0, 0, 0, 0, 0, 0, 0, -42, -15, 37, -1688, 616, 14948, 595, 0, 0, 0, 0, 0
122, 866666, 0, 0, 0, 0, 0, 0, 0, 0, 0, 0, 0, 0, -42, -49, 38, -1956, 496, 15456, 595, 0, 0, 0, 0, 0
123, 921346, 0, 0, 0, 0, 0, 0, 0, 0, 0, 0, 0, 0, -42, -49, 38, -1956, 496, 15456, 595, 0, 0, 0, 0, 0
124, 924554, 0, 0, 0, 0, 0, 0, 0, 0, 0, 0, 0, 0, -44, -27, 36, -1736, 456, 14948, 595, 0, 0, 0, 0, 0
125, 928296, 0, 0, 0, 0, 0, 0, 0, 0, 0, 0, 0, 0, -44, -33, 36, -1860, 532, 15000, 595, 0, 0, 0, 0, 0
126, 932040, 0, 0, 0, 0, 0, 0, 0, 0, 0, 0, 0, 0, -44, -31, 36, -1688, 544, 15052, 595, 0, 0, 0, 0, 0
127, 935782, 0, 0, 0, 0, 0, 0, 0, 0, 0, 0, 0, 0, -43, -25, 36, -1840, 508, 15108, 595, 0, 0, 0, 0, 0
128, 939526, 0, 0, 0, 0, 0, 0, 0, 0, 0, 0, 0, 0, -41, -37, 35, -1844, 544, 15008, 595, 0, 0, 0, 0, 0
129, 943272, 0, 0, 0, 0, 0, 0, 0, 0, 0, 0, 0, 0, -45, -30, 36, -1672, 556, 14896, 595, 0, 0, 0, 0, 0
130, 947012, 0, 0, 0, 0, 0, 0, 0, 0, 0, 0, 0, 0, -42, -27, 36, -1732, 516, 14976, 595, 0, 0, 0, 0, 0
131, 951001, 0, 0, 0, 0, 0, 0, 0, 0, 0, 0, 0, 0, -40, -38, 38, -1804, 392, 15092, 595, 0, 0, 0, 0, 0
132, 954508, 0, 0, 0, 0, 0, 0, 0, 0, 0, 0, 0, 0, -42, -29, 36, -1676, 564, 14868, 595, 0, 0, 0, 0, 0
133, 958241, 0, 0, 0, 0, 0, 0, 0, 0, 0, 0, 0, 0, -45, -30, 34, -1804, 556, 15192, 595, 0, 0, 0, 0, 0
134, 961984, 0, 0, 0, 0, 0, 0, 0, 0, 0, 0, 0, 0, -39, -36, 33, -1716, 536, 15180, 595, 0, 0, 0, 0, 0
135, 965728, 0, 0, 0, 0, 0, 0, 0, 0, 0, 0, 0, 0, -40, -26, 37, -1772, 504, 15132, 595, 0, 0, 0, 0, 0
136, 969469, 0, 0, 0, 0, 0, 0, 0, 0, 0, 0, 0, 0, -43, -34, 36, -1808, 464, 15208, 595, 0, 0, 0, 0, 0
137, 973209, 0, 0, 0, 0, 0, 0, 0, 0, 0, 0, 0, 0, -43, -37, 34, -1836, 432, 15020, 595, 0, 0, 0, 0, 0
138, 976957, 0, 0, 0, 0, 0, 0, 0, 0, 0, 0, 0, 0, -41, -26, 34, -1824, 480, 14952, 595, 0, 0, 0, 0, 0
139, 980700, 0, 0, 0, 0, 0, 0, 0, 0, 0, 0, 0, 0, -40, -35, 38, -1832, 524, 15124, 595, 0, 0, 0, 0, 0
140, 984445, 0, 0, 0, 0, 0, 0, 0, 0, 0, 0, 0, 0, -44, -31, 34, -1732, 520, 14984, 595, 0, 0, 0, 0, 0
141, 988185, 0, 0, 0, 0, 0, 0, 0, 0, 0, 0, 0, 0, -43, -29, 35, -1796, 484, 14968, 595, 0, 0, 0, 0, 0
142, 991928, 0, 0, 0, 0, 0, 0, 0, 0, 0, 0, 0, 0, -38, -37, 36, -1760, 472, 15188, 595, 0, 0, 0, 0, 0
143, 995674, 0, 0, 0, 0, 0, 0, 0, 0, 0, 0, 0, 0, -43, -30, 37, -1684, 552, 14856, 595, 0, 0, 0, 0, 0
144, 999415, 0, 0, 0, 0, 0, 0, 0, 0, 0, 0, 0, 0, -43, -28, 33, -1752, 620, 14988, 595, 0, 0, 0, 0, 0
145, 1003159, 0, 0, 0, 0, 0, 0, 0, 0, 0, 0, 0, 0, -44, -30, 37, -1844, 556, 15084, 595, 0, 0, 0, 0, 0
146, 1006900, 0, 0, 0, 0, 0, 0, 0, 0, 0, 0, 0, 0, -43, -26, 36, -1772, 484, 15032, 595, 0, 0, 0, 0, 0
147, 1010642, 0, 0, 0, 0, 0, 0, 0, 0, 0, 0, 0, 0, -42, -33, 36, -1844, 424, 15432, 595, 0, 0, 0, 0, 0
148, 1014386, 0, 0, 0, 0, 0, 0, 0, 0, 0, 0, 0, 0, -42, -36, 37, -1768, 484, 15084, 595, 0, 0, 0, 0, 0
149, 1018129, 0, 0, 0, 0, 0, 0, 0, 0, 0, 0, 0, 0, -40, -28, 36, -1756, 436, 14860, 595, 0, 0, 0, 0, 0
150, 1021875, 0, 0, 0, 0, 0, 0, 0, 0, 0, 0, 0, 0, -43, -25, 36, -1940, 456, 15000, 595, 0, 0, 0, 0, 0
151, 1025624, 0, 0, 0, 0, 0, 0, 0, 0, 0, 0, 0, 0, -44, -36, 35, -1860, 512, 15080, 595, 0, 0, 0, 0, 0
152, 1029360, 0, 0, 0, 0, 0, 0, 0, 0, 0, 0, 0, 0, -44, -28, 35, -1752, 484, 14852, 595, 0, 0, 0, 0, 0
153, 1033099, 0, 0, 0, 0, 0, 0, 0, 0, 0, 0, 0, 0, -41, -31, 36, -1816, 488, 15024, 595, 0, 0, 0, 0, 0
154, 1036845, 0, 0, 0, 0, 0, 0, 0, 0, 0, 0, 0, 0, -44, -35, 39, -1800, 520, 15168, 595, 0, 0, 0, 0, 0
155, 1040588, 0, 0, 0, 0, 0, 0, 0, 0, 0, 0, 0, 0, -44, -27, 36, -1628, 540, 14876, 595, 0, 0, 0, 0, 0
156, 1044328, 0, 0, 0, 0, 0, 0, 0, 0, 0, 0, 0, 0, -40, -31, 37, -1784, 392, 15048, 595, 0, 0, 0, 0, 0
157, 1048064, 0, 0, 0, 0, 0, 0, 0, 0, 0, 0, 0, 0, -41, -36, 38, -1748, 412, 15040, 595, 0, 0, 0, 0, 0
158, 1051837, 0, 0, 0, 0, 0, 0, 0, 0, 0, 0, 0, 0, -44, -29, 37, -1860, 412, 15052, 595, 0, 0, 0, 0, 0
159, 1055558, 0, 0, 0, 0, 0, 0, 0, 0, 0, 0, 0, 0, -42, -33, 34, -1844, 464, 15012, 595, 0, 0, 0, 0, 0
160, 1059304, 0, 0, 0, 0, 0, 0, 0, 0, 0, 0, 0, 0, -41, -31, 37, -1688, 464, 14880, 595, 0, 0, 0, 0, 0
161, 1063047, 0, 0, 0, 0, 0, 0, 0, 0, 0, 0, 0, 0, -44, -26, 36, -1752, 360, 15028, 595, 0, 0, 0, 0, 0
162, 1066788, 0, 0, 0, 0, 0, 0, 0, 0, 0, 0, 0, 0, -46, -32, 37, -1876, 428, 15200, 595, 0, 0, 0, 0, 0
163, 1070530, 0, 0, 0, 0, 0, 0, 0, 0, 0, 0, 0, 0, -42, -30, 34, -1764, 528, 15044, 595, 0, 0, 0, 0, 0
164, 1074274, 0, 0, 0, 0, 0, 0, 0, 0, 0, 0, 0, 0, -40, -29, 31, -1760, 488, 15140, 595, 0, 0, 0, 0, 0
165, 1078143, 0, 0, 0, 0, 0, 0, 0, 0, 0, 0, 0, 0, -43, -32, 34, -1704, 412, 14988, 595, 0, 0, 0, 0, 0
166, 1081888, 0, 0, 0, 0, 0, 0, 0, 0, 0, 0, 0, 0, -43, -32, 37, -1716, 532, 14860, 595, 0, 0, 0, 0, 0
167, 1085627, 0, 0, 0, 0, 0, 0, 0, 0, 0, 0, 0, 0, -43, -30, 38, -1816, 504, 15036, 595, 0, 0, 0, 0, 0
168, 1089371, 0, 0, 0, 0, 0, 0, 0, 0, 0, 0, 0, 0, -42, -30, 35, -1852, 496, 14884, 595, 0, 0, 0, 0, 0
169, 1093120, 0, 0, 0, 0, 0, 0, 0, 0, 0, 0, 0, 0, -38, -28, 34, -1756, 516, 14780, 595, 0, 0, 0, 0, 0
170, 1096861, 0, 0, 0, 0, 0, 0, 0, 0, 0, 0, 0, 0, -43, -31, 37, -1764, 588, 14996, 595, 0, 0, 0, 0, 0
171, 1100600, 0, 0, 0, 0, 0, 0, 0, 0, 0, 0, 0, 0, -46, -31, 37, -1792, 436, 15080, 595, 0, 0, 0, 0, 0
172, 1104345, 0, 0, 0, 0, 0, 0, 0, 0, 0, 0, 0, 0, -44, -31, 35, -1800, 448, 15164, 595, 0, 0, 0, 0, 0
173, 1108096, 0, 0, 0, 0, 0, 0, 0, 0, 0, 0, 0, 0, -41, -32, 38, -1824, 516, 15112, 595, 0, 0, 0, 0, 0
174, 1111833, 0, 0, 0, 0, 0, 0, 0, 0, 0, 0, 0, 0, -41, -26, 37, -1684, 508, 14972, 595, 0, 0, 0, 0, 0
175, 1115574, 0, 0, 0, 0, 0, 0, 0, 0, 0, 0, 0, 0, -43, -29, 35, -1776, 540, 15240, 595, 0, 0, 0, 0, 0
176, 1119320, 0, 0, 0, 0, 0, 0, 0, 0, 0, 0, 0, 0, -42, -36, 39, -1904, 520, 15180, 595, 0, 0, 0, 0, 0
177, 1123062, 0, 0, 0, 0, 0, 0, 0, 0, 0, 0, 0, 0, -42, -33, 37, -1800, 580, 15072, 595, 0, 0, 0, 0, 0
178, 1126804, 0, 0, 0, 0, 0, 0, 0, 0, 0, 0, 0, 0, -45, -30, 36, -1720, 336, 14992, 595, 0, 0, 0, 0, 0
179, 1130548, 0, 0, 0, 0, 0, 0, 0, 0, 0, 0, 0, 0, -46, -29, 39, -1740, 536, 15012, 595, 0, 0, 0, 0, 0
180, 1134294, 0, 0, 0, 0, 0, 0, 0, 0, 0, 0, 0, 0, -42, -29, 34, -1912, 528, 15060, 595, 0, 0, 0, 0, 0
181, 1138036, 0, 0, 0, 0, 0, 0, 0, 0, 0, 0, 0, 0, -39, -30, 36, -1804, 516, 15076, 595, 0, 0, 0, 0, 0
182, 1141779, 0, 0, 0, 0, 0, 0, 0, 0, 0, 0, 0, 0, -47, -32, 38, -1792, 488, 15272, 595, 0, 0, 0, 0, 0
183, 1145530, 0, 0, 0, 0, 0, 0, 0, 0, 0, 0, 0, 0, -42, -31, 36, -1896, 524, 15072, 595, 0, 0, 0, 0, 0
184, 1149265, 0, 0, 0, 0, 0, 0, 0, 0, 0, 0, 0, 0, -44, -36, 37, -1740, 480, 14908, 595, 0, 0, 0, 0, 0
185, 1153065, 0, 0, 0, 0, 0, 0, 0, 0, 0, 0, 0, 0, -40, -24, 38, -1724, 508, 14816, 595, 0, 0, 0, 0, 0
186, 1156760, 0, 0, 0, 0, 0, 0, 0, 0, 0, 0, 0, 0, -45, -29, 32, -1824, 536, 15084, 595, 0, 0, 0, 0, 0
187, 1160494, 0, 0, 0, 0, 0, 0, 0, 0, 0, 0, 0, 0, -46, -35, 35, -1844, 456, 15256, 595, 0, 0, 0, 0, 0
188, 1164246, 0, 0, 0, 0, 0, 0, 0, 0, 0, 0, 0, 0, -42, -32, 34, -1764, 528, 15120, 595, 0, 0, 0, 0, 0
189, 1167976, 0, 0, 0, 0, 0, 0, 0, 0, 0, 0, 0, 0, -42, -36, 38, -1824, 436, 14960, 595, 0, 0, 0, 0, 0
190, 1171725, 0, 0, 0, 0, 0, 0, 0, 0, 0, 0, 0, 0, -42, -31, 37, -1692, 560, 14852, 595, 0, 0, 0, 0, 0
191, 1175472, 0, 0, 0, 0, 0, 0, 0, 0, 0, 0, 0, 0, -44, -25, 34, -1852, 524, 15032, 595, 0, 0, 0, 0, 0
192, 1179209, 0, 0, 0, 0, 0, 0, 0, 0, 0, 0, 0, 0, -41, -32, 36, -1788, 520, 15104, 595, 0, 0, 0, 0, 0
193, 1182959, 0, 0, 0, 0, 0, 0, 0, 0, 0, 0, 0, 0, -40, -35, 39, -1756, 560, 15164, 595, 0, 0, 0, 0, 0
194, 1186695, 0, 0, 0, 0, 0, 0, 0, 0, 0, 0, 0, 0, -42, -28, 36, -1708, 572, 15020, 595, 0, 0, 0, 0, 0
195, 1190436, 0, 0, 0, 0, 0, 0, 0, 0, 0, 0, 0, 0, -42, -34, 35, -1840, 536, 15040, 595, 0, 0, 0, 0, 0
196, 1194184, 0, 0, 0, 0, 0, 0, 0, 0, 0, 0, 0, 0, -42, -26, 40, -1780, 424, 15100, 595, 0, 0, 0, 0, 0
197, 1197926, 0, 0, 0, 0, 0, 0, 0, 0, 0, 0, 0, 0, -40, -34, 35, -1728, 512, 15288, 595, 0, 0, 0, 0, 0
198, 1201666, 0, 0, 0, 0, 0, 0, 0, 0, 0, 0, 0, 0, -40, -29, 36, -1752, 512, 15036, 595, 0, 0, 0, 0, 0
199, 1205410, 0, 0, 0, 0, 0, 0, 0, 0, 0, 0, 0, 0, -40, -29, 39, -1772, 556, 15172, 595, 0, 0, 0, 0, 0
200, 1209158, 0, 0, 0, 0, 0, 0, 0, 0, 0, 0, 0, 0, -40, -34, 38, -1664, 584, 14940, 595, 0, 0, 0, 0, 0
201, 1212904, 0, 0, 0, 0, 0, 0, 0, 0, 0, 0, 0, 0, -39, -22, 34, -1624, 520, 14752, 595, 0, 0, 0, 0, 0
202, 1216641, 0, 0, 0, 0, 0, 0, 0, 0, 0, 0, 0, 0, -41, -28, 35, -1800, 524, 15052, 595, 0, 0, 0, 0, 0
203, 1220384, 0, 0, 0, 0, 0, 0, 0, 0, 0, 0, 0, 0, -40, -34, 35, -1780, 516, 15172, 595, 0, 0, 0, 0, 0
204, 1224130, 0, 0, 0, 0, 0, 0, 0, 0, 0, 0, 0, 0, -42, -27, 36, -1752, 540, 15092, 595, 0, 0, 0, 0, 0
205, 1227870, 0, 0, 0, 0, 0, 0, 0, 0, 0, 0, 0, 0, -40, -36, 35, -1860, 600, 15264, 595, 0, 0, 0, 0, 0
206, 1231624, 0, 0, 0, 0, 0, 0, 0, 0, 0, 0, 0, 0, -44, -32, 37, -1696, 536, 15156, 595, 0, 0, 0, 0, 0
207, 1235358, 0, 0, 0, 0, 0, 0, 0, 0, 0, 0, 0, 0, -41, -25, 35, -1668, 492, 15120, 595, 0, 0, 0, 0, 0
208, 1290011, 0, 0, 0, 0, 0, 0, 0, 0, 0, 0, 0, 0, -41, -25, 35, -1668, 492, 15120, 595, 0, 0, 0, 0, 0
209, 1293255, 0, 0, 0, 0, 0, 0, 0, 0, 0, 0, 0, 0, -41, -33, 38, -1836, 392, 14936, 602, 0, 0, 0, 0, 0
210, 1296990, 0, 0, 0, 0, 0, 0, 0, 0, 0, 0, 0, 0, -43, -32, 35, -1732, 524, 14896, 602, 0, 0, 0, 0, 0
211, 1300727, 0, 0, 0, 0, 0, 0, 0, 0, 0, 0, 0, 0, -43, -30, 36, -1644, 436, 14864, 595, 0, 0, 0, 0, 0
212, 1304518, 0, 0, 0, 0, 0, 0, 0, 0, 0, 0, 0, 0, -44, -30, 35, -1736, 556, 15020, 595, 0, 0, 0, 0, 0
213, 1308213, 0, 0, 0, 0, 0, 0, 0, 0, 0, 0, 0, 0, -41, -33, 34, -1768, 404, 15052, 595, 0, 0, 0, 0, 0
214, 1311958, 0, 0, 0, 0, 0, 0, 0, 0, 0, 0, 0, 0, -43, -31, 36, -1768, 476, 14988, 595, 0, 0, 0, 0, 0
215, 1315698, 0, 0, 0, 0, 0, 0, 0, 0, 0, 0, 0, 0, -41, -30, 37, -1836, 504, 14952, 595, 0, 0, 0, 0, 0
216, 1319490, 0, 0, 0, 0, 0, 0, 0, 0, 0, 0, 0, 0, -44, -33, 36, -1788, 508, 14968, 595, 0, 0, 0, 0, 0
217, 1323186, 0, 0, 0, 0, 0, 0, 0, 0, 0, 0, 0, 0, -42, -31, 35, -1836, 608, 15052, 595, 0, 0, 0, 0, 0
218, 1326926, 0, 0, 0, 0, 0, 0, 0, 0, 0, 0, 0, 0, -45, -31, 35, -1736, 468, 15076, 595, 0, 0, 0, 0, 0
219, 1330666, 0, 0, 0, 0, 0, 0, 0, 0, 0, 0, 0, 0, -44, -30, 33, -1780, 436, 14940, 595, 0, 0, 0, 0, 0
220, 1334462, 0, 0, 0, 0, 0, 0, 0, 0, 0, 0, 0, 0, -44, -32, 37, -1688, 548, 15000, 595, 0, 0, 0, 0, 0
221, 1338159, 0, 0, 0, 0, 0, 0, 0, 0, 0, 0, 0, 0, -42, -35, 37, -1712, 480, 15104, 595, 0, 0, 0, 0, 0
222, 1341899, 0, 0, 0, 0, 0, 0, 0, 0, 0, 0, 0, 0, -39, -32, 36, -1632, 532, 15148, 595, 0, 0, 0, 0, 0
223, 1345643, 0, 0, 0, 0, 0, 0, 0, 0, 0, 0, 0, 0, -40, -33, 37, -1796, 512, 15064, 595, 0, 0, 0, 0, 0
224, 1349434, 0, 0, 0, 0, 0, 0, 0, 0, 0, 0, 0, 0, -42, -34, 34, -1896, 504, 15004, 595, 0, 0, 0, 0, 0
225, 1353165, 0, 0, 0, 0, 0, 0, 0, 0, 0, 0, 0, 0, -41, -31, 33, -1724, 524, 15100, 595, 0, 0, 0, 0, 0
226, 1356871, 0, 0, 0, 0, 0, 0, 0, 0, 0, 0, 0, 0, -44, -31, 33, -1784, 556, 15028, 595, 0, 0, 0, 0, 0
227, 1360625, 0, 0, 0, 0, 0, 0, 0, 0, 0, 0, 0, 0, -43, -31, 39, -1700, 552, 15060, 595, 0, 0, 0, 0, 0
228, 1364399, 0, 0, 0, 0, 0, 0, 0, 0, 0, 0, 0, 0, -42, -31, 37, -1736, 452, 15040, 595, 0, 0, 0, 0, 0
229, 1368113, 0, 0, 0, 0, 0, 0, 0, 0, 0, 0, 0, 0, -42, -32, 35, -1668, 544, 14988, 595, 0, 0, 0, 0, 0
230, 1371845, 0, 0, 0, 0, 0, 0, 0, 0, 0, 0, 0, 0, -43, -33, 36, -1788, 544, 15232, 595, 0, 0, 0, 0, 0
231, 1375581, 0, 0, 0, 0, 0, 0, 0, 0, 0, 0, 0, 0, -42, -28, 38, -1740, 436, 15152, 595, 0, 0, 0, 0, 0
232, 1379374, 0, 0, 0, 0, 0, 0, 0, 0, 0, 0, 0, 0, -43, -29, 34, -1756, 508, 15104, 595, 0, 0, 0, 0, 0
233, 1383069, 0, 0, 0, 0, 0, 0, 0, 0, 0, 0, 0, 0, -45, -31, 35, -1832, 504, 15040, 595, 0, 0, 0, 0, 0
234, 1386815, 0, 0, 0, 0, 0, 0, 0, 0, 0, 0, 0, 0, -44, -29, 36, -1664, 372, 15104, 595, 0, 0, 0, 0, 0
235, 1390555, 0, 0, 0, 0, 0, 0, 0, 0, 0, 0, 0, 0, -44, -29, 39, -1784, 448, 15076, 595, 0, 0, 0, 0, 0
236, 1394348, 0, 0, 0, 0, 0, 0, 0, 0, 0, 0, 0, 0, -42, -28, 35, -1844, 448, 14960, 595, 0, 0, 0, 0, 0
237, 1398053, 0, 0, 0, 0, 0, 0, 0, 0, 0, 0, 0, 0, -41, -30, 35, -1648, 488, 14960, 595, 0, 0, 0, 0, 0
238, 1401790, 0, 0, 0, 0, 0, 0, 0, 0, 0, 0, 0, 0, -42, -34, 34, -1792, 496, 15008, 595, 0, 0, 0, 0, 0
239, 1405532, 0, 0, 0, 0, 0, 0, 0, 0, 0, 0, 0, 0, -41, -29, 33, -1752, 456, 14916, 595, 0, 0, 0, 0, 0
240, 1409319, 0, 0, 0, 0, 0, 0, 0, 0, 0, 0, 0, 0, -44, -31, 33, -1780, 480, 15004, 595, 0, 0, 0, 0, 0
241, 1413016, 0, 0, 0, 0, 0, 0, 0, 0, 0, 0, 0, 0, -43, -30, 38, -1752, 492, 15044, 595, 0, 0, 0, 0, 0
242, 1416760, 0, 0, 0, 0, 0, 0, 0, 0, 0, 0, 0, 0, -41, -29, 35, -1832, 540, 15000, 595, 0, 0, 0, 0, 0
243, 1420504, 0, 0, 0, 0, 0, 0, 0, 0, 0, 0, 0, 0, -44, -31, 36, -1852, 504, 15140, 595, 0, 0, 0, 0, 0
244, 1424295, 0, 0, 0, 0, 0, 0, 0, 0, 0, 0, 0, 0, -42, -34, 35, -1716, 440, 15056, 595, 0, 0, 0, 0, 0
245, 1427995, 0, 0, 0, 0, 0, 0, 0, 0, 0, 0, 0, 0, -41, -28, 37, -1740, 532, 15036, 595, 0, 0, 0, 0, 0
246, 1431734, 0, 0, 0, 0, 0, 0, 0, 0, 0, 0, 0, 0, -44, -30, 36, -1824, 488, 15032, 595, 0, 0, 0, 0, 0
247, 1435476, 0, 0, 0, 0, 0, 0, 0, 0, 0, 0, 0, 0, -45, -27, 36, -1856, 504, 15036, 595, 0, 0, 0, 0, 0
248, 1439264, 0, 0, 0, 0, 0, 0, 0, 0, 0, 0, 0, 0, -44, -30, 35, -1752, 444, 15024, 595, 0, 0, 0, 0, 0
249, 1442963, 0, 0, 0, 0, 0, 0, 0, 0, 0, 0, 0, 0, -42, -31, 33, -1776, 416, 15040, 595, 0, 0, 0, 0, 0
250, 1446830, 0, 0, 0, 0, 0, 0, 0, 0, 0, 0, 0, 0, -41, -29, 37, -1820, 576, 14992, 595, 0, 0, 0, 0, 0
251, 1450583, 0, 0, 0, 0, 0, 0, 0, 0, 0, 0, 0, 0, -43, -33, 37, -1840, 480, 15032, 595, 0, 0, 0, 0, 0
252, 1454386, 0, 0, 0, 0, 0, 0, 0, 0, 0, 0, 0, 0, -44, -30, 37, -1752, 504, 15028, 595, 0, 0, 0, 0, 0
253, 1458060, 0, 0, 0, 0, 0, 0, 0, 0, 0, 0, 0, 0, -44, -27, 36, -1760, 516, 14928, 595, 0, 0, 0, 0, 0
254, 1461804, 0, 0, 0, 0, 0, 0, 0, 0, 0, 0, 0, 0, -42, -33, 34, -1804, 524, 14956, 595, 0, 0, 0, 0, 0
255, 1465547, 0, 0, 0, 0, 0, 0, 0, 0, 0, 0, 0, 0, -41, -30, 34, -1824, 436, 15028, 595, 0, 0, 0, 0, 0
256, 1469338, 0, 0, 0, 0, 0, 0, 0, 0, 0, 0, 0, 0, -43, -30, 33, -1728, 492, 14976, 595, 0, 0, 0, 0, 0
257, 1473034, 0, 0, 0, 0, 0, 0, 0, 0, 0, 0, 0, 0, -42, -28, 36, -1676, 580, 14860, 595, 0, 0, 0, 0, 0
258, 1476773, 0, 0, 0, 0, 0, 0, 0, 0, 0, 0, 0, 0, -44, -31, 38, -1752, 572, 14988, 595, 0, 0, 0, 0, 0
259, 1480525, 0, 0, 0, 0, 0, 0, 0, 0, 0, 0, 0, 0, -39, -30, 36, -1736, 644, 15132, 595, 0, 0, 0, 0, 0
260, 1484306, 0, 0, 0, 0, 0, 0, 0, 0, 0, 0, 0, 0, -43, -27, 35, -1712, 456, 15080, 595, 0, 0, 0, 0, 0
261, 1488006, 0, 0, 0, 0, 0, 0, 0, 0, 0, 0, 0, 0, -42, -32, 36, -1876, 500, 15024, 595, 0, 0, 0, 0, 0
262, 1491757, 0, 0, 0, 0, 0, 0, 0, 0, 0, 0, 0, 0, -42, -31, 35, -1736, 528, 15092, 595, 0, 0, 0, 0, 0
263, 1495490, 0, 0, 0, 0, 0, 0, 0, 0, 0, 0, 0, 0, -39, -32, 34, -1764, 588, 15056, 595, 0, 0, 0, 0, 0
264, 1499275, 0, 0, 0, 0, 0, 0, 0, 0, 0, 0, 0, 0, -40, -31, 38, -1736, 428, 15088, 595, 0, 0, 0, 0, 0
265, 1502976, 0, 0, 0, 0, 0, 0, 0, 0, 0, 0, 0, 0, -44, -31, 36, -1796, 480, 15024, 595, 0, 0, 0, 0, 0
266, 1506718, 0, 0, 0, 0, 0, 0, 0, 0, 0, 0, 0, 0, -41, -31, 34, -1660, 472, 15036, 595, 0, 0, 0, 0, 0
267, 1510468, 0, 0, 0, 0, 0, 0, 0, 0, 0, 0, 0, 0, -43, -28, 34, -1692, 536, 15040, 595, 0, 0, 0, 0, 0
268, 1514257, 0, 0, 0, 0, 0, 0, 0, 0, 0, 0, 0, 0, -42, -33, 37, -1812, 588, 15220, 595, 0, 0, 0, 0, 0
269, 1517956, 0, 0, 0, 0, 0, 0, 0, 0, 0, 0, 0, 0, -39, -34, 34, -1844, 476, 15008, 595, 0, 0, 0, 0, 0
270, 1521687, 0, 0, 0, 0, 0, 0, 0, 0, 0, 0, 0, 0, -40, -30, 35, -1748, 480, 15188, 595, 0, 0, 0, 0, 0
271, 1525431, 0, 0, 0, 0, 0, 0, 0, 0, 0, 0, 0, 0, -41, -35, 37, -1760, 516, 15192, 595, 0, 0, 0, 0, 0
272, 1529219, 0, 0, 0, 0, 0, 0, 0, 0, 0, 0, 0, 0, -43, -31, 37, -1716, 472, 14972, 595, 0, 0, 0, 0, 0
273, 1532917, 0, 0, 0, 0, 0, 0, 0, 0, 0, 0, 0, 0, -39, -25, 36, -1796, 516, 15000, 595, 0, 0, 0, 0, 0
274, 1536657, 0, 0, 0, 0, 0, 0, 0, 0, 0, 0, 0, 0, -38, -32, 38, -1760, 420, 15060, 595, 0, 0, 0, 0, 0
275, 1540401, 0, 0, 0, 0, 0, 0, 0, 0, 0, 0, 0, 0, -43, -30, 39, -1784, 552, 15008, 595, 0, 0, 0, 0, 0
276, 1544192, 0, 0, 0, 0, 0, 0, 0, 0, 0, 0, 0, 0, -37, -32, 37, -1688, 532, 15076, 595, 0, 0, 0, 0, 0
277, 1547897, 0, 0, 0, 0, 0, 0, 0, 0, 0, 0, 0, 0, -37, -33, 33, -1728, 608, 15136, 595, 0, 0, 0, 0, 0
278, 1551673, 0, 0, 0, 0, 0, 0, 0, 0, 0, 0, 0, 0, -41, -30, 34, -1780, 596, 14888, 595, 0, 0, 0, 0, 0
279, 1555376, 0, 0, 0, 0, 0, 0, 0, 0, 0, 0, 0, 0, -38, -30, 36, -1756, 512, 15080, 595, 0, 0, 0, 0, 0
280, 1559165, 0, 0, 0, 0, 0, 0, 0, 0, 0, 0, 0, 0, -38, -29, 35, -1748, 480, 14976, 595, 0, 0, 0, 0, 0
281, 1562863, 0, 0, 0, 0, 0, 0, 0, 0, 0, 0, 0, 0, -39, -28, 36, -1756, 552, 15072, 595, 0, 0, 0, 0, 0
282, 1566599, 0, 0, 0, 0, 0, 0, 0, 0, 0, 0, 0, 0, -40, -29, 35, -1804, 460, 15052, 595, 0, 0, 0, 0, 0
283, 1570346, 0, 0, 0, 0, 0, 0, 0, 0, 0, 0, 0, 0, -41, -29, 36, -1728, 520, 14960, 595, 0, 0, 0, 0, 0
284, 1574130, 0, 0, 0, 0, 0, 0, 0, 0, 0, 0, 0, 0, -38, -31, 38, -1764, 448, 14892, 595, 0, 0, 0, 0, 0
285, 1577837, 0, 0, 0, 0, 0, 0, 0, 0, 0, 0, 0, 0, -40, -32, 35, -1728, 484, 15088, 595, 0, 0, 0, 0, 0
286, 1581568, 0, 0, 0, 0, 0, 0, 0, 0, 0, 0, 0, 0, -42, -31, 35, -1740, 432, 14984, 595, 0, 0, 0, 0, 0
287, 1585317, 0, 0, 0, 0, 0, 0, 0, 0, 0, 0, 0, 0, -43, -30, 39, -1856, 520, 15064, 595, 0, 0, 0, 0, 0
288, 1589108, 0, 0, 0, 0, 0, 0, 0, 0, 0, 0, 0, 0, -41, -34, 37, -1692, 540, 15020, 595, 0, 0, 0, 0, 0
289, 1592810, 0, 0, 0, 0, 0, 0, 0, 0, 0, 0, 0, 0, -41, -30, 36, -1812, 572, 14852, 595, 0, 0, 0, 0, 0
290, 1596546, 0, 0, 0, 0, 0, 0, 0, 0, 0, 0, 0, 0, -45, -26, 37, -1772, 616, 15064, 595, 0, 0, 0, 0, 0
291, 1600288, 0, 0, 0, 0, 0, 0, 0, 0, 0, 0, 0, 0, -41, -30, 37, -1756, 576, 14964, 595, 0, 0, 0, 0, 0
292, 1604085, 0, 0, 0, 0, 0, 0, 0, 0, 0, 0, 0, 0, -42, -30, 35, -1800, 484, 15020, 595, 0, 0, 0, 0, 0
293, 1658681, 0, 0, 0, 0, 0, 0, 0, 0, 0, 0, 0, 0, -42, -30, 35, -1800, 484, 15020, 595, 0, 0, 0, 0, 0
294, 1661926, 0, 0, 0, 0, 0, 0, 0, 0, 0, 0, 0, 0, -51, -22, 35, -1756, 488, 14852, 595, 0, 0, 0, 0, 0
295, 1665654, 0, 0, 0, 0, 0, 0, 0, 0, 0, 0, 0, 0, -49, -36, 36, -1884, 488, 15260, 595, 0, 0, 0, 0, 0
296, 1669400, 0, 0, 0, 0, 0, 0, 0, 0, 0, 0, 0, 0, -47, -33, 37, -1736, 520, 14896, 595, 0, 0, 0, 0, 0
297, 1673141, 0, 0, 0, 0, 0, 0, 0, 0, 0, 0, 0, 0, -43, -22, 35, -1728, 472, 14788, 595, 0, 0, 0, 0, 0
298, 1676884, 0, 0, 0, 0, 0, 0, 0, 0, 0, 0, 0, 0, -43, -38, 38, -1956, 564, 15380, 595, 0, 0, 0, 0, 0
299, 1680629, 0, 0, 0, 0, 0, 0, 0, 0, 0, 0, 0, 0, -42, -27, 39, -1568, 560, 14680, 595, 0, 0, 0, 0, 0
300, 1684366, 0, 0, 0, 0, 0, 0, 0, 0, 0, 0, 0, 0, -45, -21, 38, -1912, 412, 15068, 595, 0, 0, 0, 0, 0
301, 1688121, 0, 0, 0, 0, 0, 0, 0, 0, 0, 0, 0, 0, -42, -47, 39, -1980, 452, 15356, 595, 0, 0, 0, 0, 0
302, 1691857, 0, 0, 0, 0, 0, 0, 0, 0, 0, 0, 0, 0, -41, -22, 37, -1604, 492, 14844, 595, 0, 0, 0, 0, 0
303, 1695600, 0, 0, 0, 0, 0, 0, 0, 0, 0, 0, 0, 0, -39, -27, 38, -1884, 424, 15472, 595, 0, 0, 0, 0, 0
304, 1699339, 0, 0, 0, 0, 0, 0, 0, 0, 0, 0, 0, 0, -36, -38, 38, -1828, 460, 15192, 595, 0, 0, 0, 0, 0
305, 1703081, 0, 0, 0, 0, 0, 0, 0, 0, 0, 0, 0, 0, -34, -26, 40, -1712, 640, 15036, 595, 0, 0, 0, 0, 0
306, 1706822, 0, 0, 0, 0, 0, 0, 0, 0, 0, 0, 0, 0, -33, -32, 37, -1812, 488, 15128, 595, 0, 0, 0, 0, 0
307, 1710560, 0, 0, 0, 0, 0, 0, 0, 0, 0, 0, 0, 0, -25, -38, 37, -1780, 356, 15216, 595, 0, 0, 0, 0, 0
308, 1714310, 0, 0, 0, 0, 0, 0, 0, 0, 0, 0, 0, 0, -10, -26, 39, -1724, 152, 14740, 595, 0, 0, 0, 0, 0
309, 1718047, 0, 0, 0, 0, 0, 0, 0, 0, 0, 0, 0, 0, 6, -21, 33, -1892, 268, 15256, 595, 0, 0, 0, 0, 0
310, 1721795, 0, 0, 0, 0, 0, 0, 0, 0, 0, 0, 0, 0, 30, -31, 34, -1632, 92, 15884, 595, 0, 0, 0, 0, 0
311, 1725547, 0, 0, 0, 0, 0, 0, 0, 0, 0, 0, 0, 0, 38, -38, 33, -2000, 384, 15752, 595, 0, 0, 0, 0, 0
312, 1729284, 0, 0, 0, 0, 0, 0, 0, 0, 0, 0, 0, 0, 36, -50, 33, -1612, 572, 14856, 595, 0, 0, 0, 0, 0
313, 1733024, 0, 0, 0, 0, 0, 0, 0, 0, 0, 0, 0, 0, 27, -23, 35, -1440, 468, 14364, 595, 0, 0, 0, 0, 0
314, 1736769, 0, 0, 0, 0, 0, 0, 0, 0, 0, 0, 0, 0, -63, -107, 26, -2372, 1928, 14612, 595, 0, 0, 0, 0, 0
315, 1740514, 0, 0, 0, 0, 0, 0, 0, 0, 0, 0, 0, 0, -225, -2, 13, -1412, 3204, 10296, 595, 0, 0, 0, 0, 0
316, 1744252, 0, 0, 0, 0, 0, 0, 0, 0, 0, 0, 0, 0, -237, 102, 46, -536, 768, 14388, 595, 0, 0, 0, 0, 0
317, 1747993, 0, 0, 0, 0, 0, 0, 0, 0, 0, 0, 0, 0, -96, -58, 53, -2760, -1536, 19500, 595, 0, 0, 0, 0, 0
318, 1751773, 0, 0, 0, 0, 0, 0, 0, 0, 0, 0, 0, 0, -29, -174, 37, -2388, -440, 16348, 595, 0, 0, 0, 0, 0
319, 1755491, 0, 0, 0, 0, 0, 0, 0, 0, 0, 0, 0, 0, -60, 51, 33, -160, 644, 11596, 595, 0, 0, 0, 0, 0
320, 1759218, 0, 0, 0, 0, 0, 0, 0, 0, 0, 0, 0, 0, -39, 42, 38, -3240, 384, 18192, 595, 0, 0, 0, 0, 0
321, 1762968, 0, 0, 0, 0, 0, 0, 0, 0, 0, 0, 0, 0, -50, -215, 47, -3452, 712, 18160, 595, 0, 0, 0, 0, 0
322, 1766707, 0, 0, 0, 0, 0, 0, 0, 0, 0, 0, 0, 0, -36, 120, 37, 364, 228, 11184, 595, 0, 0, 0, 0, 0
323, 1770460, 0, 0, 0, 0, 0, 0, 0, 0, 0, 0, 0, 0, -36, -53, 40, -3436, 692, 17916, 595, 0, 0, 0, 0, 0
324, 1774197, 0, 0, 0, 0, 0, 0, 0, 0, 0, 0, 0, 0, -52, -190, 40, -1540, 640, 14612, 595, 0, 0, 0, 0, 0
325, 1777937, 0, 0, 0, 0, 0, 0, 0, 0, 0, 0, 0, 0, -67, 189, 28, -132, 680, 11580, 595, 0, 0, 0, 0, 0
326, 1781675, 0, 0, 0, 0, 0, 0, 0, 0, 0, 0, 0, 0, -34, -77, 33, -4220, 204, 19700, 595, 0, 0, 0, 0, 0
327, 1785418, 0, 0, 0, 0, 0, 0, 0, 0, 0, 0, 0, 0, -31, -206, 42, -236, 140, 13748, 595, 0, 0, 0, 0, 0
328, 1789166, 0, 0, 0, 0, 0, 0, 0, 0, 0, 0, 0, 0, -42, 184, 23, -1336, 1112, 13072, 595, 0, 0, 0, 0, 0
329, 1792903, 0, 0, 0, 0, 0, 0, 0, 0, 0, 0, 0, 0, -57, -119, 37, -3284, 592, 18492, 595, 0, 0, 0, 0, 0
330, 1796647, 0, 0, 0, 0, 0, 0, 0, 0, 0, 0, 0, 0, -46, -96, 30, -1544, 416, 14336, 595, 0, 0, 0, 0, 0
331, 1800398, 0, 0, 0, 0, 0, 0, 0, 0, 0, 0, 0, 0, -37, 124, 28, -844, 576, 13468, 595, 0, 0, 0, 0, 0
332, 1804134, 0, 0, 0, 0, 0, 0, 0, 0, 0, 0, 0, 0, -17, -146, 38, -3268, -320, 18700, 595, 0, 0, 0, 0, 0
333, 1807880, 0, 0, 0, 0, 0, 0, 0, 0, 0, 0, 0, 0, -24, -83, 32, -896, 1108, 12628, 595, 0, 0, 0, 0, 0
334, 1811630, 0, 0, 0, 0, 0, 0, 0, 0, 0, 0, 0, 0, -46, 110, 22, -1304, 816, 14076, 595, 0, 0, 0, 0, 0
335, 1815487, 0, 0, 0, 0, 0, 0, 0, 0, 0, 0, 0, 0, -6, -89, 43, -2732, -500, 18272, 595, 0, 0, 0, 0, 0
336, 1819241, 0, 0, 0, 0, 0, 0, 0, 0, 0, 0, 0, 0, 50, -92, 32, -1168, 160, 13936, 595, 0, 0, 0, 0, 0
337, 1822977, 0, 0, 0, 0, 0, 0, 0, 0, 0, 0, 0, 0, 38, 54, 13, -1436, 912, 13312, 595, 0, 0, 0, 0, 0
338, 1826715, 0, 0, 0, 0, 0, 0, 0, 0, 0, 0, 0, 0, 24, -116, 44, -1968, 536, 17076, 595, 0, 0, 0, 0, 0
339, 1830465, 0, 0, 0, 0, 0, 0, 0, 0, 0, 0, 0, 0, 8, 19, 27, -1684, 744, 12364, 595, 0, 0, 0, 0, 0
340, 1834200, 0, 0, 0, 0, 0, 0, 0, 0, 0, 0, 0, 0, -2, -26, 33, -2060, 716, 16568, 595, 0, 0, 0, 0, 0
341, 1837951, 0, 0, 0, 0, 0, 0, 0, 0, 0, 0, 0, 0, 13, -76, 40, -1600, 644, 14700, 595, 0, 0, 0, 0, 0
342, 1841679, 0, 0, 0, 0, 0, 0, 0, 0, 0, 0, 0, 0, 22, 48, 21, -2332, 368, 15212, 595, 0, 0, 0, 0, 0
343, 1845422, 0, 0, 0, 0, 0, 0, 0, 0, 0, 0, 0, 0, 66, -119, 28, -1936, -60, 17464, 595, 0, 0, 0, 0, 0
344, 1849177, 0, 0, 0, 0, 0, 0, 0, 0, 0, 0, 0, 0, 102, -21, 36, -580, -136, 13136, 595, 0, 0, 0, 0, 0
345, 1852948, 0, 0, 0, 0, 0, 0, 0, 0, 0, 0, 0, 0, 120, 56, 24, -1508, 424, 14452, 595, 0, 0, 0, 0, 0
346, 1856653, 0, 0, 0, 0, 0, 0, 0, 0, 0, 0, 0, 0, 126, -158, 26, -3136, 284, 17840, 595, 0, 0, 0, 0, 0
347, 1860399, 0, 0, 0, 0, 0, 0, 0, 0, 0, 0, 0, 0, 102, 2, 19, -668, 932, 12576, 595, 0, 0, 0, 0, 0
348, 1864141, 0, 0, 0, 0, 0, 0, 0, 0, 0, 0, 0, 0, 65, 24, 25, -1780, 1444, 14848, 595, 0, 0, 0, 0, 0
349, 1867894, 0, 0, 0, 0, 0, 0, 0, 0, 0, 0, 0, 0, 36, -114, 36, -1868, 1040, 15116, 595, 0, 0, 0, 0, 0
350, 1871626, 0, 0, 0, 0, 0, 0, 0, 0, 0, 0, 0, 0, 46, 45, 31, -840, 572, 13580, 595, 0, 0, 0, 0, 0
351, 1875370, 0, 0, 0, 0, 0, 0, 0, 0, 0, 0, 0, 0, 24, -73, 49, -2972, 676, 16596, 595, 0, 0, 0, 0, 0
352, 1879124, 0, 0, 0, 0, 0, 0, 0, 0, 0, 0, 0, 0, -24, -117, 60, -792, 1472, 12164, 595, 0, 0, 0, 0, 0
353, 1882860, 0, 0, 0, 0, 0, 0, 0, 0, 0, 0, 0, 0, -61, 107, 30, -840, 1276, 11556, 595, 0, 0, 0, 0, 0
354, 1886600, 0, 0, 0, 0, 0, 0, 0, 0, 0, 0, 0, 0, -61, -93, 39, -2528, 912, 17560, 595, 0, 0, 0, 0, 0
355, 1890339, 0, 0, 0, 0, 0, 0, 0, 0, 0, 0, 0, 0, -57, -51, 32, -1512, 380, 13892, 595, 0, 0, 0, 0, 0
356, 1894093, 0, 0, 0, 0, 0, 0, 0, 0, 0, 0, 0, 0, -43, 55, 35, -1292, 436, 14692, 595, 0, 0, 0, 0, 0
357, 1897834, 0, 0, 0, 0, 0, 0, 0, 0, 0, 0, 0, 0, -22, -98, 34, -2720, 352, 16348, 595, 0, 0, 0, 0, 0
358, 1901567, 0, 0, 0, 0, 0, 0, 0, 0, 0, 0, 0, 0, -20, -25, 30, -1044, 360, 13976, 595, 0, 0, 0, 0, 0
359, 1905310, 0, 0, 0, 0, 0, 0, 0, 0, 0, 0, 0, 0, 2, 36, 33, -2044, 200, 15988, 595, 0, 0, 0, 0, 0
360, 1909053, 0, 0, 0, 0, 0, 0, 0, 0, 0, 0, 0, 0, 28, -102, 30, -2256, 104, 16776, 595, 0, 0, 0, 0, 0
361, 1912803, 0, 0, 0, 0, 0, 0, 0, 0, 0, 0, 0, 0, 52, -25, 29, -1432, 148, 14660, 595, 0, 0, 0, 0, 0
362, 1916539, 0, 0, 0, 0, 0, 0, 0, 0, 0, 0, 0, 0, 58, 12, 24, -1908, 584, 14864, 595, 0, 0, 0, 0, 0
363, 1920284, 0, 0, 0, 0, 0, 0, 0, 0, 0, 0, 0, 0, 48, -103, 17, -2620, 880, 15868, 595, 0, 0, 0, 0, 0
364, 1924027, 0, 0, 0, 0, 0, 0, 0, 0, 0, 0, 0, 0, 37, -2, -7, -1648, 1184, 13516, 595, 0, 0, 0, 0, 0
365, 1927779, 0, 0, 0, 0, 0, 0, 0, 0, 0, 0, 0, 0, 5, -52, -15, -2512, 1488, 15232, 595, 0, 0, 0, 0, 0
366, 1931522, 0, 0, 0, 0, 0, 0, 0, 0, 0, 0, 0, 0, -40, -58, -30, -1616, 1736, 13344, 595, 0, 0, 0, 0, 0
367, 1935255, 0, 0, 0, 0, 0, 0, 0, 0, 0, 0, 0, 0, -75, 32, -53, -1960, 1812, 14292, 595, 0, 0, 0, 0, 0
368, 1938999, 0, 0, 0, 0, 0, 0, 0, 0, 0, 0, 0, 0, -100, -68, -70, -2588, 1252, 15792, 595, 0, 0, 0, 0, 0
369, 1942745, 0, 0, 0, 0, 0, 0, 0, 0, 0, 0, 0, 0, -98, -21, -85, -1860, 884, 14652, 595, 0, 0, 0, 0, 0
370, 1946481, 0, 0, 0, 0, 0, 0, 0, 0, 0, 0, 0, 0, -77, 0, -93, -2012, 408, 15076, 595, 0, 0, 0, 0, 0
371, 1950227, 0, 0, 0, 0, 0, 0, 0, 0, 0, 0, 0, 0, -54, -88, -91, -2308, 228, 16228, 595, 0, 0, 0, 0, 0
372, 1954014, 0, 0, 0, 0, 0, 0, 0, 0, 0, 0, 0, 0, -40, -2, -99, -1340, 448, 14276, 595, 0, 0, 0, 0, 0
373, 1957719, 0, 0, 0, 0, 0, 0, 0, 0, 0, 0, 0, 0, -33, -39, -93, -2056, 364, 15852, 595, 0, 0, 0, 0, 0
374, 1961462, 0, 0, 0, 0, 0, 0, 0, 0, 0, 0, 0, 0, -33, -63, -87, -1400, 596, 14584, 595, 0, 0, 0, 0, 0
375, 1965199, 0, 0, 0, 0, 0, 0, 0, 0, 0, 0, 0, 0, -36, 15, -83, -1684, 492, 14872, 595, 0, 0, 0, 0, 0
376, 1968934, 0, 0, 0, 0, 0, 0, 0, 0, 0, 0, 0, 0, -42, -58, -75, -1992, 484, 15756, 595, 0, 0, 0, 0, 0
377, 1972681, 0, 0, 0, 0, 0, 0, 0, 0, 0, 0, 0, 0, -44, -31, -71, -1564, 532, 14892, 595, 0, 0, 0, 0, 0
378, 2027316, 0, 0, 0, 0, 0, 0, 0, 0, 0, 0, 0, 0, -44, -31, -71, -1564, 532, 14892, 595, 0, 0, 0, 0, 0
379, 2030565, 0, 0, 0, 0, 0, 0, 0, 0, 0, 0, 0, 0, -56, 19, 4, -1528, -452, 15728, 595, 0, 0, 0, 0, 0
380, 2034306, 0, 0, 0, 0, 0, 0, 0, 0, 0, 0, 0, 0, -37, -125, 8, -2776, -332, 17188, 595, 0, 0, 0, 0, 0
381, 2038108, 0, 0, 0, 0, 0, 0, 0, 0, 0, 0, 0, 0, -48, -17, 14, -480, 528, 12740, 595, 0, 0, 0, 0, 0
382, 2041790, 0, 0, 0, 0, 0, 0, 0, 0, 0, 0, 0, 0, -45, 44, 25, -1916, 364, 15804, 595, 0, 0, 0, 0, 0
383, 2045541, 0, 0, 0, 0, 0, 0, 0, 0, 0, 0, 0, 0, -51, -130, 34, -1860, 484, 15568, 595, 0, 0, 0, 0, 0
384, 2049281, 0, 0, 0, 0, 0, 0, 0, 0, 0, 0, 0, 0, -49, 36, 27, -780, 484, 13556, 595, 0, 0, 0, 0, 0
385, 2053099, 0, 0, 0, 0, 0, 0, 0, 0, 0, 0, 0, 0, -49, -12, 32, -1824, 484, 15960, 595, 0, 0, 0, 0, 0
386, 2056761, 0, 0, 0, 0, 0, 0, 0, 0, 0, 0, 0, 0, -41, -108, 40, -2236, 328, 16296, 595, 0, 0, 0, 0, 0
387, 2060509, 0, 0, 0, 0, 0, 0, 0, 0, 0, 0, 0, 0, -39, 37, 30, -888, 508, 13480, 595, 0, 0, 0, 0, 0
388, 2064252, 0, 0, 0, 0, 0, 0, 0, 0, 0, 0, 0, 0, -42, -44, 36, -2380, 496, 16196, 595, 0, 0, 0, 0, 0
389, 2068044, 0, 0, 0, 0, 0, 0, 0, 0, 0, 0, 0, 0, -41, -75, 39, -1556, 412, 14456, 595, 0, 0, 0, 0, 0
390, 2071737, 0, 0, 0, 0, 0, 0, 0, 0, 0, 0, 0, 0, -42, 33, 37, -1428, 456, 14348, 595, 0, 0, 0, 0, 0
391, 2075483, 0, 0, 0, 0, 0, 0, 0, 0, 0, 0, 0, 0, -40, -64, 37, -2364, 360, 16136, 595, 0, 0, 0, 0, 0
392, 2079225, 0, 0, 0, 0, 0, 0, 0, 0, 0, 0, 0, 0, -37, -51, 36, -1220, 504, 13784, 595, 0, 0, 0, 0, 0
393, 2083015, 0, 0, 0, 0, 0, 0, 0, 0, 0, 0, 0, 0, -41, 23, 35, -1296, 480, 14004, 595, 0, 0, 0, 0, 0
394, 2086710, 0, 0, 0, 0, 0, 0, 0, 0, 0, 0, 0, 0, -39, -72, 38, -2248, 452, 16168, 595, 0, 0, 0, 0, 0
395, 2090457, 0, 0, 0, 0, 0, 0, 0, 0, 0, 0, 0, 0, -38, -29, 37, -1448, 388, 14520, 595, 0, 0, 0, 0, 0
396, 2094192, 0, 0, 0, 0, 0, 0, 0, 0, 0, 0, 0, 0, -42, -1, 37, -1752, 480, 15060, 595, 0, 0, 0, 0, 0
397, 2097987, 0, 0, 0, 0, 0, 0, 0, 0, 0, 0, 0, 0, -41, -69, 36, -2168, 540, 15512, 595, 0, 0, 0, 0, 0
398, 2101681, 0, 0, 0, 0, 0, 0, 0, 0, 0, 0, 0, 0, -41, -12, 35, -1368, 508, 14276, 595, 0, 0, 0, 0, 0
399, 2105418, 0, 0, 0, 0, 0, 0, 0, 0, 0, 0, 0, 0, -42, -14, 36, -2128, 484, 15580, 595, 0, 0, 0, 0, 0
400, 2109160, 0, 0, 0, 0, 0, 0, 0, 0, 0, 0, 0, 0, -42, -61, 36, -1716, 560, 15040, 595, 0, 0, 0, 0, 0
401, 2112961, 0, 0, 0, 0, 0, 0, 0, 0, 0, 0, 0, 0, -39, -6, 36, -1484, 536, 14444, 595, 0, 0, 0, 0, 0
402, 2116650, 0, 0, 0, 0, 0, 0, 0, 0, 0, 0, 0, 0, -41, -33, 36, -1892, 584, 15480, 595, 0, 0, 0, 0, 0
403, 2120388, 0, 0, 0, 0, 0, 0, 0, 0, 0, 0, 0, 0, -38, -47, 37, -1780, 552, 14924, 595, 0, 0, 0, 0, 0
404, 2124132, 0, 0, 0, 0, 0, 0, 0, 0, 0, 0, 0, 0, -41, -7, 33, -1652, 484, 14768, 595, 0, 0, 0, 0, 0
405, 2127921, 0, 0, 0, 0, 0, 0, 0, 0, 0, 0, 0, 0, -39, -44, 38, -1988, 496, 15408, 595, 0, 0, 0, 0, 0
406, 2131623, 0, 0, 0, 0, 0, 0, 0, 0, 0, 0, 0, 0, -40, -34, 34, -1640, 524, 14700, 595, 0, 0, 0, 0, 0
407, 2135359, 0, 0, 0, 0, 0, 0, 0, 0, 0, 0, 0, 0, -40, -14, 32, -1788, 548, 15056, 595, 0, 0, 0, 0, 0
408, 2139112, 0, 0, 0, 0, 0, 0, 0, 0, 0, 0, 0, 0, -41, -44, 39, -1760, 492, 15200, 595, 0, 0, 0, 0, 0
409, 2142891, 0, 0, 0, 0, 0, 0, 0, 0, 0, 0, 0, 0, -43, -26, 36, -1676, 508, 14920, 595, 0, 0, 0, 0, 0
410, 2146587, 0, 0, 0, 0, 0, 0, 0, 0, 0, 0, 0, 0, -42, -26, 37, -1816, 556, 15028, 595, 0, 0, 0, 0, 0
411, 2150333, 0, 0, 0, 0, 0, 0, 0, 0, 0, 0, 0, 0, -43, -44, 38, -1824, 552, 15296, 595, 0, 0, 0, 0, 0
412, 2154093, 0, 0, 0, 0, 0, 0, 0, 0, 0, 0, 0, 0, -41, -23, 34, -1600, 528, 14648, 595, 0, 0, 0, 0, 0
413, 2157864, 0, 0, 0, 0, 0, 0, 0, 0, 0, 0, 0, 0, -42, -29, 35, -1920, 520, 15152, 595, 0, 0, 0, 0, 0
414, 2161556, 0, 0, 0, 0, 0, 0, 0, 0, 0, 0, 0, 0, -41, -39, 38, -1860, 516, 15012, 595, 0, 0, 0, 0, 0
415, 2165303, 0, 0, 0, 0, 0, 0, 0, 0, 0, 0, 0, 0, -39, -18, 35, -1836, 556, 14924, 595, 0, 0, 0, 0, 0
416, 2169048, 0, 0, 0, 0, 0, 0, 0, 0, 0, 0, 0, 0, -42, -37, 35, -1892, 588, 15356, 595, 0, 0, 0, 0, 0
417, 2172831, 0, 0, 0, 0, 0, 0, 0, 0, 0, 0, 0, 0, -42, -35, 34, -1868, 496, 15168, 595, 0, 0, 0, 0, 0
418, 2176530, 0, 0, 0, 0, 0, 0, 0, 0, 0, 0, 0, 0, -39, -22, 36, -1708, 516, 14904, 595, 0, 0, 0, 0, 0
419, 2180276, 0, 0, 0, 0, 0, 0, 0, 0, 0, 0, 0, 0, -41, -37, 36, -1888, 480, 15204, 595, 0, 0, 0, 0, 0
420, 2184143, 0, 0, 0, 0, 0, 0, 0, 0, 0, 0, 0, 0, -42, -35, 33, -1736, 596, 14884, 595, 0, 0, 0, 0, 0
421, 2187923, 0, 0, 0, 0, 0, 0, 0, 0, 0, 0, 0, 0, -43, -20, 33, -1800, 388, 14968, 595, 0, 0, 0, 0, 0
422, 2191627, 0, 0, 0, 0, 0, 0, 0, 0, 0, 0, 0, 0, -43, -36, 35, -1852, 576, 15232, 595, 0, 0, 0, 0, 0
423, 2195371, 0, 0, 0, 0, 0, 0, 0, 0, 0, 0, 0, 0, -43, -28, 34, -1676, 492, 15016, 595, 0, 0, 0, 0, 0
424, 2199117, 0, 0, 0, 0, 0, 0, 0, 0, 0, 0, 0, 0, -41, -24, 35, -1940, 524, 15284, 595, 0, 0, 0, 0, 0
425, 2202899, 0, 0, 0, 0, 0, 0, 0, 0, 0, 0, 0, 0, -43, -36, 31, -1912, 468, 15208, 595, 0, 0, 0, 0, 0
426, 2206610, 0, 0, 0, 0, 0, 0, 0, 0, 0, 0, 0, 0, -43, -30, 34, -1700, 532, 15008, 595, 0, 0, 0, 0, 0
427, 2210337, 0, 0, 0, 0, 0, 0, 0, 0, 0, 0, 0, 0, -42, -28, 35, -1844, 448, 15084, 595, 0, 0, 0, 0, 0
428, 2214088, 0, 0, 0, 0, 0, 0, 0, 0, 0, 0, 0, 0, -39, -36, 36, -1928, 552, 15028, 595, 0, 0, 0, 0, 0
429, 2217883, 0, 0, 0, 0, 0, 0, 0, 0, 0, 0, 0, 0, -42, -26, 35, -1636, 532, 14800, 595, 0, 0, 0, 0, 0
430, 2221578, 0, 0, 0, 0, 0, 0, 0, 0, 0, 0, 0, 0, -42, -32, 30, -1776, 560, 15068, 595, 0, 0, 0, 0, 0
431, 2225314, 0, 0, 0, 0, 0, 0, 0, 0, 0, 0, 0, 0, -42, -30, 35, -1740, 528, 14992, 595, 0, 0, 0, 0, 0
432, 2229059, 0, 0, 0, 0, 0, 0, 0, 0, 0, 0, 0, 0, -43, -28, 36, -1692, 596, 15096, 595, 0, 0, 0, 0, 0
433, 2232846, 0, 0, 0, 0, 0, 0, 0, 0, 0, 0, 0, 0, -44, -28, 33, -1680, 612, 15012, 595, 0, 0, 0, 0, 0
434, 2236539, 0, 0, 0, 0, 0, 0, 0, 0, 0, 0, 0, 0, -43, -33, 33, -1752, 424, 15096, 595, 0, 0, 0, 0, 0
435, 2240282, 0, 0, 0, 0, 0, 0, 0, 0, 0, 0, 0, 0, -40, -29, 36, -1768, 444, 15028, 595, 0, 0, 0, 0, 0
436, 2244024, 0, 0, 0, 0, 0, 0, 0, 0, 0, 0, 0, 0, -39, -29, 33, -1824, 428, 15068, 595, 0, 0, 0, 0, 0
437, 2247826, 0, 0, 0, 0, 0, 0, 0, 0, 0, 0, 0, 0, -40, -34, 29, -1720, 512, 15056, 595, 0, 0, 0, 0, 0
438, 2251573, 0, 0, 0, 0, 0, 0, 0, 0, 0, 0, 0, 0, -41, -26, 37, -1616, 540, 14804, 595, 0, 0, 0, 0, 0
439, 2255254, 0, 0, 0, 0, 0, 0, 0, 0, 0, 0, 0, 0, -44, -26, 35, -1716, 428, 15060, 595, 0, 0, 0, 0, 0
440, 2258995, 0, 0, 0, 0, 0, 0, 0, 0, 0, 0, 0, 0, -42, -33, 34, -1648, 400, 15040, 595, 0, 0, 0, 0, 0
441, 2262795, 0, 0, 0, 0, 0, 0, 0, 0, 0, 0, 0, 0, -42, -28, 34, -1712, 516, 15112, 595, 0, 0, 0, 0, 0
442, 2266482, 0, 0, 0, 0, 0, 0, 0, 0, 0, 0, 0, 0, -41, -29, 37, -1716, 512, 15124, 595, 0, 0, 0, 0, 0
443, 2270228, 0, 0, 0, 0, 0, 0, 0, 0, 0, 0, 0, 0, -44, -33, 34, -1756, 540, 15008, 595, 0, 0, 0, 0, 0
444, 2273971, 0, 0, 0, 0, 0, 0, 0, 0, 0, 0, 0, 0, -44, -28, 34, -1772, 528, 14888, 595, 0, 0, 0, 0, 0
445, 2277757, 0, 0, 0, 0, 0, 0, 0, 0, 0, 0, 0, 0, -43, -31, 35, -1736, 540, 15164, 595, 0, 0, 0, 0, 0
446, 2281461, 0, 0, 0, 0, 0, 0, 0, 0, 0, 0, 0, 0, -43, -31, 34, -1736, 540, 15068, 595, 0, 0, 0, 0, 0
447, 2285197, 0, 0, 0, 0, 0, 0, 0, 0, 0, 0, 0, 0, -45, -27, 35, -1768, 596, 14988, 595, 0, 0, 0, 0, 0
448, 2288948, 0, 0, 0, 0, 0, 0, 0, 0, 0, 0, 0, 0, -43, -28, 35, -1660, 428, 14952, 595, 0, 0, 0, 0, 0
449, 2292727, 0, 0, 0, 0, 0, 0, 0, 0, 0, 0, 0, 0, -40, -31, 36, -1576, 388, 15056, 595, 0, 0, 0, 0, 0
450, 2296423, 0, 0, 0, 0, 0, 0, 0, 0, 0, 0, 0, 0, -41, -33, 39, -1720, 548, 15100, 595, 0, 0, 0, 0, 0
451, 2300169, 0, 0, 0, 0, 0, 0, 0, 0, 0, 0, 0, 0, -48, -28, 34, -1728, 524, 15000, 595, 0, 0, 0, 0, 0
452, 2303907, 0, 0, 0, 0, 0, 0, 0, 0, 0, 0, 0, 0, -47, -30, 34, -1772, 508, 14936, 595, 0, 0, 0, 0, 0
453, 2307702, 0, 0, 0, 0, 0, 0, 0, 0, 0, 0, 0, 0, -47, -33, 32, -1680, 516, 15032, 595, 0, 0, 0, 0, 0
454, 2311393, 0, 0, 0, 0, 0, 0, 0, 0, 0, 0, 0, 0, -47, -29, 36, -1768, 520, 15024, 595, 0, 0, 0, 0, 0
455, 2315139, 0, 0, 0, 0, 0, 0, 0, 0, 0, 0, 0, 0, -45, -28, 36, -1772, 536, 15164, 595, 0, 0, 0, 0, 0
456, 2318891, 0, 0, 0, 0, 0, 0, 0, 0, 0, 0, 0, 0, -47, -31, 39, -1660, 580, 15140, 595, 0, 0, 0, 0, 0
457, 2322672, 0, 0, 0, 0, 0, 0, 0, 0, 0, 0, 0, 0, -45, -25, 35, -1632, 544, 15052, 595, 0, 0, 0, 0, 0
458, 2326369, 0, 0, 0, 0, 0, 0, 0, 0, 0, 0, 0, 0, -46, -29, 35, -1824, 544, 15076, 595, 0, 0, 0, 0, 0
459, 2330111, 0, 0, 0, 0, 0, 0, 0, 0, 0, 0, 0, 0, -46, -29, 36, -1752, 564, 14984, 595, 0, 0, 0, 0, 0
460, 2333854, 0, 0, 0, 0, 0, 0, 0, 0, 0, 0, 0, 0, -46, -27, 34, -1760, 520, 14940, 595, 0, 0, 0, 0, 0
461, 2337645, 0, 0, 0, 0, 0, 0, 0, 0, 0, 0, 0, 0, -47, -33, 40, -1868, 480, 15080, 595, 0, 0, 0, 0, 0
462, 2341340, 0, 0, 0, 0, 0, 0, 0, 0, 0, 0, 0, 0, -46, -26, 37, -1680, 484, 14996, 595, 0, 0, 0, 0, 0
463, 2396002, 0, 0, 0, 0, 0, 0, 0, 0, 0, 0, 0, 0, -46, -26, 37, -1680, 484, 14996, 595, 0, 0, 0, 0, 0
464, 2399261, 0, 0, 0, 0, 0, 0, 0, 0, 0, 0, 0, 0, -40, -30, 36, -1688, 608, 15112, 595, 0, 0, 0, 0, 0
465, 2402977, 0, 0, 0, 0, 0, 0, 0, 0, 0, 0, 0, 0, -42, -33, 36, -1760, 540, 15148, 595, 0, 0, 0, 0, 0
466, 2406714, 0, 0, 0, 0, 0, 0, 0, 0, 0, 0, 0, 0, -43, -32, 37, -1776, 496, 15028, 595, 0, 0, 0, 0, 0
467, 2410456, 0, 0, 0, 0, 0, 0, 0, 0, 0, 0, 0, 0, -44, -29, 36, -1780, 552, 14884, 595, 0, 0, 0, 0, 0
468, 2414198, 0, 0, 0, 0, 0, 0, 0, 0, 0, 0, 0, 0, -44, -33, 37, -1708, 688, 14844, 595, 0, 0, 0, 0, 0
469, 2417947, 0, 0, 0, 0, 0, 0, 0, 0, 0, 0, 0, 0, -42, -28, 38, -1716, 560, 14972, 595, 0, 0, 0, 0, 0
470, 2421684, 0, 0, 0, 0, 0, 0, 0, 0, 0, 0, 0, 0, -43, -26, 36, -1864, 604, 15076, 595, 0, 0, 0, 0, 0
471, 2425441, 0, 0, 0, 0, 0, 0, 0, 0, 0, 0, 0, 0, -43, -31, 37, -1764, 492, 15056, 595, 0, 0, 0, 0, 0
472, 2429170, 0, 0, 0, 0, 0, 0, 0, 0, 0, 0, 0, 0, -44, -31, 35, -1756, 520, 14976, 595, 0, 0, 0, 0, 0
473, 2432911, 0, 0, 0, 0, 0, 0, 0, 0, 0, 0, 0, 0, -41, -28, 39, -1688, 588, 15088, 595, 0, 0, 0, 0, 0
474, 2436651, 0, 0, 0, 0, 0, 0, 0, 0, 0, 0, 0, 0, -43, -28, 37, -1692, 476, 14940, 595, 0, 0, 0, 0, 0
475, 2440395, 0, 0, 0, 0, 0, 0, 0, 0, 0, 0, 0, 0, -43, -32, 39, -1720, 524, 15212, 595, 0, 0, 0, 0, 0
476, 2444139, 0, 0, 0, 0, 0, 0, 0, 0, 0, 0, 0, 0, -39, -27, 37, -1716, 572, 14832, 595, 0, 0, 0, 0, 0
477, 2447881, 0, 0, 0, 0, 0, 0, 0, 0, 0, 0, 0, 0, -41, -24, 36, -1812, 576, 15180, 595, 0, 0, 0, 0, 0
478, 2451663, 0, 0, 0, 0, 0, 0, 0, 0, 0, 0, 0, 0, -43, -35, 35, -1788, 528, 15096, 595, 0, 0, 0, 0, 0
479, 2455378, 0, 0, 0, 0, 0, 0, 0, 0, 0, 0, 0, 0, -40, -29, 36, -1716, 520, 15104, 595, 0, 0, 0, 0, 0
480, 2459116, 0, 0, 0, 0, 0, 0, 0, 0, 0, 0, 0, 0, -40, -30, 36, -1876, 452, 14952, 595, 0, 0, 0, 0, 0
481, 2462859, 0, 0, 0, 0, 0, 0, 0, 0, 0, 0, 0, 0, -43, -34, 36, -1868, 496, 15096, 595, 0, 0, 0, 0, 0
482, 2466611, 0, 0, 0, 0, 0, 0, 0, 0, 0, 0, 0, 0, -43, -29, 35, -1752, 480, 15004, 595, 0, 0, 0, 0, 0
483, 2470342, 0, 0, 0, 0, 0, 0, 0, 0, 0, 0, 0, 0, -41, -33, 36, -1760, 376, 15040, 595, 0, 0, 0, 0, 0
484, 2474085, 0, 0, 0, 0, 0, 0, 0, 0, 0, 0, 0, 0, -43, -32, 32, -1776, 588, 14992, 595, 0, 0, 0, 0, 0
485, 2477829, 0, 0, 0, 0, 0, 0, 0, 0, 0, 0, 0, 0, -43, -27, 33, -1792, 512, 14876, 595, 0, 0, 0, 0, 0
486, 2481569, 0, 0, 0, 0, 0, 0, 0, 0, 0, 0, 0, 0, -42, -32, 41, -1808, 492, 15132, 595, 0, 0, 0, 0, 0
487, 2485324, 0, 0, 0, 0, 0, 0, 0, 0, 0, 0, 0, 0, -43, -28, 37, -1756, 540, 15040, 595, 0, 0, 0, 0, 0
488, 2489058, 0, 0, 0, 0, 0, 0, 0, 0, 0, 0, 0, 0, -43, -34, 35, -1876, 516, 15120, 595, 0, 0, 0, 0, 0
489, 2492800, 0, 0, 0, 0, 0, 0, 0, 0, 0, 0, 0, 0, -43, -33, 37, -1804, 520, 14960, 595, 0, 0, 0, 0, 0
490, 2496542, 0, 0, 0, 0, 0, 0, 0, 0, 0, 0, 0, 0, -42, -25, 38, -1836, 488, 15048, 595, 0, 0, 0, 0, 0
491, 2500296, 0, 0, 0, 0, 0, 0, 0, 0, 0, 0, 0, 0, -43, -35, 36, -1756, 508, 15092, 595, 0, 0, 0, 0, 0
492, 2504040, 0, 0, 0, 0, 0, 0, 0, 0, 0, 0, 0, 0, -44, -29, 35, -1800, 496, 14932, 595, 0, 0, 0, 0, 0
493, 2507774, 0, 0, 0, 0, 0, 0, 0, 0, 0, 0, 0, 0, -42, -27, 37, -1808, 496, 14940, 595, 0, 0, 0, 0, 0
494, 2511517, 0, 0, 0, 0, 0, 0, 0, 0, 0, 0, 0, 0, -40, -30, 34, -1848, 528, 14912, 595, 0, 0, 0, 0, 0
495, 2515269, 0, 0, 0, 0, 0, 0, 0, 0, 0, 0, 0, 0, -41, -30, 36, -1788, 488, 15080, 595, 0, 0, 0, 0, 0
496, 2519002, 0, 0, 0, 0, 0, 0, 0, 0, 0, 0, 0, 0, -43, -31, 38, -1784, 532, 15132, 595, 0, 0, 0, 0, 0
497, 2522747, 0, 0, 0, 0, 0, 0, 0, 0, 0, 0, 0, 0, -40, -36, 36, -1820, 596, 15148, 595, 0, 0, 0, 0, 0
498, 2526493, 0, 0, 0, 0, 0, 0, 0, 0, 0, 0, 0, 0, -44, -24, 34, -1672, 620, 14824, 595, 0, 0, 0, 0, 0
499, 2530238, 0, 0, 0, 0, 0, 0, 0, 0, 0, 0, 0, 0, -40, -27, 35, -1808, 396, 15236, 595, 0, 0, 0, 0, 0
500, 2533984, 0, 0, 0, 0, 0, 0, 0, 0, 0, 0, 0, 0, -43, -42, 34, -1852, 468, 15044, 595, 0, 0, 0, 0, 0
501, 2537720, 0, 0, 0, 0, 0, 0, 0, 0, 0, 0, 0, 0, -41, -17, 34, -1600, 456, 14948, 595, 0, 0, 0, 0, 0
502, 2541460, 0, 0, 0, 0, 0, 0, 0, 0, 0, 0, 0, 0, -41, -35, 38, -1884, 560, 15348, 595, 0, 0, 0, 0, 0
503, 2545210, 0, 0, 0, 0, 0, 0, 0, 0, 0, 0, 0, 0, -44, -37, 37, -1748, 504, 14936, 595, 0, 0, 0, 0, 0
504, 2548952, 0, 0, 0, 0, 0, 0, 0, 0, 0, 0, 0, 0, -44, -15, 36, -1896, 444, 15132, 595, 0, 0, 0, 0, 0
505, 2552837, 0, 0, 0, 0, 0, 0, 0, 0, 0, 0, 0, 0, -42, -40, 34, -1856, 480, 15280, 595, 0, 0, 0, 0, 0
506, 2556573, 0, 0, 0, 0, 0, 0, 0, 0, 0, 0, 0, 0, -41, -33, 36, -1660, 588, 14784, 595, 0, 0, 0, 0, 0
507, 2560298, 0, 0, 0, 0, 0, 0, 0, 0, 0, 0, 0, 0, -42, -25, 37, -1804, 584, 14848, 595, 0, 0, 0, 0, 0
508, 2564041, 0, 0, 0, 0, 0, 0, 0, 0, 0, 0, 0, 0, -46, -41, 37, -1824, 516, 15068, 595, 0, 0, 0, 0, 0
509, 2567796, 0, 0, 0, 0, 0, 0, 0, 0, 0, 0, 0, 0, -42, -23, 34, -1596, 692, 14808, 595, 0, 0, 0, 0, 0
510, 2571528, 0, 0, 0, 0, 0, 0, 0, 0, 0, 0, 0, 0, -43, -30, 38, -1792, 552, 15164, 595, 0, 0, 0, 0, 0
511, 2575272, 0, 0, 0, 0, 0, 0, 0, 0, 0, 0, 0, 0, -41, -37, 37, -1692, 548, 15148, 595, 0, 0, 0, 0, 0
512, 2579016, 0, 0, 0, 0, 0, 0, 0, 0, 0, 0, 0, 0, -42, -19, 35, -1700, 540, 15080, 595, 0, 0, 0, 0, 0
513, 2582764, 0, 0, 0, 0, 0, 0, 0, 0, 0, 0, 0, 0, -43, -32, 37, -1788, 476, 15064, 595, 0, 0, 0, 0, 0
514, 2586506, 0, 0, 0, 0, 0, 0, 0, 0, 0, 0, 0, 0, -41, -33, 36, -1736, 476, 15152, 595, 0, 0, 0, 0, 0
515, 2590243, 0, 0, 0, 0, 0, 0, 0, 0, 0, 0, 0, 0, -41, -23, 38, -1776, 540, 14804, 595, 0, 0, 0, 0, 0
516, 2593980, 0, 0, 0, 0, 0, 0, 0, 0, 0, 0, 0, 0, -44, -37, 36, -1824, 408, 15216, 595, 0, 0, 0, 0, 0
517, 2597728, 0, 0, 0, 0, 0, 0, 0, 0, 0, 0, 0, 0, -43, -28, 36, -1700, 524, 14948, 595, 0, 0, 0, 0, 0
518, 2601469, 0, 0, 0, 0, 0, 0, 0, 0, 0, 0, 0, 0, -41, -24, 35, -1664, 420, 14936, 595, 0, 0, 0, 0, 0
519, 2605216, 0, 0, 0, 0, 0, 0, 0, 0, 0, 0, 0, 0, -43, -37, 35, -1784, 512, 15164, 595, 0, 0, 0, 0, 0
520, 2608953, 0, 0, 0, 0, 0, 0, 0, 0, 0, 0, 0, 0, -42, -25, 35, -1660, 436, 14844, 595, 0, 0, 0, 0, 0
521, 2612700, 0, 0, 0, 0, 0, 0, 0, 0, 0, 0, 0, 0, -42, -28, 34, -1704, 464, 15080, 595, 0, 0, 0, 0, 0
522, 2616449, 0, 0, 0, 0, 0, 0, 0, 0, 0, 0, 0, 0, -39, -36, 36, -1860, 508, 15044, 595, 0, 0, 0, 0, 0
523, 2620190, 0, 0, 0, 0, 0, 0, 0, 0, 0, 0, 0, 0, -42, -27, 37, -1632, 492, 14992, 595, 0, 0, 0, 0, 0
524, 2623927, 0, 0, 0, 0, 0, 0, 0, 0, 0, 0, 0, 0, -45, -32, 35, -1872, 496, 15096, 595, 0, 0, 0, 0, 0
525, 2627671, 0, 0, 0, 0, 0, 0, 0, 0, 0, 0, 0, 0, -45, -38, 37, -1668, 452, 15004, 595, 0, 0, 0, 0, 0
526, 2631413, 0, 0, 0, 0, 0, 0, 0, 0, 0, 0, 0, 0, -40, -24, 36, -1708, 576, 14968, 595, 0, 0, 0, 0, 0
527, 2635162, 0, 0, 0, 0, 0, 0, 0, 0, 0, 0, 0, 0, -41, -33, 36, -1872, 452, 15188, 595, 0, 0, 0, 0, 0
528, 2638897, 0, 0, 0, 0, 0, 0, 0, 0, 0, 0, 0, 0, -43, -31, 37, -1760, 472, 15044, 595, 0, 0, 0, 0, 0
529, 2642640, 0, 0, 0, 0, 0, 0, 0, 0, 0, 0, 0, 0, -41, -26, 35, -1792, 488, 14984, 595, 0, 0, 0, 0, 0
530, 2646388, 0, 0, 0, 0, 0, 0, 0, 0, 0, 0, 0, 0, -42, -32, 35, -1936, 468, 15280, 595, 0, 0, 0, 0, 0
531, 2650135, 0, 0, 0, 0, 0, 0, 0, 0, 0, 0, 0, 0, -41, -30, 37, -1800, 544, 15020, 595, 0, 0, 0, 0, 0
532, 2653909, 0, 0, 0, 0, 0, 0, 0, 0, 0, 0, 0, 0, -42, -23, 37, -1760, 496, 15196, 595, 0, 0, 0, 0, 0
533, 2657613, 0, 0, 0, 0, 0, 0, 0, 0, 0, 0, 0, 0, -45, -34, 34, -1748, 516, 14920, 595, 0, 0, 0, 0, 0
534, 2661360, 0, 0, 0, 0, 0, 0, 0, 0, 0, 0, 0, 0, -42, -28, 36, -1716, 572, 14896, 595, 0, 0, 0, 0, 0
535, 2665106, 0, 0, 0, 0, 0, 0, 0, 0, 0, 0, 0, 0, -44, -30, 37, -1872, 488, 15160, 595, 0, 0, 0, 0, 0
536, 2668843, 0, 0, 0, 0, 0, 0, 0, 0, 0, 0, 0, 0, -43, -33, 37, -1812, 524, 15016, 595, 0, 0, 0, 0, 0
537, 2672584, 0, 0, 0, 0, 0, 0, 0, 0, 0, 0, 0, 0, -42, -27, 35, -1748, 504, 14860, 595, 0, 0, 0, 0, 0
538, 2676330, 0, 0, 0, 0, 0, 0, 0, 0, 0, 0, 0, 0, -39, -28, 37, -1820, 564, 15072, 595, 0, 0, 0, 0, 0
539, 2680079, 0, 0, 0, 0, 0, 0, 0, 0, 0, 0, 0, 0, -43, -33, 36, -1844, 540, 15020, 595, 0, 0, 0, 0, 0
540, 2683821, 0, 0, 0, 0, 0, 0, 0, 0, 0, 0, 0, 0, -42, -25, 36, -1792, 404, 15084, 595, 0, 0, 0, 0, 0
541, 2687557, 0, 0, 0, 0, 0, 0, 0, 0, 0, 0, 0, 0, -43, -34, 38, -1844, 552, 15164, 595, 0, 0, 0, 0, 0
542, 2691296, 0, 0, 0, 0, 0, 0, 0, 0, 0, 0, 0, 0, -44, -30, 34, -1788, 432, 15092, 595, 0, 0, 0, 0, 0
543, 2695051, 0, 0, 0, 0, 0, 0, 0, 0, 0, 0, 0, 0, -42, -29, 38, -1836, 528, 15028, 595, 0, 0, 0, 0, 0
544, 2698796, 0, 0, 0, 0, 0, 0, 0, 0, 0, 0, 0, 0, -41, -36, 35, -1788, 576, 15004, 595, 0, 0, 0, 0, 0
545, 2702532, 0, 0, 0, 0, 0, 0, 0, 0, 0, 0, 0, 0, -42, -26, 39, -1756, 476, 14992, 595, 0, 0, 0, 0, 0
546, 2706275, 0, 0, 0, 0, 0, 0, 0, 0, 0, 0, 0, 0, -43, -23, 35, -1688, 484, 15152, 595, 0, 0, 0, 0, 0
547, 2710023, 0, 0, 0, 0, 0, 0, 0, 0, 0, 0, 0, 0, -42, -35, 34, -1868, 468, 15176, 595, 0, 0, 0, 0, 0
548, 2764658, 0, 0, 0, 0, 0, 0, 0, 0, 0, 0, 0, 0, -42, -35, 34, -1868, 468, 15176, 595, 0, 0, 0, 0, 0
549, 2767939, 0, 0, 0, 0, 0, 0, 0, 0, 0, 0, 0, 0, -40, -32, 34, -1832, 540, 15168, 595, 0, 0, 0, 0, 0
550, 2771696, 0, 0, 0, 0, 0, 0, 0, 0, 0, 0, 0, 0, -42, -35, 33, -1728, 508, 14892, 595, 0, 0, 0, 0, 0
551, 2775389, 0, 0, 0, 0, 0, 0, 0, 0, 0, 0, 0, 0, -34, -19, 36, -1808, 496, 14900, 595, 0, 0, 0, 0, 0
552, 2779134, 0, 0, 0, 0, 0, 0, 0, 0, 0, 0, 0, 0, -38, -39, 35, -1892, 472, 15240, 595, 0, 0, 0, 0, 0
553, 2782875, 0, 0, 0, 0, 0, 0, 0, 0, 0, 0, 0, 0, -38, -30, 34, -1772, 548, 15012, 595, 0, 0, 0, 0, 0
554, 2786669, 0, 0, 0, 0, 0, 0, 0, 0, 0, 0, 0, 0, -42, -21, 33, -1764, 508, 14888, 595, 0, 0, 0, 0, 0
555, 2790373, 0, 0, 0, 0, 0, 0, 0, 0, 0, 0, 0, 0, -37, -42, 38, -1924, 480, 15396, 595, 0, 0, 0, 0, 0
556, 2794109, 0, 0, 0, 0, 0, 0, 0, 0, 0, 0, 0, 0, -41, -27, 38, -1716, 396, 14852, 595, 0, 0, 0, 0, 0
557, 2797847, 0, 0, 0, 0, 0, 0, 0, 0, 0, 0, 0, 0, -43, -26, 37, -1912, 396, 15084, 595, 0, 0, 0, 0, 0
558, 2801642, 0, 0, 0, 0, 0, 0, 0, 0, 0, 0, 0, 0, -41, -39, 37, -1776, 472, 14972, 595, 0, 0, 0, 0, 0
559, 2805339, 0, 0, 0, 0, 0, 0, 0, 0, 0, 0, 0, 0, -41, -22, 35, -1772, 524, 14896, 595, 0, 0, 0, 0, 0
560, 2809080, 0, 0, 0, 0, 0, 0, 0, 0, 0, 0, 0, 0, -39, -36, 35, -2024, 564, 15252, 595, 0, 0, 0, 0, 0
561, 2812817, 0, 0, 0, 0, 0, 0, 0, 0, 0, 0, 0, 0, -38, -40, 36, -1848, 432, 15068, 595, 0, 0, 0, 0, 0
562, 2816613, 0, 0, 0, 0, 0, 0, 0, 0, 0, 0, 0, 0, -39, -21, 36, -1708, 468, 14988, 595, 0, 0, 0, 0, 0
563, 2820318, 0, 0, 0, 0, 0, 0, 0, 0, 0, 0, 0, 0, -42, -37, 38, -1932, 496, 15184, 595, 0, 0, 0, 0, 0
564, 2824050, 0, 0, 0, 0, 0, 0, 0, 0, 0, 0, 0, 0, -42, -34, 36, -1736, 584, 14932, 595, 0, 0, 0, 0, 0
565, 2827798, 0, 0, 0, 0, 0, 0, 0, 0, 0, 0, 0, 0, -42, -22, 35, -1756, 496, 14976, 595, 0, 0, 0, 0, 0
566, 2831594, 0, 0, 0, 0, 0, 0, 0, 0, 0, 0, 0, 0, -38, -40, 37, -1864, 508, 15248, 595, 0, 0, 0, 0, 0
567, 2835294, 0, 0, 0, 0, 0, 0, 0, 0, 0, 0, 0, 0, -40, -29, 35, -1604, 444, 14852, 595, 0, 0, 0, 0, 0
568, 2839032, 0, 0, 0, 0, 0, 0, 0, 0, 0, 0, 0, 0, -42, -27, 38, -1852, 456, 15188, 595, 0, 0, 0, 0, 0
569, 2842766, 0, 0, 0, 0, 0, 0, 0, 0, 0, 0, 0, 0, -40, -39, 38, -1884, 536, 15084, 595, 0, 0, 0, 0, 0
570, 2846554, 0, 0, 0, 0, 0, 0, 0, 0, 0, 0, 0, 0, -41, -31, 32, -1684, 468, 14880, 595, 0, 0, 0, 0, 0
571, 2850264, 0, 0, 0, 0, 0, 0, 0, 0, 0, 0, 0, 0, -40, -33, 40, -1860, 512, 15088, 595, 0, 0, 0, 0, 0
572, 2854011, 0, 0, 0, 0, 0, 0, 0, 0, 0, 0, 0, 0, -38, -31, 36, -1800, 428, 15020, 595, 0, 0, 0, 0, 0
573, 2857741, 0, 0, 0, 0, 0, 0, 0, 0, 0, 0, 0, 0, -39, -24, 37, -1736, 504, 15084, 595, 0, 0, 0, 0, 0
574, 2861535, 0, 0, 0, 0, 0, 0, 0, 0, 0, 0, 0, 0, -42, -35, 37, -1816, 524, 15128, 595, 0, 0, 0, 0, 0
575, 2865234, 0, 0, 0, 0, 0, 0, 0, 0, 0, 0, 0, 0, -43, -35, 36, -1808, 560, 15032, 595, 0, 0, 0, 0, 0
576, 2868979, 0, 0, 0, 0, 0, 0, 0, 0, 0, 0, 0, 0, -45, -26, 36, -1708, 508, 14972, 595, 0, 0, 0, 0, 0
577, 2872712, 0, 0, 0, 0, 0, 0, 0, 0, 0, 0, 0, 0, -43, -36, 41, -1796, 532, 15052, 595, 0, 0, 0, 0, 0
578, 2876503, 0, 0, 0, 0, 0, 0, 0, 0, 0, 0, 0, 0, -42, -33, 37, -1704, 516, 14912, 595, 0, 0, 0, 0, 0
579, 2880206, 0, 0, 0, 0, 0, 0, 0, 0, 0, 0, 0, 0, -43, -29, 33, -1780, 544, 14976, 595, 0, 0, 0, 0, 0
580, 2883955, 0, 0, 0, 0, 0, 0, 0, 0, 0, 0, 0, 0, -42, -35, 36, -1848, 524, 15156, 595, 0, 0, 0, 0, 0
581, 2887685, 0, 0, 0, 0, 0, 0, 0, 0, 0, 0, 0, 0, -43, -28, 35, -1740, 492, 14960, 595, 0, 0, 0, 0, 0
582, 2891479, 0, 0, 0, 0, 0, 0, 0, 0, 0, 0, 0, 0, -43, -29, 36, -1780, 480, 15108, 595, 0, 0, 0, 0, 0
583, 2895174, 0, 0, 0, 0, 0, 0, 0, 0, 0, 0, 0, 0, -40, -34, 37, -1816, 440, 14936, 595, 0, 0, 0, 0, 0
584, 2898913, 0, 0, 0, 0, 0, 0, 0, 0, 0, 0, 0, 0, -44, -29, 35, -1668, 528, 14960, 595, 0, 0, 0, 0, 0
585, 2902658, 0, 0, 0, 0, 0, 0, 0, 0, 0, 0, 0, 0, -42, -30, 36, -1724, 584, 15120, 595, 0, 0, 0, 0, 0
586, 2906453, 0, 0, 0, 0, 0, 0, 0, 0, 0, 0, 0, 0, -41, -35, 39, -1772, 620, 15156, 595, 0, 0, 0, 0, 0
587, 2910151, 0, 0, 0, 0, 0, 0, 0, 0, 0, 0, 0, 0, -46, -26, 35, -1708, 488, 15052, 595, 0, 0, 0, 0, 0
588, 2913881, 0, 0, 0, 0, 0, 0, 0, 0, 0, 0, 0, 0, -47, -32, 36, -1740, 584, 15008, 595, 0, 0, 0, 0, 0
