index_log, time_stamp, mode, thrust, roll, pitch, yaw, ae[0], ae[1], ae[2], ae[3], phi, theta, psi, sp, sq, sr, sax, say, saz, bat_volt, P, P1, P2, temperature, pressure
0, 856843, 0, 0, 0, 0, 0, 0, 0, 0, 0, 0, 0, 3, -45, -32, 36, -1938, 576, 14922, 630, 0, 0, 0, 0, 0
1, 864233, 0, 0, 0, 0, 0, 0, 0, 0, 0, 0, 0, 7, -44, -32, 36, -1934, 592, 14916, 630, 0, 0, 0, 0, 0
2, 874234, 0, 0, 0, 0, 0, 0, 0, 0, 0, 0, 0, 11, -44, -33, 36, -1928, 598, 14916, 630, 0, 0, 0, 0, 0
3, 884220, 0, 0, 0, 0, 0, 0, 0, 0, 0, 0, 0, 15, -44, -33, 36, -1918, 612, 14908, 630, 0, 0, 0, 0, 0
4, 894200, 0, 0, 0, 0, 0, 0, 0, 0, 0, 0, 0, 19, -44, -33, 36, -1934, 594, 14912, 630, 0, 0, 0, 0, 0
5, 904173, 0, 0, 0, 0, 0, 0, 0, 0, 0, 0, 0, 23, -44, -34, 36, -1930, 590, 14914, 602, 0, 0, 0, 0, 0
6, 914169, 0, 0, 0, 0, 0, 0, 0, 0, 0, 0, 0, 27, -44, -34, 36, -1912, 596, 14918, 602, 0, 0, 0, 0, 0
7, 924158, 0, 0, 0, 0, 0, 0, 0, 0, 0, 0, 0, 31, -44, -33, 36, -1902, 598, 14894, 602, 0, 0, 0, 0, 0
8, 934141, 0, 0, 0, 0, 0, 0, 0, 0, 0, 0, 0, 34, -44, -33, 36, -1914, 596, 14870, 602, 0, 0, 0, 0, 0
9, 944119, 0, 0, 0, 0, 0, 0, 0, 0, 0, 0, 0, 38, -44, -33, 36, -1898, 598, 14874, 602, 0, 0, 0, 0, 0
10, 954360, 0, 0, 0, 0, 0, 0, 0, 0, 0, 0, 0, 42, -44, -33, 36, -1910, 614, 14868, 595, 0, 0, 0, 0, 0
11, 964085, 0, 0, 0, 0, 0, 0, 0, 0, 0, 0, 0, 46, -44, -32, 36, -1916, 628, 14894, 595, 0, 0, 0, 0, 0
12, 974077, 0, 0, 0, 0, 0, 0, 0, 0, 0, 0, 0, 50, -44, -33, 36, -1924, 610, 14892, 595, 0, 0, 0, 0, 0
13, 984058, 0, 0, 0, 0, 0, 0, 0, 0, 0, 0, 0, 54, -44, -33, 36, -1928, 588, 14880, 595, 0, 0, 0, 0, 0
14, 994032, 0, 0, 0, 0, 0, 0, 0, 0, 0, 0, 0, 58, -44, -32, 37, -1900, 570, 14912, 595, 0, 0, 0, 0, 0
15, 1004024, 0, 0, 0, 0, 0, 0, 0, 0, 0, 0, 0, 62, -44, -32, 36, -1898, 580, 14910, 595, 0, 0, 0, 0, 0
16, 1014005, 0, 0, 0, 0, 0, 0, 0, 0, 0, 0, 0, 66, -45, -32, 36, -1924, 598, 14946, 595, 0, 0, 0, 0, 0
17, 1024001, 0, 0, 0, 0, 0, 0, 0, 0, 0, 0, 0, 70, -45, -32, 36, -1904, 606, 14944, 595, 0, 0, 0, 0, 0
18, 1033992, 0, 0, 0, 0, 0, 0, 0, 0, 0, 0, 0, 74, -45, -33, 36, -1924, 602, 14910, 595, 0, 0, 0, 0, 0
19, 1043943, 0, 0, 0, 0, 0, 0, 0, 0, 0, 0, 0, 78, -45, -33, 36, -1932, 612, 14902, 595, 0, 0, 0, 0, 0
20, 1054348, 0, 0, 0, 0, 0, 0, 0, 0, 0, 0, 0, 82, -45, -33, 36, -1936, 616, 14896, 595, 0, 0, 0, 0, 0
21, 1063926, 0, 0, 0, 0, 0, 0, 0, 0, 0, 0, 0, 85, -44, -34, 36, -1934, 596, 14898, 595, 0, 0, 0, 0, 0
22, 1073918, 0, 0, 0, 0, 0, 0, 0, 0, 0, 0, 0, 89, -44, -34, 36, -1920, 588, 14872, 595, 0, 0, 0, 0, 0
23, 1083889, 0, 0, 0, 0, 0, 0, 0, 0, 0, 0, 0, 93, -44, -33, 36, -1906, 584, 14898, 595, 0, 0, 0, 0, 0
24, 1093878, 0, 0, 0, 0, 0, 0, 0, 0, 0, 0, 0, 97, -44, -34, 36, -1900, 596, 14894, 595, 0, 0, 0, 0, 0
25, 1103869, 0, 0, 0, 0, 0, 0, 0, 0, 0, 0, 0, 101, -44, -33, 36, -1904, 604, 14904, 595, 0, 0, 0, 0, 0
26, 1113849, 0, 0, 0, 0, 0, 0, 0, 0, 0, 0, 0, 105, -44, -33, 36, -1876, 602, 14864, 595, 0, 0, 0, 0, 0
27, 1123845, 0, 0, 0, 0, 0, 0, 0, 0, 0, 0, 0, 109, -44, -32, 36, -1868, 602, 14840, 595, 0, 0, 0, 0, 0
28, 1133816, 0, 0, 0, 0, 0, 0, 0, 0, 0, 0, 0, 113, -43, -33, 36, -1864, 588, 14820, 595, 0, 0, 0, 0, 0
29, 1143787, 0, 0, 0, 0, 0, 0, 0, 0, 0, 0, 0, 117, -44, -32, 36, -1900, 604, 14842, 595, 0, 0, 0, 0, 0
30, 1154057, 0, 0, 0, 0, 0, 0, 0, 0, 0, 0, 0, 120, -44, -33, 36, -1918, 608, 14880, 595, 0, 0, 0, 0, 0
31, 1163759, 0, 0, 0, 0, 0, 0, 0, 0, 0, 0, 0, 124, -44, -33, 36, -1934, 602, 14878, 595, 0, 0, 0, 0, 0
32, 1173761, 0, 0, 0, 0, 0, 0, 0, 0, 0, 0, 0, 128, -44, -33, 36, -1942, 610, 14916, 595, 0, 0, 0, 0, 0
33, 1183732, 0, 0, 0, 0, 0, 0, 0, 0, 0, 0, 0, 132, -44, -33, 36, -1942, 596, 14898, 595, 0, 0, 0, 0, 0
34, 1193726, 0, 0, 0, 0, 0, 0, 0, 0, 0, 0, 0, 136, -44, -33, 36, -1924, 606, 14884, 595, 0, 0, 0, 0, 0
35, 1203704, 0, 0, 0, 0, 0, 0, 0, 0, 0, 0, 0, 140, -44, -33, 36, -1914, 610, 14874, 595, 0, 0, 0, 0, 0
36, 1213683, 0, 0, 0, 0, 0, 0, 0, 0, 0, 0, 0, 144, -44, -33, 37, -1910, 590, 14860, 595, 0, 0, 0, 0, 0
37, 1223684, 0, 0, 0, 0, 0, 0, 0, 0, 0, 0, 0, 148, -44, -33, 37, -1908, 586, 14874, 595, 0, 0, 0, 0, 0
38, 1233656, 0, 0, 0, 0, 0, 0, 0, 0, 0, 0, 0, 152, -43, -33, 37, -1904, 620, 14876, 595, 0, 0, 0, 0, 0
39, 1243654, 0, 0, 0, 0, 0, 0, 0, 0, 0, 0, 0, 156, -43, -33, 36, -1894, 614, 14898, 595, 0, 0, 0, 0, 0
40, 1253912, 0, 0, 0, 0, 0, 0, 0, 0, 0, 0, 0, 159, -43, -33, 36, -1900, 614, 14924, 595, 0, 0, 0, 0, 0
41, 1263624, 0, 0, 0, 0, 0, 0, 0, 0, 0, 0, 0, 163, -43, -33, 36, -1918, 610, 14914, 595, 0, 0, 0, 0, 0
42, 1273615, 0, 0, 0, 0, 0, 0, 0, 0, 0, 0, 0, 167, -44, -34, 36, -1918, 588, 14904, 595, 0, 0, 0, 0, 0
43, 1283589, 0, 0, 0, 0, 0, 0, 0, 0, 0, 0, 0, 171, -44, -33, 36, -1916, 586, 14854, 595, 0, 0, 0, 0, 0
44, 1293571, 0, 0, 0, 0, 0, 0, 0, 0, 0, 0, 0, 175, -44, -33, 36, -1910, 582, 14856, 595, 0, 0, 0, 0, 0
45, 1303557, 0, 0, 0, 0, 0, 0, 0, 0, 0, 0, 0, 179, -44, -33, 36, -1878, 602, 14844, 595, 0, 0, 0, 0, 0
46, 1313538, 0, 0, 0, 0, 0, 0, 0, 0, 0, 0, 0, 183, -44, -33, 36, -1886, 600, 14882, 595, 0, 0, 0, 0, 0
47, 1323520, 0, 0, 0, 0, 0, 0, 0, 0, 0, 0, 0, 186, -44, -33, 36, -1894, 604, 14880, 595, 0, 0, 0, 0, 0
48, 1333513, 0, 0, 0, 0, 0, 0, 0, 0, 0, 0, 0, 190, -44, -32, 36, -1890, 586, 14894, 595, 0, 0, 0, 0, 0
49, 1343477, 0, 0, 0, 0, 0, 0, 0, 0, 0, 0, 0, 194, -44, -33, 36, -1896, 596, 14896, 595, 0, 0, 0, 0, 0
50, 1353762, 0, 0, 0, 0, 0, 0, 0, 0, 0, 0, 0, 198, -44, -33, 36, -1906, 600, 14900, 595, 0, 0, 0, 0, 0
51, 1363446, 0, 0, 0, 0, 0, 0, 0, 0, 0, 0, 0, 202, -45, -33, 36, -1910, 618, 14898, 595, 0, 0, 0, 0, 0
52, 1373430, 0, 0, 0, 0, 0, 0, 0, 0, 0, 0, 0, 206, -44, -33, 36, -1908, 612, 14888, 595, 0, 0, 0, 0, 0
53, 1383408, 0, 0, 0, 0, 0, 0, 0, 0, 0, 0, 0, 210, -44, -33, 37, -1924, 606, 14874, 595, 0, 0, 0, 0, 0
54, 1393406, 0, 0, 0, 0, 0, 0, 0, 0, 0, 0, 0, 213, -44, -33, 37, -1936, 610, 14870, 595, 0, 0, 0, 0, 0
55, 1403377, 0, 0, 0, 0, 0, 0, 0, 0, 0, 0, 0, 217, -44, -33, 36, -1934, 626, 14900, 595, 0, 0, 0, 0, 0
56, 1413363, 0, 0, 0, 0, 0, 0, 0, 0, 0, 0, 0, 221, -44, -33, 36, -1930, 618, 14892, 595, 0, 0, 0, 0, 0
57, 1423349, 0, 0, 0, 0, 0, 0, 0, 0, 0, 0, 0, 225, -44, -33, 36, -1928, 620, 14890, 595, 0, 0, 0, 0, 0
58, 1433338, 0, 0, 0, 0, 0, 0, 0, 0, 0, 0, 0, 229, -44, -34, 36, -1932, 604, 14878, 595, 0, 0, 0, 0, 0
59, 1443328, 0, 0, 0, 0, 0, 0, 0, 0, 0, 0, 0, 233, -44, -34, 36, -1896, 584, 14880, 595, 0, 0, 0, 0, 0
60, 1453774, 0, 0, 0, 0, 0, 0, 0, 0, 0, 0, 0, 236, -44, -34, 36, -1874, 564, 14892, 595, 0, 0, 0, 0, 0
61, 1463286, 0, 0, 0, 0, 0, 0, 0, 0, 0, 0, 0, 240, -44, -33, 36, -1862, 592, 14888, 595, 0, 0, 0, 0, 0
62, 1473282, 0, 0, 0, 0, 0, 0, 0, 0, 0, 0, 0, 244, -44, -33, 36, -1884, 600, 14890, 595, 0, 0, 0, 0, 0
63, 1483248, 0, 0, 0, 0, 0, 0, 0, 0, 0, 0, 0, 248, -44, -33, 36, -1892, 602, 14904, 595, 0, 0, 0, 0, 0
64, 1493241, 0, 0, 0, 0, 0, 0, 0, 0, 0, 0, 0, 252, -43, -33, 37, -1888, 590, 14882, 595, 0, 0, 0, 0, 0
65, 1503229, 0, 0, 0, 0, 0, 0, 0, 0, 0, 0, 0, 256, -44, -33, 36, -1902, 596, 14860, 595, 0, 0, 0, 0, 0
66, 1513197, 0, 0, 0, 0, 0, 0, 0, 0, 0, 0, 0, 259, -44, -33, 36, -1938, 620, 14860, 595, 0, 0, 0, 0, 0
67, 1523185, 0, 0, 0, 0, 0, 0, 0, 0, 0, 0, 0, 263, -44, -33, 35, -1930, 620, 14898, 595, 0, 0, 0, 0, 0
68, 1533170, 0, 0, 0, 0, 0, 0, 0, 0, 0, 0, 0, 267, -44, -33, 36, -1932, 616, 14878, 595, 0, 0, 0, 0, 0
69, 1543146, 0, 0, 0, 0, 0, 0, 0, 0, 0, 0, 0, 271, -44, -33, 36, -1932, 594, 14926, 595, 0, 0, 0, 0, 0
70, 1553736, 0, 0, 0, 0, 0, 0, 0, 0, 0, 0, 0, 274, -44, -34, 37, -1934, 584, 14916, 595, 0, 0, 0, 0, 0
71, 1563126, 0, 0, 0, 0, 0, 0, 0, 0, 0, 0, 0, 278, -44, -33, 36, -1904, 568, 14940, 595, 0, 0, 0, 0, 0
72, 1573112, 0, 0, 0, 0, 0, 0, 0, 0, 0, 0, 0, 282, -44, -33, 36, -1902, 572, 14936, 595, 0, 0, 0, 0, 0
73, 1583094, 0, 0, 0, 0, 0, 0, 0, 0, 0, 0, 0, 286, -44, -33, 36, -1898, 586, 14918, 595, 0, 0, 0, 0, 0
74, 1593060, 0, 0, 0, 0, 0, 0, 0, 0, 0, 0, 0, 290, -44, -32, 37, -1906, 588, 14882, 595, 0, 0, 0, 0, 0
75, 1603063, 0, 0, 0, 0, 0, 0, 0, 0, 0, 0, 0, 294, -43, -32, 36, -1914, 598, 14928, 595, 0, 0, 0, 0, 0
76, 1613043, 0, 0, 0, 0, 0, 0, 0, 0, 0, 0, 0, 297, -43, -33, 36, -1930, 598, 14928, 595, 0, 0, 0, 0, 0
77, 1623027, 0, 0, 0, 0, 0, 0, 0, 0, 0, 0, 0, 301, -44, -33, 36, -1946, 598, 14894, 595, 0, 0, 0, 0, 0
78, 1633007, 0, 0, 0, 0, 0, 0, 0, 0, 0, 0, 0, 305, -44, -32, 36, -1946, 584, 14892, 595, 0, 0, 0, 0, 0
79, 1643004, 0, 0, 0, 0, 0, 0, 0, 0, 0, 0, 0, 309, -44, -32, 37, -1950, 602, 14896, 595, 0, 0, 0, 0, 0
80, 1652987, 0, 0, 0, 0, 0, 0, 0, 0, 0, 0, 0, 312, -45, -33, 36, -1938, 614, 14872, 595, 0, 0, 0, 0, 0
81, 1663129, 0, 0, 0, 0, 0, 0, 0, 0, 0, 0, 0, 316, -45, -33, 37, -1936, 610, 14866, 595, 0, 0, 0, 0, 0
82, 1672955, 0, 0, 0, 0, 0, 0, 0, 0, 0, 0, 0, 320, -44, -33, 37, -1920, 610, 14866, 595, 0, 0, 0, 0, 0
83, 1682941, 0, 0, 0, 0, 0, 0, 0, 0, 0, 0, 0, 324, -44, -34, 37, -1908, 614, 14880, 595, 0, 0, 0, 0, 0
84, 1692916, 0, 0, 0, 0, 0, 0, 0, 0, 0, 0, 0, 328, -44, -34, 37, -1902, 600, 14862, 595, 0, 0, 0, 0, 0
85, 1702908, 0, 0, 0, 0, 0, 0, 0, 0, 0, 0, 0, 332, -44, -34, 37, -1886, 598, 14842, 595, 0, 0, 0, 0, 0
86, 1712887, 0, 0, 0, 0, 0, 0, 0, 0, 0, 0, 0, 336, -45, -34, 37, -1876, 592, 14860, 595, 0, 0, 0, 0, 0
87, 1722870, 0, 0, 0, 0, 0, 0, 0, 0, 0, 0, 0, 339, -44, -34, 36, -1876, 598, 14860, 595, 0, 0, 0, 0, 0
88, 1732854, 0, 0, 0, 0, 0, 0, 0, 0, 0, 0, 0, 343, -44, -33, 37, -1888, 608, 14874, 595, 0, 0, 0, 0, 0
89, 1742845, 0, 0, 0, 0, 0, 0, 0, 0, 0, 0, 0, 347, -44, -32, 37, -1884, 614, 14898, 595, 0, 0, 0, 0, 0
90, 1752829, 0, 0, 0, 0, 0, 0, 0, 0, 0, 0, 0, 351, -44, -32, 37, -1886, 612, 14916, 595, 0, 0, 0, 0, 0
91, 1762804, 0, 0, 0, 0, 0, 0, 0, 0, 0, 0, 0, 355, -44, -32, 37, -1908, 596, 14920, 595, 0, 0, 0, 0, 0
92, 1772796, 0, 0, 0, 0, 0, 0, 0, 0, 0, 0, 0, 359, -44, -32, 36, -1922, 604, 14912, 595, 0, 0, 0, 0, 0
93, 1782772, 0, 0, 0, 0, 0, 0, 0, 0, 0, 0, 0, 362, -44, -33, 36, -1930, 602, 14898, 595, 0, 0, 0, 0, 0
94, 1792752, 0, 0, 0, 0, 0, 0, 0, 0, 0, 0, 0, 366, -44, -33, 36, -1940, 600, 14898, 595, 0, 0, 0, 0, 0
95, 1802744, 0, 0, 0, 0, 0, 0, 0, 0, 0, 0, 0, 370, -44, -33, 36, -1936, 608, 14870, 595, 0, 0, 0, 0, 0
96, 1812725, 0, 0, 0, 0, 0, 0, 0, 0, 0, 0, 0, 374, -43, -33, 36, -1928, 592, 14890, 595, 0, 0, 0, 0, 0
97, 1822712, 0, 0, 0, 0, 0, 0, 0, 0, 0, 0, 0, 377, -44, -33, 36, -1910, 600, 14892, 595, 0, 0, 0, 0, 0
98, 1832698, 0, 0, 0, 0, 0, 0, 0, 0, 0, 0, 0, 381, -44, -33, 36, -1904, 600, 14884, 595, 0, 0, 0, 0, 0
99, 1842672, 0, 0, 0, 0, 0, 0, 0, 0, 0, 0, 0, 385, -44, -33, 36, -1892, 598, 14882, 595, 0, 0, 0, 0, 0
100, 1852668, 0, 0, 0, 0, 0, 0, 0, 0, 0, 0, 0, 388, -44, -33, 36, -1904, 592, 14888, 595, 0, 0, 0, 0, 0
101, 1862638, 0, 0, 0, 0, 0, 0, 0, 0, 0, 0, 0, 392, -44, -33, 36, -1906, 564, 14922, 595, 0, 0, 0, 0, 0
102, 1872634, 0, 0, 0, 0, 0, 0, 0, 0, 0, 0, 0, 396, -44, -33, 36, -1918, 582, 14908, 595, 0, 0, 0, 0, 0
103, 1882579, 0, 0, 0, 0, 0, 0, 0, 0, 0, 0, 0, 400, -44, -33, 36, -1932, 606, 14900, 595, 0, 0, 0, 0, 0
104, 1892551, 0, 0, 0, 0, 0, 0, 0, 0, 0, 0, 0, 403, -43, -33, 37, -1932, 616, 14912, 595, 0, 0, 0, 0, 0
105, 1902553, 0, 0, 0, 0, 0, 0, 0, 0, 0, 0, 0, 407, -43, -33, 36, -1920, 614, 14902, 595, 0, 0, 0, 0, 0
106, 1912529, 0, 0, 0, 0, 0, 0, 0, 0, 0, 0, 0, 411, -44, -33, 36, -1904, 598, 14906, 595, 0, 0, 0, 0, 0
107, 1922506, 0, 0, 0, 0, 0, 0, 0, 0, 0, 0, 0, 415, -44, -32, 36, -1908, 596, 14898, 595, 0, 0, 0, 0, 0
108, 1932501, 0, 0, 0, 0, 0, 0, 0, 0, 0, 0, 0, 418, -44, -32, 36, -1910, 602, 14898, 595, 0, 0, 0, 0, 0
109, 1942469, 0, 0, 0, 0, 0, 0, 0, 0, 0, 0, 0, 422, -44, -33, 36, -1900, 596, 14888, 595, 0, 0, 0, 0, 0
110, 1952456, 0, 0, 0, 0, 0, 0, 0, 0, 0, 0, 0, 426, -44, -33, 36, -1906, 610, 14896, 595, 0, 0, 0, 0, 0
111, 1962435, 0, 0, 0, 0, 0, 0, 0, 0, 0, 0, 0, 430, -44, -33, 37, -1928, 600, 14904, 595, 0, 0, 0, 0, 0
112, 1972416, 0, 0, 0, 0, 0, 0, 0, 0, 0, 0, 0, 433, -44, -33, 37, -1924, 600, 14904, 595, 0, 0, 0, 0, 0
113, 1982406, 0, 0, 0, 0, 0, 0, 0, 0, 0, 0, 0, 437, -43, -33, 36, -1934, 618, 14894, 595, 0, 0, 0, 0, 0
114, 1992383, 0, 0, 0, 0, 0, 0, 0, 0, 0, 0, 0, 441, -43, -33, 36, -1944, 616, 14902, 595, 0, 0, 0, 0, 0
115, 2002379, 0, 0, 0, 0, 0, 0, 0, 0, 0, 0, 0, 445, -43, -33, 36, -1938, 592, 14888, 595, 0, 0, 0, 0, 0
116, 2012352, 0, 0, 0, 0, 0, 0, 0, 0, 0, 0, 0, 448, -44, -33, 36, -1928, 592, 14916, 595, 0, 0, 0, 0, 0
117, 2022337, 0, 0, 0, 0, 0, 0, 0, 0, 0, 0, 0, 452, -44, -33, 36, -1926, 606, 14912, 595, 0, 0, 0, 0, 0
118, 2032332, 0, 0, 0, 0, 0, 0, 0, 0, 0, 0, 0, 456, -44, -33, 36, -1916, 614, 14904, 595, 0, 0, 0, 0, 0
119, 2042304, 0, 0, 0, 0, 0, 0, 0, 0, 0, 0, 0, 459, -44, -33, 36, -1906, 612, 14876, 595, 0, 0, 0, 0, 0
120, 2052268, 0, 0, 0, 0, 0, 0, 0, 0, 0, 0, 0, 463, -44, -33, 36, -1904, 604, 14888, 595, 0, 0, 0, 0, 0
121, 2062257, 0, 0, 0, 0, 0, 0, 0, 0, 0, 0, 0, 467, -44, -33, 36, -1912, 602, 14904, 595, 0, 0, 0, 0, 0
122, 2072242, 0, 0, 0, 0, 0, 0, 0, 0, 0, 0, 0, 470, -44, -33, 36, -1912, 600, 14936, 595, 0, 0, 0, 0, 0
123, 2082233, 0, 0, 0, 0, 0, 0, 0, 0, 0, 0, 0, 474, -44, -33, 36, -1926, 594, 14928, 595, 0, 0, 0, 0, 0
124, 2092214, 0, 0, 0, 0, 0, 0, 0, 0, 0, 0, 0, 478, -44, -34, 36, -1926, 620, 14888, 595, 0, 0, 0, 0, 0
125, 2102188, 0, 0, 0, 0, 0, 0, 0, 0, 0, 0, 0, 482, -44, -33, 36, -1948, 616, 14896, 595, 0, 0, 0, 0, 0
126, 2112182, 0, 0, 0, 0, 0, 0, 0, 0, 0, 0, 0, 485, -44, -33, 36, -1928, 592, 14888, 595, 0, 0, 0, 0, 0
127, 2122162, 0, 0, 0, 0, 0, 0, 0, 0, 0, 0, 0, 489, -44, -33, 36, -1918, 574, 14910, 595, 0, 0, 0, 0, 0
128, 2132156, 0, 0, 0, 0, 0, 0, 0, 0, 0, 0, 0, 493, -44, -33, 37, -1900, 572, 14896, 595, 0, 0, 0, 0, 0
129, 2142137, 0, 0, 0, 0, 0, 0, 0, 0, 0, 0, 0, 496, -44, -33, 36, -1912, 574, 14926, 595, 0, 0, 0, 0, 0
130, 2152114, 0, 0, 0, 0, 0, 0, 0, 0, 0, 0, 0, 500, -44, -33, 36, -1912, 584, 14930, 595, 0, 0, 0, 0, 0
131, 2162105, 0, 0, 0, 0, 0, 0, 0, 0, 0, 0, 0, 504, -43, -33, 36, -1918, 604, 14900, 595, 0, 0, 0, 0, 0
132, 2172083, 0, 0, 0, 0, 0, 0, 0, 0, 0, 0, 0, 507, -44, -33, 36, -1904, 604, 14922, 595, 0, 0, 0, 0, 0
133, 2182052, 0, 0, 0, 0, 0, 0, 0, 0, 0, 0, 0, 511, -44, -33, 36, -1908, 618, 14868, 595, 0, 0, 0, 0, 0
134, 2192050, 0, 0, 0, 0, 0, 0, 0, 0, 0, 0, 0, 515, -44, -33, 36, -1928, 614, 14884, 595, 0, 0, 0, 0, 0
135, 2202028, 0, 0, 0, 0, 0, 0, 0, 0, 0, 0, 0, 519, -44, -33, 36, -1914, 606, 14888, 595, 0, 0, 0, 0, 0
136, 2212018, 0, 0, 0, 0, 0, 0, 0, 0, 0, 0, 0, 522, -44, -33, 36, -1904, 598, 14886, 595, 0, 0, 0, 0, 0
137, 2221998, 0, 0, 0, 0, 0, 0, 0, 0, 0, 0, 0, 526, -44, -33, 35, -1912, 602, 14890, 595, 0, 0, 0, 0, 0
138, 2231988, 0, 0, 0, 0, 0, 0, 0, 0, 0, 0, 0, 529, -44, -33, 35, -1924, 606, 14914, 595, 0, 0, 0, 0, 0
139, 2241976, 0, 0, 0, 0, 0, 0, 0, 0, 0, 0, 0, 533, -44, -33, 36, -1912, 614, 14932, 595, 0, 0, 0, 0, 0
140, 2251952, 0, 0, 0, 0, 0, 0, 0, 0, 0, 0, 0, 537, -44, -33, 36, -1894, 582, 14890, 595, 0, 0, 0, 0, 0
141, 2261928, 0, 0, 0, 0, 0, 0, 0, 0, 0, 0, 0, 540, -44, -33, 36, -1888, 596, 14886, 595, 0, 0, 0, 0, 0
142, 2272076, 0, 0, 0, 0, 0, 0, 0, 0, 0, 0, 0, 544, -44, -33, 36, -1890, 588, 14882, 595, 0, 0, 0, 0, 0
143, 2281890, 0, 0, 0, 0, 0, 0, 0, 0, 0, 0, 0, 548, -44, -33, 36, -1908, 604, 14896, 595, 0, 0, 0, 0, 0
144, 2291886, 0, 0, 0, 0, 0, 0, 0, 0, 0, 0, 0, 551, -44, -33, 36, -1934, 608, 14914, 595, 0, 0, 0, 0, 0
145, 2301876, 0, 0, 0, 0, 0, 0, 0, 0, 0, 0, 0, 555, -44, -33, 36, -1934, 596, 14902, 595, 0, 0, 0, 0, 0
146, 2311860, 0, 0, 0, 0, 0, 0, 0, 0, 0, 0, 0, 559, -44, -33, 36, -1934, 608, 14896, 595, 0, 0, 0, 0, 0
147, 2321836, 0, 0, 0, 0, 0, 0, 0, 0, 0, 0, 0, 562, -44, -33, 36, -1922, 622, 14920, 595, 0, 0, 0, 0, 0
148, 2331828, 0, 0, 0, 0, 0, 0, 0, 0, 0, 0, 0, 566, -44, -33, 36, -1906, 600, 14906, 595, 0, 0, 0, 0, 0
149, 2341821, 0, 0, 0, 0, 0, 0, 0, 0, 0, 0, 0, 570, -44, -34, 36, -1912, 590, 14900, 595, 0, 0, 0, 0, 0
150, 2351804, 0, 0, 0, 0, 0, 0, 0, 0, 0, 0, 0, 573, -44, -33, 36, -1920, 578, 14914, 595, 0, 0, 0, 0, 0
151, 2361781, 0, 0, 0, 0, 0, 0, 0, 0, 0, 0, 0, 577, -44, -33, 36, -1888, 572, 14900, 595, 0, 0, 0, 0, 0
152, 2371764, 0, 0, 0, 0, 0, 0, 0, 0, 0, 0, 0, 581, -44, -33, 36, -1896, 566, 14928, 595, 0, 0, 0, 0, 0
153, 2381743, 0, 0, 0, 0, 0, 0, 0, 0, 0, 0, 0, 584, -44, -32, 36, -1908, 588, 14924, 595, 0, 0, 0, 0, 0
154, 2391738, 0, 0, 0, 0, 0, 0, 0, 0, 0, 0, 0, 588, -44, -33, 36, -1926, 594, 14920, 595, 0, 0, 0, 0, 0
155, 2401718, 0, 0, 0, 0, 0, 0, 0, 0, 0, 0, 0, 592, -44, -32, 36, -1916, 580, 14910, 595, 0, 0, 0, 0, 0
156, 2411704, 0, 0, 0, 0, 0, 0, 0, 0, 0, 0, 0, 595, -43, -33, 36, -1932, 590, 14894, 595, 0, 0, 0, 0, 0
157, 2421685, 0, 0, 0, 0, 0, 0, 0, 0, 0, 0, 0, 599, -44, -33, 36, -1952, 604, 14866, 595, 0, 0, 0, 0, 0
158, 2431668, 0, 0, 0, 0, 0, 0, 0, 0, 0, 0, 0, 602, -44, -33, 36, -1918, 612, 14870, 595, 0, 0, 0, 0, 0
159, 2441658, 0, 0, 0, 0, 0, 0, 0, 0, 0, 0, 0, 606, -44, -33, 36, -1904, 604, 14862, 595, 0, 0, 0, 0, 0
160, 2451645, 0, 0, 0, 0, 0, 0, 0, 0, 0, 0, 0, 610, -44, -33, 36, -1878, 600, 14892, 595, 0, 0, 0, 0, 0
161, 2461632, 0, 0, 0, 0, 0, 0, 0, 0, 0, 0, 0, 613, -45, -33, 36, -1880, 600, 14904, 595, 0, 0, 0, 0, 0
162, 2471604, 0, 0, 0, 0, 0, 0, 0, 0, 0, 0, 0, 617, -44, -34, 36, -1882, 580, 14874, 595, 0, 0, 0, 0, 0
163, 2481590, 0, 0, 0, 0, 0, 0, 0, 0, 0, 0, 0, 621, -43, -33, 36, -1886, 594, 14866, 595, 0, 0, 0, 0, 0
164, 2491579, 0, 0, 0, 0, 0, 0, 0, 0, 0, 0, 0, 624, -44, -33, 36, -1900, 588, 14896, 595, 0, 0, 0, 0, 0
165, 2501569, 0, 0, 0, 0, 0, 0, 0, 0, 0, 0, 0, 628, -44, -34, 36, -1912, 600, 14914, 595, 0, 0, 0, 0, 0
166, 2511538, 0, 0, 0, 0, 0, 0, 0, 0, 0, 0, 0, 632, -44, -33, 36, -1902, 602, 14874, 595, 0, 0, 0, 0, 0
167, 2521524, 0, 0, 0, 0, 0, 0, 0, 0, 0, 0, 0, 635, -44, -33, 36, -1926, 598, 14890, 595, 0, 0, 0, 0, 0
168, 2531518, 0, 0, 0, 0, 0, 0, 0, 0, 0, 0, 0, 639, -44, -33, 36, -1922, 602, 14896, 595, 0, 0, 0, 0, 0
169, 2541506, 0, 0, 0, 0, 0, 0, 0, 0, 0, 0, 0, 642, -44, -33, 36, -1920, 612, 14920, 595, 0, 0, 0, 0, 0
170, 2551483, 0, 0, 0, 0, 0, 0, 0, 0, 0, 0, 0, 646, -44, -33, 36, -1920, 602, 14926, 595, 0, 0, 0, 0, 0
171, 2561465, 0, 0, 0, 0, 0, 0, 0, 0, 0, 0, 0, 650, -44, -33, 36, -1916, 606, 14906, 595, 0, 0, 0, 0, 0
172, 2571441, 0, 0, 0, 0, 0, 0, 0, 0, 0, 0, 0, 653, -44, -33, 36, -1910, 610, 14894, 595, 0, 0, 0, 0, 0
173, 2581427, 0, 0, 0, 0, 0, 0, 0, 0, 0, 0, 0, 657, -44, -33, 36, -1916, 590, 14872, 595, 0, 0, 0, 0, 0
174, 2591412, 0, 0, 0, 0, 0, 0, 0, 0, 0, 0, 0, 660, -44, -33, 36, -1910, 594, 14910, 595, 0, 0, 0, 0, 0
175, 2601391, 0, 0, 0, 0, 0, 0, 0, 0, 0, 0, 0, 664, -44, -33, 36, -1900, 606, 14920, 595, 0, 0, 0, 0, 0
176, 2611380, 0, 0, 0, 0, 0, 0, 0, 0, 0, 0, 0, 668, -44, -33, 37, -1892, 626, 14910, 595, 0, 0, 0, 0, 0
177, 2621350, 0, 0, 0, 0, 0, 0, 0, 0, 0, 0, 0, 671, -44, -33, 37, -1896, 622, 14896, 595, 0, 0, 0, 0, 0
178, 2631347, 0, 0, 0, 0, 0, 0, 0, 0, 0, 0, 0, 675, -44, -33, 36, -1912, 602, 14918, 595, 0, 0, 0, 0, 0
179, 2641334, 0, 0, 0, 0, 0, 0, 0, 0, 0, 0, 0, 679, -44, -33, 36, -1932, 594, 14904, 595, 0, 0, 0, 0, 0
180, 2651319, 0, 0, 0, 0, 0, 0, 0, 0, 0, 0, 0, 682, -44, -33, 36, -1936, 598, 14900, 595, 0, 0, 0, 0, 0
181, 2661292, 0, 0, 0, 0, 0, 0, 0, 0, 0, 0, 0, 686, -44, -33, 36, -1920, 604, 14912, 595, 0, 0, 0, 0, 0
182, 2671291, 0, 0, 0, 0, 0, 0, 0, 0, 0, 0, 0, 690, -44, -33, 36, -1904, 592, 14910, 595, 0, 0, 0, 0, 0
183, 2681264, 0, 0, 0, 0, 0, 0, 0, 0, 0, 0, 0, 693, -44, -33, 36, -1914, 576, 14924, 595, 0, 0, 0, 0, 0
184, 2691239, 0, 0, 0, 0, 0, 0, 0, 0, 0, 0, 0, 697, -44, -33, 36, -1900, 596, 14908, 595, 0, 0, 0, 0, 0
185, 2701242, 0, 0, 0, 0, 0, 0, 0, 0, 0, 0, 0, 700, -44, -33, 36, -1912, 598, 14886, 595, 0, 0, 0, 0, 0
186, 2711212, 0, 0, 0, 0, 0, 0, 0, 0, 0, 0, 0, 704, -44, -33, 36, -1912, 600, 14888, 595, 0, 0, 0, 0, 0
187, 2721209, 0, 0, 0, 0, 0, 0, 0, 0, 0, 0, 0, 707, -45, -33, 35, -1932, 610, 14870, 595, 0, 0, 0, 0, 0
188, 2731188, 0, 0, 0, 0, 0, 0, 0, 0, 0, 0, 0, 711, -45, -33, 36, -1940, 596, 14886, 595, 0, 0, 0, 0, 0
189, 2741178, 0, 0, 0, 0, 0, 0, 0, 0, 0, 0, 0, 715, -44, -33, 36, -1924, 608, 14898, 595, 0, 0, 0, 0, 0
190, 2751161, 0, 0, 0, 0, 0, 0, 0, 0, 0, 0, 0, 718, -44, -33, 36, -1916, 610, 14890, 595, 0, 0, 0, 0, 0
191, 2761129, 0, 0, 0, 0, 0, 0, 0, 0, 0, 0, 0, 722, -44, -33, 36, -1920, 594, 14892, 595, 0, 0, 0, 0, 0
192, 2771125, 0, 0, 0, 0, 0, 0, 0, 0, 0, 0, 0, 726, -44, -34, 36, -1918, 596, 14892, 595, 0, 0, 0, 0, 0
193, 2781106, 0, 0, 0, 0, 0, 0, 0, 0, 0, 0, 0, 729, -44, -34, 37, -1902, 574, 14894, 595, 0, 0, 0, 0, 0
194, 2791100, 0, 0, 0, 0, 0, 0, 0, 0, 0, 0, 0, 733, -44, -33, 36, -1916, 588, 14892, 595, 0, 0, 0, 0, 0
195, 2801081, 0, 0, 0, 0, 0, 0, 0, 0, 0, 0, 0, 736, -44, -33, 36, -1916, 592, 14896, 595, 0, 0, 0, 0, 0
196, 2811051, 0, 0, 0, 0, 0, 0, 0, 0, 0, 0, 0, 740, -44, -33, 36, -1912, 596, 14892, 595, 0, 0, 0, 0, 0
197, 2821049, 0, 0, 0, 0, 0, 0, 0, 0, 0, 0, 0, 744, -43, -33, 36, -1916, 596, 14888, 595, 0, 0, 0, 0, 0
198, 2831024, 0, 0, 0, 0, 0, 0, 0, 0, 0, 0, 0, 747, -44, -33, 36, -1924, 592, 14900, 595, 0, 0, 0, 0, 0
199, 2841013, 0, 0, 0, 0, 0, 0, 0, 0, 0, 0, 0, 751, -43, -33, 36, -1930, 596, 14916, 595, 0, 0, 0, 0, 0
200, 2850998, 0, 0, 0, 0, 0, 0, 0, 0, 0, 0, 0, 754, -43, -33, 36, -1926, 618, 14888, 595, 0, 0, 0, 0, 0
201, 2860972, 0, 0, 0, 0, 0, 0, 0, 0, 0, 0, 0, 758, -44, -34, 37, -1914, 598, 14888, 595, 0, 0, 0, 0, 0
202, 2870973, 0, 0, 0, 0, 0, 0, 0, 0, 0, 0, 0, 762, -44, -34, 36, -1920, 596, 14868, 595, 0, 0, 0, 0, 0
203, 2881107, 0, 0, 0, 0, 0, 0, 0, 0, 0, 0, 0, 765, -44, -33, 36, -1908, 598, 14902, 595, 0, 0, 0, 0, 0
204, 2890930, 0, 0, 0, 0, 0, 0, 0, 0, 0, 0, 0, 769, -44, -33, 36, -1928, 608, 14920, 595, 0, 0, 0, 0, 0
205, 2900906, 0, 0, 0, 0, 0, 0, 0, 0, 0, 0, 0, 773, -44, -33, 36, -1914, 602, 14920, 595, 0, 0, 0, 0, 0
206, 2910884, 0, 0, 0, 0, 0, 0, 0, 0, 0, 0, 0, 776, -44, -33, 36, -1906, 616, 14922, 595, 0, 0, 0, 0, 0
207, 2920863, 0, 0, 0, 0, 0, 0, 0, 0, 0, 0, 0, 780, -44, -33, 36, -1906, 604, 14906, 595, 0, 0, 0, 0, 0
208, 2930848, 0, 0, 0, 0, 0, 0, 0, 0, 0, 0, 0, 783, -44, -32, 36, -1912, 594, 14894, 595, 0, 0, 0, 0, 0
209, 2940843, 0, 0, 0, 0, 0, 0, 0, 0, 0, 0, 0, 787, -44, -32, 36, -1918, 604, 14896, 595, 0, 0, 0, 0, 0
210, 2950824, 0, 0, 0, 0, 0, 0, 0, 0, 0, 0, 0, 790, -44, -33, 36, -1924, 590, 14900, 595, 0, 0, 0, 0, 0
211, 2960815, 0, 0, 0, 0, 0, 0, 0, 0, 0, 0, 0, 794, -44, -33, 36, -1938, 576, 14880, 595, 0, 0, 0, 0, 0
212, 2970794, 0, 0, 0, 0, 0, 0, 0, 0, 0, 0, 0, 798, -44, -33, 36, -1938, 576, 14878, 595, 0, 0, 0, 0, 0
213, 2980766, 0, 0, 0, 0, 0, 0, 0, 0, 0, 0, 0, 801, -44, -33, 36, -1936, 580, 14874, 595, 0, 0, 0, 0, 0
214, 2990761, 0, 0, 0, 0, 0, 0, 0, 0, 0, 0, 0, 805, -45, -33, 36, -1922, 598, 14878, 595, 0, 0, 0, 0, 0
215, 3000739, 0, 0, 0, 0, 0, 0, 0, 0, 0, 0, 0, 808, -44, -34, 36, -1924, 604, 14906, 595, 0, 0, 0, 0, 0
216, 3010733, 0, 0, 0, 0, 0, 0, 0, 0, 0, 0, 0, 812, -44, -33, 36, -1914, 584, 14884, 595, 0, 0, 0, 0, 0
217, 3020707, 0, 0, 0, 0, 0, 0, 0, 0, 0, 0, 0, 815, -44, -33, 36, -1894, 586, 14882, 595, 0, 0, 0, 0, 0
218, 3030685, 0, 0, 0, 0, 0, 0, 0, 0, 0, 0, 0, 819, -44, -33, 36, -1916, 604, 14902, 595, 0, 0, 0, 0, 0
219, 3040661, 0, 0, 0, 0, 0, 0, 0, 0, 0, 0, 0, 823, -44, -33, 36, -1928, 606, 14900, 595, 0, 0, 0, 0, 0
220, 3050650, 0, 0, 0, 0, 0, 0, 0, 0, 0, 0, 0, 826, -44, -33, 36, -1932, 608, 14906, 595, 0, 0, 0, 0, 0
221, 3060628, 0, 0, 0, 0, 0, 0, 0, 0, 0, 0, 0, 830, -44, -33, 36, -1924, 614, 14920, 595, 0, 0, 0, 0, 0
222, 3070621, 0, 0, 0, 0, 0, 0, 0, 0, 0, 0, 0, 833, -44, -32, 36, -1928, 590, 14910, 595, 0, 0, 0, 0, 0
223, 3080608, 0, 0, 0, 0, 0, 0, 0, 0, 0, 0, 0, 837, -44, -32, 36, -1904, 590, 14918, 595, 0, 0, 0, 0, 0
224, 3090597, 0, 0, 0, 0, 0, 0, 0, 0, 0, 0, 0, 840, -44, -33, 36, -1902, 594, 14920, 595, 0, 0, 0, 0, 0
225, 3100565, 0, 0, 0, 0, 0, 0, 0, 0, 0, 0, 0, 844, -44, -33, 36, -1912, 598, 14912, 595, 0, 0, 0, 0, 0
226, 3110562, 0, 0, 0, 0, 0, 0, 0, 0, 0, 0, 0, 848, -44, -33, 36, -1910, 620, 14912, 595, 0, 0, 0, 0, 0
227, 3120540, 0, 0, 0, 0, 0, 0, 0, 0, 0, 0, 0, 851, -44, -33, 36, -1908, 612, 14914, 595, 0, 0, 0, 0, 0
228, 3130542, 0, 0, 0, 0, 0, 0, 0, 0, 0, 0, 0, 855, -44, -33, 36, -1928, 606, 14868, 595, 0, 0, 0, 0, 0
229, 3140510, 0, 0, 0, 0, 0, 0, 0, 0, 0, 0, 0, 858, -44, -33, 36, -1920, 596, 14886, 595, 0, 0, 0, 0, 0
230, 3150484, 0, 0, 0, 0, 0, 0, 0, 0, 0, 0, 0, 862, -44, -33, 36, -1920, 596, 14884, 595, 0, 0, 0, 0, 0
231, 3160485, 0, 0, 0, 0, 0, 0, 0, 0, 0, 0, 0, 865, -44, -33, 36, -1910, 610, 14852, 595, 0, 0, 0, 0, 0
232, 3170467, 0, 0, 0, 0, 0, 0, 0, 0, 0, 0, 0, 869, -45, -33, 36, -1930, 610, 14878, 595, 0, 0, 0, 0, 0
233, 3180451, 0, 0, 0, 0, 0, 0, 0, 0, 0, 0, 0, 872, -44, -33, 36, -1930, 604, 14890, 595, 0, 0, 0, 0, 0
234, 3190439, 0, 0, 0, 0, 0, 0, 0, 0, 0, 0, 0, 876, -44, -33, 36, -1908, 582, 14910, 595, 0, 0, 0, 0, 0
235, 3200416, 0, 0, 0, 0, 0, 0, 0, 0, 0, 0, 0, 880, -44, -33, 36, -1906, 586, 14888, 595, 0, 0, 0, 0, 0
236, 3210396, 0, 0, 0, 0, 0, 0, 0, 0, 0, 0, 0, 883, -44, -33, 37, -1914, 578, 14898, 595, 0, 0, 0, 0, 0
237, 3220390, 0, 0, 0, 0, 0, 0, 0, 0, 0, 0, 0, 887, -44, -34, 37, -1902, 582, 14924, 595, 0, 0, 0, 0, 0
238, 3230373, 0, 0, 0, 0, 0, 0, 0, 0, 0, 0, 0, 890, -43, -33, 36, -1900, 574, 14896, 595, 0, 0, 0, 0, 0
239, 3240354, 0, 0, 0, 0, 0, 0, 0, 0, 0, 0, 0, 894, -43, -33, 36, -1900, 574, 14898, 595, 0, 0, 0, 0, 0
240, 3250336, 0, 0, 0, 0, 0, 0, 0, 0, 0, 0, 0, 898, -43, -32, 36, -1908, 592, 14864, 595, 0, 0, 0, 0, 0
241, 3260318, 0, 0, 0, 0, 0, 0, 0, 0, 0, 0, 0, 901, -44, -34, 36, -1918, 622, 14884, 595, 0, 0, 0, 0, 0
242, 3270298, 0, 0, 0, 0, 0, 0, 0, 0, 0, 0, 0, 905, -44, -34, 36, -1940, 640, 14896, 595, 0, 0, 0, 0, 0
243, 3280284, 0, 0, 0, 0, 0, 0, 0, 0, 0, 0, 0, 908, -44, -34, 36, -1940, 602, 14886, 595, 0, 0, 0, 0, 0
244, 3290268, 0, 0, 0, 0, 0, 0, 0, 0, 0, 0, 0, 912, -44, -34, 37, -1932, 602, 14904, 595, 0, 0, 0, 0, 0
245, 3300255, 0, 0, 0, 0, 0, 0, 0, 0, 0, 0, 0, 915, -44, -34, 36, -1922, 600, 14872, 595, 0, 0, 0, 0, 0
246, 3310232, 0, 0, 0, 0, 0, 0, 0, 0, 0, 0, 0, 919, -44, -33, 36, -1910, 584, 14898, 595, 0, 0, 0, 0, 0
247, 3320222, 0, 0, 0, 0, 0, 0, 0, 0, 0, 0, 0, 922, -44, -33, 35, -1880, 572, 14910, 595, 0, 0, 0, 0, 0
248, 3330195, 0, 0, 0, 0, 0, 0, 0, 0, 0, 0, 0, 926, -44, -33, 36, -1870, 554, 14908, 595, 0, 0, 0, 0, 0
249, 3340179, 0, 0, 0, 0, 0, 0, 0, 0, 0, 0, 0, 929, -44, -33, 36, -1860, 574, 14916, 595, 0, 0, 0, 0, 0
250, 3350166, 0, 0, 0, 0, 0, 0, 0, 0, 0, 0, 0, 933, -44, -34, 36, -1884, 596, 14912, 595, 0, 0, 0, 0, 0
251, 3360141, 0, 0, 0, 0, 0, 0, 0, 0, 0, 0, 0, 936, -44, -33, 36, -1892, 606, 14906, 595, 0, 0, 0, 0, 0
252, 3370134, 0, 0, 0, 0, 0, 0, 0, 0, 0, 0, 0, 940, -43, -33, 36, -1912, 586, 14904, 595, 0, 0, 0, 0, 0
253, 3380113, 0, 0, 0, 0, 0, 0, 0, 0, 0, 0, 0, 944, -44, -33, 37, -1918, 588, 14866, 595, 0, 0, 0, 0, 0
254, 3390102, 0, 0, 0, 0, 0, 0, 0, 0, 0, 0, 0, 947, -43, -33, 36, -1914, 576, 14864, 595, 0, 0, 0, 0, 0
255, 3400087, 0, 0, 0, 0, 0, 0, 0, 0, 0, 0, 0, 951, -44, -32, 37, -1914, 606, 14878, 595, 0, 0, 0, 0, 0
256, 3410064, 0, 0, 0, 0, 0, 0, 0, 0, 0, 0, 0, 954, -44, -32, 36, -1898, 624, 14870, 595, 0, 0, 0, 0, 0
257, 3420052, 0, 0, 0, 0, 0, 0, 0, 0, 0, 0, 0, 958, -44, -33, 36, -1900, 622, 14882, 595, 0, 0, 0, 0, 0
258, 3430032, 0, 0, 0, 0, 0, 0, 0, 0, 0, 0, 0, 961, -44, -33, 36, -1910, 624, 14894, 595, 0, 0, 0, 0, 0
259, 3440020, 0, 0, 0, 0, 0, 0, 0, 0, 0, 0, 0, 965, -44, -33, 36, -1906, 590, 14914, 595, 0, 0, 0, 0, 0
260, 3450002, 0, 0, 0, 0, 0, 0, 0, 0, 0, 0, 0, 968, -44, -33, 36, -1916, 590, 14930, 595, 0, 0, 0, 0, 0
261, 3459977, 0, 0, 0, 0, 0, 0, 0, 0, 0, 0, 0, 972, -44, -34, 36, -1924, 574, 14926, 595, 0, 0, 0, 0, 0
262, 3469975, 0, 0, 0, 0, 0, 0, 0, 0, 0, 0, 0, 975, -44, -33, 37, -1934, 580, 14904, 595, 0, 0, 0, 0, 0
263, 3479946, 0, 0, 0, 0, 0, 0, 0, 0, 0, 0, 0, 979, -44, -33, 36, -1924, 594, 14900, 595, 0, 0, 0, 0, 0
264, 3490086, 0, 0, 0, 0, 0, 0, 0, 0, 0, 0, 0, 983, -44, -33, 36, -1914, 572, 14906, 595, 0, 0, 0, 0, 0
265, 3499912, 0, 0, 0, 0, 0, 0, 0, 0, 0, 0, 0, 986, -44, -33, 36, -1906, 582, 14902, 595, 0, 0, 0, 0, 0
266, 3509905, 0, 0, 0, 0, 0, 0, 0, 0, 0, 0, 0, 989, -43, -33, 35, -1902, 596, 14892, 595, 0, 0, 0, 0, 0
267, 3519882, 0, 0, 0, 0, 0, 0, 0, 0, 0, 0, 0, 993, -44, -33, 36, -1900, 614, 14934, 595, 0, 0, 0, 0, 0
268, 3529850, 0, 0, 0, 0, 0, 0, 0, 0, 0, 0, 0, 996, -43, -33, 36, -1908, 606, 14924, 595, 0, 0, 0, 0, 0
269, 3539833, 0, 0, 0, 0, 0, 0, 0, 0, 0, 0, 0, 1000, -43, -33, 36, -1910, 602, 14924, 595, 0, 0, 0, 0, 0
270, 3549828, 0, 0, 0, 0, 0, 0, 0, 0, 0, 0, 0, 1003, -43, -33, 36, -1908, 606, 14892, 595, 0, 0, 0, 0, 0
271, 3559806, 0, 0, 0, 0, 0, 0, 0, 0, 0, 0, 0, 1007, -44, -33, 36, -1910, 614, 14888, 595, 0, 0, 0, 0, 0
272, 3569790, 0, 0, 0, 0, 0, 0, 0, 0, 0, 0, 0, 1010, -44, -33, 36, -1902, 604, 14892, 595, 0, 0, 0, 0, 0
273, 3579772, 0, 0, 0, 0, 0, 0, 0, 0, 0, 0, 0, 1014, -43, -33, 37, -1918, 604, 14900, 595, 0, 0, 0, 0, 0
274, 3589753, 0, 0, 0, 0, 0, 0, 0, 0, 0, 0, 0, 1018, -44, -33, 37, -1932, 604, 14900, 595, 0, 0, 0, 0, 0
275, 3599744, 0, 0, 0, 0, 0, 0, 0, 0, 0, 0, 0, 1021, -44, -33, 36, -1944, 624, 14886, 595, 0, 0, 0, 0, 0
276, 3609713, 0, 0, 0, 0, 0, 0, 0, 0, 0, 0, 0, 1025, -44, -34, 36, -1944, 608, 14890, 595, 0, 0, 0, 0, 0
277, 3619713, 0, 0, 0, 0, 0, 0, 0, 0, 0, 0, 0, 1028, -45, -34, 36, -1930, 618, 14914, 595, 0, 0, 0, 0, 0
278, 3629688, 0, 0, 0, 0, 0, 0, 0, 0, 0, 0, 0, 1032, -44, -33, 36, -1930, 622, 14886, 595, 0, 0, 0, 0, 0
279, 3639668, 0, 0, 0, 0, 0, 0, 0, 0, 0, 0, 0, 1035, -44, -33, 36, -1918, 614, 14876, 595, 0, 0, 0, 0, 0
280, 3649662, 0, 0, 0, 0, 0, 0, 0, 0, 0, 0, 0, 1039, -44, -34, 36, -1918, 618, 14892, 595, 0, 0, 0, 0, 0
281, 3659632, 0, 0, 0, 0, 0, 0, 0, 0, 0, 0, 0, 1042, -44, -34, 36, -1924, 600, 14894, 595, 0, 0, 0, 0, 0
282, 3669617, 0, 0, 0, 0, 0, 0, 0, 0, 0, 0, 0, 1046, -44, -34, 36, -1904, 582, 14906, 595, 0, 0, 0, 0, 0
283, 3679606, 0, 0, 0, 0, 0, 0, 0, 0, 0, 0, 0, 1049, -44, -33, 36, -1894, 574, 14902, 595, 0, 0, 0, 0, 0
284, 3689584, 0, 0, 0, 0, 0, 0, 0, 0, 0, 0, 0, 1053, -44, -33, 36, -1892, 576, 14890, 595, 0, 0, 0, 0, 0
285, 3699572, 0, 0, 0, 0, 0, 0, 0, 0, 0, 0, 0, 1056, -44, -34, 36, -1880, 574, 14886, 595, 0, 0, 0, 0, 0
286, 3709563, 0, 0, 0, 0, 0, 0, 0, 0, 0, 0, 0, 1060, -44, -34, 36, -1894, 592, 14866, 595, 0, 0, 0, 0, 0
287, 3719531, 0, 0, 0, 0, 0, 0, 0, 0, 0, 0, 0, 1063, -44, -34, 36, -1898, 610, 14882, 595, 0, 0, 0, 0, 0
288, 3729583, 0, 0, 0, 0, 0, 0, 0, 0, 0, 0, 0, 1067, -44, -33, 36, -1898, 602, 14882, 595, 0, 0, 0, 0, 0
289, 3739506, 0, 0, 0, 0, 0, 0, 0, 0, 0, 0, 0, 1070, -44, -34, 36, -1902, 610, 14904, 595, 0, 0, 0, 0, 0
290, 3749591, 0, 0, 0, 0, 0, 0, 0, 0, 0, 0, 0, 1074, -44, -33, 36, -1904, 600, 14932, 595, 0, 0, 0, 0, 0
291, 3759470, 0, 0, 0, 0, 0, 0, 0, 0, 0, 0, 0, 1077, -44, -34, 37, -1906, 582, 14916, 595, 0, 0, 0, 0, 0
292, 3769568, 0, 0, 0, 0, 0, 0, 0, 0, 0, 0, 0, 1081, -44, -33, 36, -1904, 590, 14904, 595, 0, 0, 0, 0, 0
293, 3779440, 0, 0, 0, 0, 0, 0, 0, 0, 0, 0, 0, 1084, -44, -33, 36, -1890, 592, 14924, 595, 0, 0, 0, 0, 0
294, 3789433, 0, 0, 0, 0, 0, 0, 0, 0, 0, 0, 0, 1088, -44, -33, 36, -1888, 604, 14906, 595, 0, 0, 0, 0, 0
295, 3799409, 0, 0, 0, 0, 0, 0, 0, 0, 0, 0, 0, 1091, -44, -33, 36, -1892, 626, 14902, 595, 0, 0, 0, 0, 0
296, 3809394, 0, 0, 0, 0, 0, 0, 0, 0, 0, 0, 0, 1095, -44, -33, 36, -1910, 596, 14920, 595, 0, 0, 0, 0, 0
297, 3819378, 0, 0, 0, 0, 0, 0, 0, 0, 0, 0, 0, 1098, -43, -33, 36, -1916, 608, 14932, 595, 0, 0, 0, 0, 0
298, 3829361, 0, 0, 0, 0, 0, 0, 0, 0, 0, 0, 0, 1102, -43, -33, 36, -1920, 622, 14900, 595, 0, 0, 0, 0, 0
299, 3839344, 0, 0, 0, 0, 0, 0, 0, 0, 0, 0, 0, 1105, -44, -33, 36, -1920, 610, 14916, 595, 0, 0, 0, 0, 0
300, 3849323, 0, 0, 0, 0, 0, 0, 0, 0, 0, 0, 0, 1109, -44, -33, 36, -1922, 608, 14912, 595, 0, 0, 0, 0, 0
301, 3859306, 0, 0, 0, 0, 0, 0, 0, 0, 0, 0, 0, 1112, -44, -33, 36, -1924, 612, 14912, 595, 0, 0, 0, 0, 0
302, 3869297, 0, 0, 0, 0, 0, 0, 0, 0, 0, 0, 0, 1116, -44, -33, 36, -1914, 632, 14904, 595, 0, 0, 0, 0, 0
303, 3879278, 0, 0, 0, 0, 0, 0, 0, 0, 0, 0, 0, 1119, -43, -33, 37, -1930, 620, 14906, 595, 0, 0, 0, 0, 0
304, 3889266, 0, 0, 0, 0, 0, 0, 0, 0, 0, 0, 0, 1123, -43, -33, 37, -1926, 594, 14918, 595, 0, 0, 0, 0, 0
305, 3899246, 0, 0, 0, 0, 0, 0, 0, 0, 0, 0, 0, 1127, -43, -33, 36, -1928, 600, 14902, 595, 0, 0, 0, 0, 0
306, 3909233, 0, 0, 0, 0, 0, 0, 0, 0, 0, 0, 0, 1130, -44, -33, 36, -1902, 588, 14898, 595, 0, 0, 0, 0, 0
307, 3919223, 0, 0, 0, 0, 0, 0, 0, 0, 0, 0, 0, 1134, -44, -33, 36, -1898, 598, 14926, 595, 0, 0, 0, 0, 0
308, 3929196, 0, 0, 0, 0, 0, 0, 0, 0, 0, 0, 0, 1137, -44, -32, 36, -1896, 604, 14926, 595, 0, 0, 0, 0, 0
309, 3939251, 0, 0, 0, 0, 0, 0, 0, 0, 0, 0, 0, 1141, -44, -32, 37, -1914, 610, 14906, 595, 0, 0, 0, 0, 0
310, 3949161, 0, 0, 0, 0, 0, 0, 0, 0, 0, 0, 0, 1144, -44, -33, 37, -1926, 592, 14936, 595, 0, 0, 0, 0, 0
311, 3959263, 0, 0, 0, 0, 0, 0, 0, 0, 0, 0, 0, 1148, -44, -33, 37, -1922, 574, 14912, 595, 0, 0, 0, 0, 0
312, 3969130, 0, 0, 0, 0, 0, 0, 0, 0, 0, 0, 0, 1151, -44, -33, 37, -1924, 580, 14892, 595, 0, 0, 0, 0, 0
313, 3979205, 0, 0, 0, 0, 0, 0, 0, 0, 0, 0, 0, 1155, -44, -33, 36, -1934, 586, 14892, 595, 0, 0, 0, 0, 0
314, 3989102, 0, 0, 0, 0, 0, 0, 0, 0, 0, 0, 0, 1158, -44, -33, 37, -1924, 604, 14884, 595, 0, 0, 0, 0, 0
315, 3999085, 0, 0, 0, 0, 0, 0, 0, 0, 0, 0, 0, 1162, -44, -33, 36, -1916, 588, 14896, 595, 0, 0, 0, 0, 0
316, 4009059, 0, 0, 0, 0, 0, 0, 0, 0, 0, 0, 0, 1165, -44, -32, 36, -1896, 580, 14904, 595, 0, 0, 0, 0, 0
317, 4019043, 0, 0, 0, 0, 0, 0, 0, 0, 0, 0, 0, 1169, -44, -32, 36, -1884, 582, 14912, 595, 0, 0, 0, 0, 0
318, 4029037, 0, 0, 0, 0, 0, 0, 0, 0, 0, 0, 0, 1172, -44, -33, 36, -1900, 580, 14942, 595, 0, 0, 0, 0, 0
319, 4039014, 0, 0, 0, 0, 0, 0, 0, 0, 0, 0, 0, 1176, -44, -32, 36, -1900, 586, 14924, 595, 0, 0, 0, 0, 0
320, 4049001, 0, 0, 0, 0, 0, 0, 0, 0, 0, 0, 0, 1179, -44, -33, 36, -1904, 590, 14908, 595, 0, 0, 0, 0, 0
321, 4058982, 0, 0, 0, 0, 0, 0, 0, 0, 0, 0, 0, 1183, -45, -32, 36, -1902, 606, 14916, 595, 0, 0, 0, 0, 0
322, 4068966, 0, 0, 0, 0, 0, 0, 0, 0, 0, 0, 0, 1186, -44, -32, 36, -1906, 600, 14938, 595, 0, 0, 0, 0, 0
323, 4078954, 0, 0, 0, 0, 0, 0, 0, 0, 0, 0, 0, 1190, -44, -33, 35, -1906, 598, 14924, 595, 0, 0, 0, 0, 0
324, 4088925, 0, 0, 0, 0, 0, 0, 0, 0, 0, 0, 0, 1193, -44, -33, 35, -1920, 608, 14904, 595, 0, 0, 0, 0, 0
325, 4099072, 0, 0, 0, 0, 0, 0, 0, 0, 0, 0, 0, 1197, -44, -32, 36, -1926, 630, 14912, 595, 0, 0, 0, 0, 0
326, 4108899, 0, 0, 0, 0, 0, 0, 0, 0, 0, 0, 0, 1200, -44, -32, 36, -1914, 630, 14928, 595, 0, 0, 0, 0, 0
327, 4118887, 0, 0, 0, 0, 0, 0, 0, 0, 0, 0, 0, 1203, -44, -32, 36, -1916, 602, 14918, 595, 0, 0, 0, 0, 0
328, 4128893, 0, 0, 0, 0, 0, 0, 0, 0, 0, 0, 0, 1207, -44, -32, 36, -1902, 600, 14920, 595, 0, 0, 0, 0, 0
329, 4138850, 0, 0, 0, 0, 0, 0, 0, 0, 0, 0, 0, 1211, -44, -32, 36, -1908, 594, 14926, 595, 0, 0, 0, 0, 0
330, 4148930, 0, 0, 0, 0, 0, 0, 0, 0, 0, 0, 0, 1214, -43, -32, 37, -1894, 588, 14898, 595, 0, 0, 0, 0, 0
331, 4158824, 0, 0, 0, 0, 0, 0, 0, 0, 0, 0, 0, 1218, -44, -32, 37, -1874, 590, 14850, 595, 0, 0, 0, 0, 0
332, 4168918, 0, 0, 0, 0, 0, 0, 0, 0, 0, 0, 0, 1221, -43, -32, 36, -1874, 586, 14874, 595, 0, 0, 0, 0, 0
333, 4178783, 0, 0, 0, 0, 0, 0, 0, 0, 0, 0, 0, 1225, -43, -31, 36, -1896, 578, 14874, 595, 0, 0, 0, 0, 0
334, 4188823, 0, 0, 0, 0, 0, 0, 0, 0, 0, 0, 0, 1228, -44, -32, 36, -1898, 550, 14850, 595, 0, 0, 0, 0, 0
335, 4198743, 0, 0, 0, 0, 0, 0, 0, 0, 0, 0, 0, 1232, -43, -32, 36, -1916, 568, 14872, 595, 0, 0, 0, 0, 0
336, 4208740, 0, 0, 0, 0, 0, 0, 0, 0, 0, 0, 0, 1235, -43, -33, 36, -1908, 564, 14868, 595, 0, 0, 0, 0, 0
337, 4218718, 0, 0, 0, 0, 0, 0, 0, 0, 0, 0, 0, 1239, -44, -33, 36, -1922, 588, 14864, 595, 0, 0, 0, 0, 0
338, 4228695, 0, 0, 0, 0, 0, 0, 0, 0, 0, 0, 0, 1242, -44, -32, 36, -1900, 622, 14872, 595, 0, 0, 0, 0, 0
339, 4238692, 0, 0, 0, 0, 0, 0, 0, 0, 0, 0, 0, 1246, -44, -33, 36, -1914, 628, 14894, 595, 0, 0, 0, 0, 0
340, 4248669, 0, 0, 0, 0, 0, 0, 0, 0, 0, 0, 0, 1249, -44, -33, 37, -1930, 598, 14902, 595, 0, 0, 0, 0, 0
341, 4258653, 0, 0, 0, 0, 0, 0, 0, 0, 0, 0, 0, 1253, -44, -33, 37, -1912, 586, 14894, 595, 0, 0, 0, 0, 0
342, 4268637, 0, 0, 0, 0, 0, 0, 0, 0, 0, 0, 0, 1256, -44, -33, 36, -1844, 586, 14876, 595, 0, 0, 0, 0, 0
343, 4278615, 0, 0, 0, 0, 0, 0, 0, 0, 0, 0, 0, 1260, -44, -32, 36, -1800, 598, 14852, 595, 0, 0, 0, 0, 0
344, 4288610, 0, 0, 0, 0, 0, 0, 0, 0, 0, 0, 0, 1263, -44, -32, 36, -1776, 604, 14910, 595, 0, 0, 0, 0, 0
345, 4298574, 0, 0, 0, 0, 0, 0, 0, 0, 0, 0, 0, 1267, -44, -31, 36, -1832, 578, 14914, 595, 0, 0, 0, 0, 0
346, 4308554, 0, 0, 0, 0, 0, 0, 0, 0, 0, 0, 0, 1270, -43, -31, 36, -1948, 556, 14908, 595, 0, 0, 0, 0, 0
347, 4318553, 0, 0, 0, 0, 0, 0, 0, 0, 0, 0, 0, 1274, -43, -31, 37, -2038, 550, 14894, 595, 0, 0, 0, 0, 0
348, 4328533, 0, 0, 0, 0, 0, 0, 0, 0, 0, 0, 0, 1277, -43, -32, 37, -2078, 598, 14888, 595, 0, 0, 0, 0, 0
349, 4338559, 0, 0, 0, 0, 0, 0, 0, 0, 0, 0, 0, 1281, -44, -33, 36, -2072, 648, 14894, 595, 0, 0, 0, 0, 0
350, 4348505, 0, 0, 0, 0, 0, 0, 0, 0, 0, 0, 0, 1284, -44, -34, 36, -2020, 686, 14900, 595, 0, 0, 0, 0, 0
351, 4358588, 0, 0, 0, 0, 0, 0, 0, 0, 0, 0, 0, 1288, -45, -35, 36, -1948, 672, 14912, 595, 0, 0, 0, 0, 0
352, 4368474, 0, 0, 0, 0, 0, 0, 0, 0, 0, 0, 0, 1291, -44, -34, 36, -1892, 608, 14902, 595, 0, 0, 0, 0, 0
353, 4378574, 0, 0, 0, 0, 0, 0, 0, 0, 0, 0, 0, 1295, -44, -34, 36, -1862, 540, 14894, 595, 0, 0, 0, 0, 0
354, 4388430, 0, 0, 0, 0, 0, 0, 0, 0, 0, 0, 0, 1298, -44, -33, 36, -1826, 492, 14912, 595, 0, 0, 0, 0, 0
355, 4398422, 0, 0, 0, 0, 0, 0, 0, 0, 0, 0, 0, 1302, -44, -32, 36, -1812, 506, 14906, 595, 0, 0, 0, 0, 0
356, 4408384, 0, 0, 0, 0, 0, 0, 0, 0, 0, 0, 0, 1305, -43, -31, 36, -1820, 568, 14906, 595, 0, 0, 0, 0, 0
357, 4418381, 0, 0, 0, 0, 0, 0, 0, 0, 0, 0, 0, 1309, -43, -31, 36, -1850, 608, 14916, 595, 0, 0, 0, 0, 0
358, 4428349, 0, 0, 0, 0, 0, 0, 0, 0, 0, 0, 0, 1312, -43, -31, 36, -1878, 642, 14910, 595, 0, 0, 0, 0, 0
359, 4438328, 0, 0, 0, 0, 0, 0, 0, 0, 0, 0, 0, 1315, -43, -31, 35, -1934, 632, 14876, 595, 0, 0, 0, 0, 0
360, 4448321, 0, 0, 0, 0, 0, 0, 0, 0, 0, 0, 0, 1319, -43, -31, 36, -1974, 598, 14888, 595, 0, 0, 0, 0, 0
361, 4458292, 0, 0, 0, 0, 0, 0, 0, 0, 0, 0, 0, 1322, -43, -32, 36, -1982, 570, 14890, 595, 0, 0, 0, 0, 0
362, 4468271, 0, 0, 0, 0, 0, 0, 0, 0, 0, 0, 0, 1326, -44, -32, 36, -1972, 586, 14898, 595, 0, 0, 0, 0, 0
363, 4478265, 0, 0, 0, 0, 0, 0, 0, 0, 0, 0, 0, 1329, -44, -33, 36, -1930, 594, 14898, 595, 0, 0, 0, 0, 0
364, 4488242, 2, 0, 0, 0, 0, 0, 0, 0, 0, 0, 0, 1333, -44, -33, 35, -1906, 606, 14882, 595, 0, 0, 0, 0, 0
365, 4498234, 2, 0, 0, 0, 0, 0, 0, 0, 0, 0, 0, 1336, -44, -33, 36, -1868, 614, 14898, 595, 0, 0, 0, 0, 0
366, 4508208, 2, 0, 0, 0, 0, 0, 0, 0, 0, 0, 0, 1340, -44, -33, 36, -1860, 588, 14898, 595, 0, 0, 0, 0, 0
367, 4518190, 2, 0, 0, 0, 0, 0, 0, 0, 0, 0, 0, 1343, -44, -32, 36, -1868, 586, 14902, 595, 0, 0, 0, 0, 0
368, 4528178, 2, 0, 0, 0, 0, 0, 0, 0, 0, 0, 0, 1347, -44, -32, 37, -1912, 556, 14896, 595, 0, 0, 0, 0, 0
369, 4538156, 2, 0, 0, 0, 0, 0, 0, 0, 0, 0, 0, 1350, -44, -31, 36, -1940, 550, 14856, 595, 0, 0, 0, 0, 0
370, 4548208, 2, 0, 0, 0, 0, 0, 0, 0, 0, 0, 0, 1354, -44, -32, 36, -1946, 596, 14876, 595, 0, 0, 0, 0, 0
371, 4558124, 2, 0, 0, 0, 0, 0, 0, 0, 0, 0, 0, 1357, -44, -33, 36, -1962, 628, 14906, 595, 0, 0, 0, 0, 0
372, 4568221, 2, 0, 0, 0, 0, 0, 0, 0, 0, 0, 0, 1360, -45, -33, 36, -1958, 634, 14884, 595, 0, 0, 0, 0, 0
373, 4578096, 2, 0, 0, 0, 0, 0, 0, 0, 0, 0, 0, 1364, -44, -33, 36, -1946, 632, 14898, 595, 0, 0, 0, 0, 0
374, 4588194, 2, 0, 0, 0, 0, 0, 0, 0, 0, 0, 0, 1367, -45, -33, 36, -1914, 614, 14880, 595, 0, 0, 0, 0, 0
375, 4598050, 2, 0, 0, 0, 0, 0, 0, 0, 0, 0, 0, 1371, -44, -33, 36, -1894, 570, 14898, 595, 0, 0, 0, 0, 0
376, 4608039, 2, 0, 0, 0, 0, 0, 0, 0, 0, 0, 0, 1374, -44, -33, 36, -1872, 552, 14932, 595, 0, 0, 0, 0, 0
377, 4618016, 2, 0, 0, 0, 0, 0, 0, 0, 0, 0, 0, 1378, -44, -33, 36, -1864, 562, 14932, 595, 0, 0, 0, 0, 0
378, 4628012, 2, 0, 0, 0, 0, 0, 0, 0, 0, 0, 0, 1381, -45, -32, 36, -1864, 564, 14944, 595, 0, 0, 0, 0, 0
379, 4637989, 2, 0, 0, 0, 0, 0, 0, 0, 0, 0, 0, 1385, -44, -32, 36, -1886, 598, 14918, 595, 0, 0, 0, 0, 0
380, 4647964, 2, 0, 0, 0, 0, 0, 0, 0, 0, 0, 0, 1388, -44, -32, 36, -1910, 632, 14888, 595, 0, 0, 0, 0, 0
381, 4657959, 2, 0, 0, 0, 0, 0, 0, 0, 0, 0, 0, 1392, -44, -31, 36, -1952, 650, 14912, 595, 0, 0, 0, 0, 0
382, 4667927, 2, 0, 0, 0, 0, 0, 0, 0, 0, 0, 0, 1395, -44, -32, 36, -1974, 620, 14884, 595, 0, 0, 0, 0, 0
383, 4677929, 2, 1816, 0, 0, 0, 0, 0, 0, 0, 0, 0, 1398, -44, -33, 36, -1976, 590, 14868, 595, 0, 0, 0, 0, 0
384, 4687894, 2, 1816, 0, 0, 0, 227, 227, 227, 227, 0, 0, 1402, -44, -34, 36, -1962, 574, 14878, 595, 0, 0, 0, 0, 0
385, 4697890, 2, 2687, 0, 0, 0, 227, 227, 227, 227, 0, 0, 1405, -44, -34, 36, -1928, 592, 14872, 595, 0, 0, 0, 0, 0
386, 4708033, 2, 2687, 0, 0, 0, 335, 335, 335, 335, 0, 0, 1409, -44, -35, 36, -1902, 596, 14876, 595, 0, 0, 0, 0, 0
387, 4717861, 2, 3007, 0, 0, 0, 335, 335, 335, 335, 0, 0, 1412, -44, -34, 37, -1876, 582, 14900, 595, 0, 0, 0, 0, 0
388, 4727838, 2, 3007, 0, 0, 0, 375, 375, 375, 375, 0, 0, 1416, -44, -34, 36, -1854, 586, 14940, 595, 0, 0, 0, 0, 0
389, 4737852, 2, 3007, 0, 0, 0, 375, 375, 375, 375, 0, 0, 1419, -44, -34, 36, -1848, 576, 14928, 595, 0, 0, 0, 0, 0
390, 4747803, 2, 4037, 0, 0, 0, 375, 375, 375, 375, 0, 0, 1423, -44, -33, 36, -1854, 570, 14916, 595, 0, 0, 0, 0, 0
391, 4757890, 2, 4037, 0, 0, 0, 504, 504, 504, 504, 0, 0, 1426, -44, -33, 36, -1878, 570, 14888, 595, 0, 0, 0, 0, 0
392, 4767781, 2, 4095, 0, 0, 0, 504, 504, 504, 504, 0, 0, 1430, -44, -33, 36, -1908, 576, 14886, 595, 0, 0, 0, 0, 0
393, 4777884, 2, 4095, 0, 0, 0, 511, 511, 511, 511, 0, 0, 1433, -44, -33, 36, -1920, 604, 14888, 595, 0, 0, 0, 0, 0
394, 4787748, 2, 4095, 0, 0, -333, 511, 511, 511, 511, 0, 0, 1437, -44, -32, 37, -1946, 620, 14862, 595, 0, 0, 0, 0, 0
395, 4797804, 2, 4095, 0, 0, -333, 553, 470, 553, 470, 0, 0, 1440, -43, -33, 36, -1950, 608, 14880, 595, 0, 0, 0, 0, 0
396, 4807707, 2, 4095, 0, 0, -512, 553, 470, 553, 470, 0, 0, 1444, -44, -33, 36, -1942, 600, 14886, 595, 0, 0, 0, 0, 0
397, 4817703, 2, 4095, 0, 0, -512, 575, 447, 575, 447, 0, 0, 1447, -44, -33, 36, -1944, 570, 14852, 595, 0, 0, 0, 0, 0
398, 4827678, 2, 4095, 0, 0, -512, 575, 447, 575, 447, 0, 0, 1450, -45, -33, 36, -1938, 586, 14858, 595, 0, 0, 0, 0, 0
399, 4837673, 2, 4095, 0, 0, -512, 575, 447, 575, 447, 0, 0, 1454, -45, -33, 36, -1908, 574, 14876, 595, 0, 0, 0, 0, 0
400, 4847649, 2, 3718, 0, 0, -512, 575, 447, 575, 447, 0, 0, 1457, -45, -33, 36, -1912, 584, 14892, 595, 0, 0, 0, 0, 0
401, 4857634, 2, 3718, 0, 0, -512, 528, 400, 528, 400, 0, 0, 1461, -45, -33, 36, -1888, 612, 14900, 595, 0, 0, 0, 0, 0
402, 4867619, 2, 3398, 0, 0, -512, 528, 400, 528, 400, 0, 0, 1464, -45, -33, 36, -1890, 606, 14888, 595, 0, 0, 0, 0, 0
403, 4877599, 2, 3398, 0, 0, -512, 488, 360, 488, 360, 0, 0, 1468, -45, -33, 36, -1910, 608, 14892, 595, 0, 0, 0, 0, 0
404, 4887591, 2, 3195, 0, 0, -512, 488, 360, 488, 360, 0, 0, 1471, -44, -33, 36, -1942, 588, 14890, 595, 0, 0, 0, 0, 0
405, 4897565, 2, 3195, 0, 0, -512, 463, 335, 463, 335, 0, 0, 1475, -43, -33, 36, -1942, 588, 14878, 595, 0, 0, 0, 0, 0
406, 4907548, 2, 2745, 0, 0, 0, 463, 335, 463, 335, 0, 0, 1478, -44, -33, 36, -1936, 586, 14872, 595, 0, 0, 0, 0, 0
407, 4917517, 2, 2745, 0, 0, 0, 343, 343, 343, 343, 0, 0, 1481, -43, -33, 36, -1928, 608, 14890, 595, 0, 0, 0, 0, 0
408, 4927509, 2, 2687, 0, 0, 358, 343, 343, 343, 343, 0, 0, 1485, -43, -34, 36, -1912, 608, 14898, 595, 0, 0, 0, 0, 0
409, 4937507, 2, 2687, 0, 0, 358, 291, 380, 291, 380, 0, 0, 1488, -44, -33, 37, -1896, 624, 14872, 595, 0, 0, 0, 0, 0
410, 4947532, 2, 2687, 0, 0, 358, 291, 380, 291, 380, 0, 0, 1492, -44, -34, 36, -1896, 604, 14882, 595, 0, 0, 0, 0, 0
411, 4957465, 2, 2687, 0, 0, 511, 291, 380, 291, 380, 0, 0, 1495, -44, -33, 36, -1890, 590, 14880, 595, 0, 0, 0, 0, 0
412, 4967551, 2, 2687, 0, 0, 511, 272, 399, 272, 399, 0, 0, 1499, -44, -33, 36, -1898, 588, 14872, 595, 0, 0, 0, 0, 0
413, 4977423, 2, 2586, 0, 0, 511, 272, 399, 272, 399, 0, 0, 1502, -44, -33, 36, -1914, 594, 14886, 595, 0, 0, 0, 0, 0
414, 4987538, 2, 2586, 0, 0, 511, 259, 387, 259, 387, 0, 0, 1506, -44, -33, 37, -1914, 596, 14874, 595, 0, 0, 0, 0, 0
415, 4997397, 2, 2571, 0, 0, 511, 259, 387, 259, 387, 0, 0, 1509, -44, -33, 36, -1924, 582, 14928, 595, 0, 0, 0, 0, 0
416, 5007411, 2, 2571, 0, 0, 511, 257, 385, 257, 385, 0, 0, 1513, -44, -34, 36, -1910, 588, 14916, 595, 0, 0, 0, 0, 0
417, 5017366, 2, 2586, 0, 0, 511, 257, 385, 257, 385, 0, 0, 1516, -45, -33, 37, -1924, 606, 14918, 595, 0, 0, 0, 0, 0
418, 5027331, 2, 2586, 0, 0, 511, 259, 387, 259, 387, 0, 0, 1520, -44, -33, 37, -1924, 614, 14928, 595, 0, 0, 0, 0, 0
419, 5037324, 2, 2687, 0, 0, 68, 259, 387, 259, 387, 0, 0, 1523, -44, -33, 36, -1916, 606, 14936, 595, 0, 0, 0, 0, 0
420, 5047312, 2, 2687, 0, 0, 68, 327, 344, 327, 344, 0, 0, 1527, -44, -33, 36, -1902, 580, 14940, 595, 0, 0, 0, 0, 0
421, 5057286, 2, 2687, 0, 0, 0, 327, 344, 327, 344, 0, 0, 1530, -44, -34, 36, -1888, 568, 14930, 595, 0, 0, 0, 0, 0
422, 5067259, 2, 2687, 0, 0, 0, 335, 335, 335, 335, 0, 0, 1533, -44, -34, 36, -1888, 570, 14900, 595, 0, 0, 0, 0, 0
423, 5077249, 2, 2687, 0, 0, -275, 335, 335, 335, 335, 0, 0, 1537, -44, -34, 36, -1894, 572, 14910, 595, 0, 0, 0, 0, 0
424, 5087238, 2, 2687, 0, 0, -275, 370, 301, 370, 301, 0, 0, 1540, -44, -33, 36, -1888, 596, 14910, 595, 0, 0, 0, 0, 0
425, 5097224, 2, 2687, 0, 0, -497, 370, 301, 370, 301, 0, 0, 1544, -43, -33, 36, -1894, 588, 14888, 595, 0, 0, 0, 0, 0
426, 5107198, 2, 2687, 0, 0, -497, 398, 273, 398, 273, 0, 0, 1547, -43, -33, 36, -1920, 592, 14910, 595, 0, 0, 0, 0, 0
427, 5117183, 2, 2687, 0, 0, -454, 398, 273, 398, 273, 0, 0, 1551, -43, -33, 36, -1936, 608, 14908, 595, 0, 0, 0, 0, 0
428, 5127179, 2, 2687, 0, 0, -454, 392, 279, 392, 279, 0, 0, 1554, -44, -33, 36, -1940, 602, 14882, 595, 0, 0, 0, 0, 0
429, 5137146, 2, 2687, 0, 0, -454, 392, 279, 392, 279, 0, 0, 1558, -44, -33, 36, -1944, 588, 14860, 595, 0, 0, 0, 0, 0
430, 5147137, 2, 2687, 0, 0, 0, 392, 279, 392, 279, 0, 0, 1561, -44, -33, 36, -1952, 608, 14870, 595, 0, 0, 0, 0, 0
431, 5157177, 2, 2687, 0, 0, 0, 335, 335, 335, 335, 0, 0, 1565, -44, -33, 37, -1936, 624, 14898, 595, 0, 0, 0, 0, 0
432, 5167088, 2, 2586, 0, 0, 353, 335, 335, 335, 335, 0, 0, 1568, -44, -33, 36, -1902, 586, 14886, 595, 0, 0, 0, 0, 0
433, 5177213, 2, 2586, 0, 0, 353, 279, 367, 279, 367, 0, 0, 1571, -44, -34, 36, -1900, 578, 14884, 595, 0, 0, 0, 0, 0
434, 5187072, 2, 0, 0, 0, 0, 279, 367, 279, 367, 0, 0, 1575, -45, -33, 36, -1882, 564, 14856, 595, 0, 0, 0, 0, 0
435, 5197179, 2, 0, 0, 0, 0, 0, 0, 0, 0, 0, 0, 1578, -44, -33, 37, -1888, 566, 14866, 595, 0, 0, 0, 0, 0
436, 5207030, 2, 0, 0, 0, 0, 0, 0, 0, 0, 0, 0, 1582, -44, -33, 36, -1906, 592, 14908, 595, 0, 0, 0, 0, 0
437, 5217023, 2, 0, 0, 0, 0, 0, 0, 0, 0, 0, 0, 1585, -44, -33, 36, -1926, 622, 14858, 595, 0, 0, 0, 0, 0
438, 5227004, 2, 0, 0, 0, 0, 0, 0, 0, 0, 0, 0, 1589, -44, -32, 36, -1958, 630, 14898, 595, 0, 0, 0, 0, 0
439, 5236982, 2, 0, 0, 0, 0, 0, 0, 0, 0, 0, 0, 1592, -44, -33, 36, -1956, 628, 14856, 595, 0, 0, 0, 0, 0
440, 5246970, 2, 0, 0, 0, 0, 0, 0, 0, 0, 0, 0, 1595, -44, -34, 36, -1946, 606, 14870, 595, 0, 0, 0, 0, 0
441, 5256954, 2, 0, 0, 0, 0, 0, 0, 0, 0, 0, 0, 1599, -44, -34, 36, -1942, 584, 14888, 595, 0, 0, 0, 0, 0
442, 5266939, 2, 0, 0, 0, 0, 0, 0, 0, 0, 0, 0, 1602, -44, -34, 36, -1908, 590, 14904, 595, 0, 0, 0, 0, 0
443, 5276919, 2, 0, 0, 0, 0, 0, 0, 0, 0, 0, 0, 1606, -44, -34, 36, -1904, 576, 14916, 595, 0, 0, 0, 0, 0
444, 5286905, 2, 0, 0, 0, 0, 0, 0, 0, 0, 0, 0, 1609, -44, -33, 36, -1888, 578, 14916, 595, 0, 0, 0, 0, 0
445, 5296884, 2, 0, 0, 0, 0, 0, 0, 0, 0, 0, 0, 1613, -44, -33, 36, -1886, 586, 14884, 595, 0, 0, 0, 0, 0
446, 5306873, 2, 0, 0, 0, 0, 0, 0, 0, 0, 0, 0, 1616, -44, -33, 36, -1878, 606, 14866, 595, 0, 0, 0, 0, 0
447, 5317000, 2, 0, 0, 0, 0, 0, 0, 0, 0, 0, 0, 1620, -44, -33, 36, -1892, 592, 14860, 595, 0, 0, 0, 0, 0
448, 5326839, 2, 0, 0, 0, 0, 0, 0, 0, 0, 0, 0, 1623, -44, -32, 37, -1922, 596, 14850, 595, 0, 0, 0, 0, 0
449, 5336812, 2, 0, 0, 0, 0, 0, 0, 0, 0, 0, 0, 1627, -44, -34, 37, -1918, 610, 14876, 595, 0, 0, 0, 0, 0
450, 5346810, 2, 0, 0, 0, 0, 0, 0, 0, 0, 0, 0, 1630, -44, -33, 37, -1928, 598, 14872, 595, 0, 0, 0, 0, 0
451, 5356800, 2, 0, 0, 0, 0, 0, 0, 0, 0, 0, 0, 1634, -44, -33, 36, -1914, 598, 14834, 595, 0, 0, 0, 0, 0
452, 5366843, 2, 0, 0, 0, 0, 0, 0, 0, 0, 0, 0, 1637, -44, -33, 36, -1886, 590, 14894, 595, 0, 0, 0, 0, 0
453, 5376752, 2, 0, 0, 0, 0, 0, 0, 0, 0, 0, 0, 1641, -44, -33, 36, -1870, 602, 14868, 595, 0, 0, 0, 0, 0
454, 5386865, 2, 0, 0, 0, 0, 0, 0, 0, 0, 0, 0, 1644, -44, -33, 36, -1872, 598, 14888, 595, 0, 0, 0, 0, 0
455, 5396723, 2, 0, 0, 0, 0, 0, 0, 0, 0, 0, 0, 1647, -44, -33, 36, -1886, 584, 14894, 595, 0, 0, 0, 0, 0
456, 5406790, 2, 0, 0, 0, 0, 0, 0, 0, 0, 0, 0, 1651, -43, -32, 36, -1908, 576, 14918, 595, 0, 0, 0, 0, 0
457, 5416681, 2, 0, 0, 0, 0, 0, 0, 0, 0, 0, 0, 1654, -44, -32, 36, -1910, 586, 14888, 595, 0, 0, 0, 0, 0
458, 5426665, 2, 0, 0, 0, 0, 0, 0, 0, 0, 0, 0, 1658, -43, -32, 36, -1894, 618, 14858, 595, 0, 0, 0, 0, 0
459, 5436646, 2, 0, 0, 0, 0, 0, 0, 0, 0, 0, 0, 1661, -44, -32, 36, -1906, 630, 14864, 595, 0, 0, 0, 0, 0
460, 5446639, 2, 0, 0, 0, 0, 0, 0, 0, 0, 0, 0, 1665, -44, -33, 36, -1912, 642, 14886, 595, 0, 0, 0, 0, 0
461, 5456641, 2, 0, 0, 0, 0, 0, 0, 0, 0, 0, 0, 1668, -45, -33, 36, -1940, 618, 14874, 595, 0, 0, 0, 0, 0
462, 5466611, 2, 0, 0, 0, 0, 0, 0, 0, 0, 0, 0, 1671, -44, -33, 36, -1942, 608, 14890, 595, 0, 0, 0, 0, 0
463, 5476583, 2, 0, 0, 0, 0, 0, 0, 0, 0, 0, 0, 1675, -44, -33, 36, -1936, 596, 14902, 595, 0, 0, 0, 0, 0
464, 5486579, 2, 0, 0, 0, 0, 0, 0, 0, 0, 0, 0, 1678, -44, -34, 37, -1930, 580, 14868, 595, 0, 0, 0, 0, 0
465, 5496544, 2, 0, 0, 0, 0, 0, 0, 0, 0, 0, 0, 1682, -44, -33, 37, -1912, 594, 14896, 595, 0, 0, 0, 0, 0
466, 5506544, 2, 0, 0, 0, 0, 0, 0, 0, 0, 0, 0, 1685, -44, -34, 37, -1912, 598, 14902, 595, 0, 0, 0, 0, 0
467, 5516521, 2, 0, 0, 0, 0, 0, 0, 0, 0, 0, 0, 1689, -44, -33, 36, -1906, 606, 14880, 595, 0, 0, 0, 0, 0
468, 5526514, 2, 0, 0, 0, 0, 0, 0, 0, 0, 0, 0, 1692, -44, -33, 36, -1900, 604, 14896, 595, 0, 0, 0, 0, 0
469, 5536488, 2, 0, 0, 0, 0, 0, 0, 0, 0, 0, 0, 1696, -44, -32, 37, -1910, 586, 14894, 595, 0, 0, 0, 0, 0
470, 5546466, 2, 0, 0, 0, 0, 0, 0, 0, 0, 0, 0, 1699, -44, -32, 37, -1906, 580, 14904, 595, 0, 0, 0, 0, 0
471, 5556508, 2, 0, 0, 0, 0, 0, 0, 0, 0, 0, 0, 1703, -44, -33, 36, -1908, 584, 14902, 595, 0, 0, 0, 0, 0
472, 5566452, 2, 0, 0, 0, 0, 0, 0, 0, 0, 0, 0, 1706, -44, -32, 36, -1888, 622, 14878, 595, 0, 0, 0, 0, 0
473, 5576524, 2, 0, 0, 0, 0, 0, 0, 0, 0, 0, 0, 1710, -44, -32, 36, -1882, 630, 14902, 595, 0, 0, 0, 0, 0
474, 5586424, 2, 0, 0, 0, 0, 0, 0, 0, 0, 0, 0, 1713, -43, -32, 37, -1898, 642, 14876, 595, 0, 0, 0, 0, 0
475, 5596518, 2, 0, 0, 0, 0, 0, 0, 0, 0, 0, 0, 1717, -44, -32, 36, -1910, 654, 14880, 595, 0, 0, 0, 0, 0
476, 5606368, 2, 0, 0, 0, 0, 0, 0, 0, 0, 0, 0, 1720, -44, -32, 36, -1924, 612, 14900, 595, 0, 0, 0, 0, 0
477, 5616422, 2, 0, 0, 0, 0, 0, 0, 0, 0, 0, 0, 1723, -44, -32, 36, -1940, 590, 14892, 595, 0, 0, 0, 0, 0
478, 5626335, 2, 0, 0, 0, 0, 0, 0, 0, 0, 0, 0, 1727, -44, -32, 36, -1968, 592, 14914, 595, 0, 0, 0, 0, 0
479, 5636336, 2, 0, 0, 0, 0, 0, 0, 0, 0, 0, 0, 1730, -44, -33, 36, -1942, 598, 14860, 595, 0, 0, 0, 0, 0
480, 5646298, 2, 0, 0, 0, 0, 0, 0, 0, 0, 0, 0, 1734, -44, -33, 36, -1934, 628, 14888, 595, 0, 0, 0, 0, 0
481, 5656311, 2, 0, 0, 0, 0, 0, 0, 0, 0, 0, 0, 1737, -44, -32, 36, -1930, 642, 14864, 595, 0, 0, 0, 0, 0
482, 5666281, 2, 0, 0, 0, 0, 0, 0, 0, 0, 0, 0, 1741, -44, -32, 36, -1910, 632, 14844, 595, 0, 0, 0, 0, 0
483, 5676272, 2, 0, 0, 0, 0, 0, 0, 0, 0, 0, 0, 1744, -44, -32, 36, -1922, 600, 14868, 595, 0, 0, 0, 0, 0
484, 5686247, 2, 0, 0, 0, 0, 0, 0, 0, 0, 0, 0, 1747, -44, -33, 36, -1908, 568, 14912, 595, 0, 0, 0, 0, 0
485, 5696232, 2, 0, 0, 0, 0, 0, 0, 0, 0, 0, 0, 1751, -44, -32, 36, -1874, 564, 14914, 595, 0, 0, 0, 0, 0
486, 5706220, 2, 0, 0, 0, 0, 0, 0, 0, 0, 0, 0, 1754, -43, -32, 36, -1872, 556, 14928, 595, 0, 0, 0, 0, 0
487, 5716193, 2, 0, 0, 0, 0, 0, 0, 0, 0, 0, 0, 1758, -44, -32, 36, -1854, 578, 14920, 595, 0, 0, 0, 0, 0
488, 5726186, 2, 0, 0, 0, 0, 0, 0, 0, 0, 0, 0, 1761, -44, -31, 36, -1886, 610, 14928, 595, 0, 0, 0, 0, 0
489, 5736168, 2, 0, 0, 0, 0, 0, 0, 0, 0, 0, 0, 1765, -44, -32, 37, -1888, 614, 14898, 595, 0, 0, 0, 0, 0
490, 5746168, 2, 0, 0, 0, 0, 0, 0, 0, 0, 0, 0, 1768, -44, -31, 36, -1926, 632, 14892, 595, 0, 0, 0, 0, 0
491, 5756173, 2, 0, 0, 0, 0, 0, 0, 0, 0, 0, 0, 1772, -44, -32, 36, -1954, 616, 14860, 595, 0, 0, 0, 0, 0
492, 5766163, 2, 0, 0, 0, 0, 0, 0, 0, 0, 0, 0, 1775, -44, -31, 36, -1998, 600, 14904, 595, 0, 0, 0, 0, 0
493, 5776105, 2, 0, 0, 0, 0, 0, 0, 0, 0, 0, 0, 1778, -44, -33, 36, -1982, 610, 14868, 595, 0, 0, 0, 0, 0
494, 5786192, 2, 0, 0, 0, 0, 0, 0, 0, 0, 0, 0, 1782, -44, -33, 36, -1970, 596, 14902, 595, 0, 0, 0, 0, 0
495, 5796065, 2, 0, 0, 0, 0, 0, 0, 0, 0, 0, 0, 1785, -44, -34, 36, -1932, 588, 14884, 595, 0, 0, 0, 0, 0
496, 5806185, 2, 0, 0, 0, 0, 0, 0, 0, 0, 0, 0, 1789, -44, -33, 36, -1884, 598, 14930, 595, 0, 0, 0, 0, 0
497, 5816038, 2, 0, 0, 0, 0, 0, 0, 0, 0, 0, 0, 1792, -44, -34, 36, -1858, 592, 14898, 595, 0, 0, 0, 0, 0
498, 5826055, 2, 0, 0, 0, 0, 0, 0, 0, 0, 0, 0, 1795, -43, -33, 36, -1880, 576, 14878, 595, 0, 0, 0, 0, 0
499, 5836000, 2, 0, 0, 0, 0, 0, 0, 0, 0, 0, 0, 1799, -43, -33, 37, -1914, 576, 14912, 595, 0, 0, 0, 0, 0
500, 5845997, 2, 0, 0, 0, 0, 0, 0, 0, 0, 0, 0, 1803, -43, -33, 37, -1928, 584, 14886, 595, 0, 0, 0, 0, 0
501, 5856019, 2, 0, 0, 0, 0, 0, 0, 0, 0, 0, 0, 1806, -43, -33, 37, -1924, 606, 14900, 595, 0, 0, 0, 0, 0
502, 5865958, 2, 0, 0, 0, 0, 0, 0, 0, 0, 0, 0, 1810, -43, -33, 36, -1930, 618, 14874, 595, 0, 0, 0, 0, 0
503, 5875945, 2, 0, 0, 0, 0, 0, 0, 0, 0, 0, 0, 1813, -43, -33, 36, -1926, 624, 14856, 595, 0, 0, 0, 0, 0
504, 5885928, 2, 0, 0, 0, 0, 0, 0, 0, 0, 0, 0, 1816, -44, -33, 36, -1896, 634, 14884, 595, 0, 0, 0, 0, 0
505, 5895903, 2, 0, 0, 0, 0, 0, 0, 0, 0, 0, 0, 1820, -44, -34, 36, -1898, 606, 14892, 595, 0, 0, 0, 0, 0
506, 5905885, 2, 0, 0, 0, 0, 0, 0, 0, 0, 0, 0, 1823, -44, -34, 36, -1896, 598, 14908, 595, 0, 0, 0, 0, 0
507, 5915856, 2, 0, 0, 0, 0, 0, 0, 0, 0, 0, 0, 1827, -44, -33, 37, -1904, 588, 14892, 595, 0, 0, 0, 0, 0
508, 5926023, 2, 0, 0, 0, 0, 0, 0, 0, 0, 0, 0, 1830, -44, -33, 36, -1882, 590, 14886, 595, 0, 0, 0, 0, 0
509, 5935822, 2, 0, 0, 0, 0, 0, 0, 0, 0, 0, 0, 1834, -43, -33, 36, -1890, 608, 14904, 595, 0, 0, 0, 0, 0
510, 5945814, 2, 0, 0, 0, 0, 0, 0, 0, 0, 0, 0, 1837, -44, -33, 36, -1892, 602, 14924, 595, 0, 0, 0, 0, 0
511, 5955836, 2, 0, 0, 0, 0, 0, 0, 0, 0, 0, 0, 1840, -44, -32, 36, -1910, 598, 14910, 595, 0, 0, 0, 0, 0
512, 5965777, 2, 0, 0, 0, 0, 0, 0, 0, 0, 0, 0, 1844, -44, -33, 36, -1922, 590, 14916, 595, 0, 0, 0, 0, 0
513, 5975836, 2, 0, 0, 0, 0, 0, 0, 0, 0, 0, 0, 1847, -45, -33, 36, -1928, 602, 14918, 595, 0, 0, 0, 0, 0
514, 5985748, 2, 0, 0, 0, 0, 0, 0, 0, 0, 0, 0, 1851, -45, -33, 37, -1926, 606, 14936, 595, 0, 0, 0, 0, 0
515, 5995862, 2, 0, 0, 0, 0, 0, 0, 0, 0, 0, 0, 1854, -44, -33, 36, -1944, 578, 14914, 595, 0, 0, 0, 0, 0
516, 6005711, 2, 0, 0, 0, 0, 0, 0, 0, 0, 0, 0, 1858, -44, -33, 36, -1932, 574, 14914, 595, 0, 0, 0, 0, 0
517, 6015819, 2, 0, 0, 0, 0, 0, 0, 0, 0, 0, 0, 1861, -44, -33, 36, -1910, 578, 14886, 595, 0, 0, 0, 0, 0
518, 6025686, 2, 0, 0, 0, 0, 0, 0, 0, 0, 0, 0, 1864, -44, -33, 36, -1892, 584, 14920, 595, 0, 0, 0, 0, 0
519, 6035680, 2, 0, 0, 0, 0, 0, 0, 0, 0, 0, 0, 1868, -44, -33, 36, -1878, 582, 14904, 595, 0, 0, 0, 0, 0
520, 6045660, 2, 0, 0, 0, 0, 0, 0, 0, 0, 0, 0, 1871, -43, -32, 36, -1890, 576, 14890, 595, 0, 0, 0, 0, 0
521, 6055729, 2, 0, 0, 0, 0, 0, 0, 0, 0, 0, 0, 1875, -43, -33, 36, -1890, 576, 14898, 595, 0, 0, 0, 0, 0
522, 6065634, 2, 0, 0, 0, 0, 0, 0, 0, 0, 0, 0, 1878, -44, -32, 36, -1910, 582, 14892, 595, 0, 0, 0, 0, 0
523, 6075606, 2, 0, 0, 0, 0, 0, 0, 0, 0, 0, 0, 1882, -43, -32, 36, -1958, 596, 14920, 595, 0, 0, 0, 0, 0
524, 6085605, 2, 0, 0, 0, 0, 0, 0, 0, 0, 0, 0, 1885, -44, -33, 36, -1960, 614, 14906, 595, 0, 0, 0, 0, 0
525, 6095585, 2, 0, 0, 0, 0, 0, 0, 0, 0, 0, 0, 1888, -44, -34, 37, -1970, 630, 14902, 595, 0, 0, 0, 0, 0
526, 6105574, 2, 0, 0, 0, 0, 0, 0, 0, 0, 0, 0, 1892, -44, -34, 36, -1970, 632, 14896, 595, 0, 0, 0, 0, 0
527, 6115550, 2, 0, 0, 0, 0, 0, 0, 0, 0, 0, 0, 1895, -44, -34, 37, -1946, 610, 14894, 595, 0, 0, 0, 0, 0
528, 6125520, 2, 0, 0, 0, 0, 0, 0, 0, 0, 0, 0, 1899, -44, -34, 37, -1916, 592, 14878, 595, 0, 0, 0, 0, 0
529, 6135514, 2, 0, 0, 0, 0, 0, 0, 0, 0, 0, 0, 1903, -44, -34, 37, -1886, 602, 14900, 595, 0, 0, 0, 0, 0
530, 6145498, 0, 0, 0, 0, 0, 0, 0, 0, 0, 0, 0, 1906, -44, -34, 36, -1886, 588, 14910, 595, 0, 0, 0, 0, 0
531, 6155616, 0, 0, 0, 0, 0, 0, 0, 0, 0, 0, 0, 1909, -44, -33, 36, -1876, 572, 14898, 595, 0, 0, 0, 0, 0
532, 6165475, 0, 0, 0, 0, 0, 0, 0, 0, 0, 0, 0, 1913, -44, -32, 36, -1872, 604, 14878, 595, 0, 0, 0, 0, 0
533, 6175444, 0, 0, 0, 0, 0, 0, 0, 0, 0, 0, 0, 1916, -43, -33, 36, -1888, 610, 14862, 595, 0, 0, 0, 0, 0
534, 6185521, 0, 0, 0, 0, 0, 0, 0, 0, 0, 0, 0, 1920, -44, -32, 36, -1924, 620, 14894, 595, 0, 0, 0, 0, 0
535, 6195421, 0, 0, 0, 0, 0, 0, 0, 0, 0, 0, 0, 1923, -44, -32, 36, -1944, 610, 14872, 595, 0, 0, 0, 0, 0
536, 6205544, 0, 0, 0, 0, 0, 0, 0, 0, 0, 0, 0, 1926, -44, -32, 36, -1938, 600, 14908, 595, 0, 0, 0, 0, 0
537, 6215405, 0, 0, 0, 0, 0, 0, 0, 0, 0, 0, 0, 1930, -44, -32, 36, -1944, 582, 14896, 595, 0, 0, 0, 0, 0
538, 6225450, 0, 0, 0, 0, 0, 0, 0, 0, 0, 0, 0, 1933, -45, -33, 36, -1938, 580, 14900, 595, 0, 0, 0, 0, 0
539, 6235356, 0, 0, 0, 0, 0, 0, 0, 0, 0, 0, 0, 1937, -45, -33, 36, -1908, 598, 14886, 595, 0, 0, 0, 0, 0
540, 6245346, 0, 0, 0, 0, 0, 0, 0, 0, 0, 0, 0, 1940, -44, -33, 36, -1918, 604, 14930, 595, 0, 0, 0, 0, 0
541, 6255462, 0, 0, 0, 0, 0, 0, 0, 0, 0, 0, 0, 1944, -44, -33, 36, -1904, 590, 14896, 595, 0, 0, 0, 0, 0
542, 6265317, 0, 0, 0, 0, 0, 0, 0, 0, 0, 0, 0, 1947, -44, -33, 36, -1908, 578, 14938, 595, 0, 0, 0, 0, 0
543, 6275296, 0, 0, 0, 0, 0, 0, 0, 0, 0, 0, 0, 1950, -44, -33, 36, -1908, 570, 14920, 595, 0, 0, 0, 0, 0
544, 6285287, 0, 0, 0, 0, 0, 0, 0, 0, 0, 0, 0, 1954, -44, -33, 36, -1908, 560, 14900, 595, 0, 0, 0, 0, 0
545, 6295284, 0, 0, 0, 0, 0, 0, 0, 0, 0, 0, 0, 1957, -44, -33, 36, -1928, 590, 14902, 595, 0, 0, 0, 0, 0
546, 6305263, 0, 0, 0, 0, 0, 0, 0, 0, 0, 0, 0, 1961, -44, -34, 36, -1930, 622, 14918, 595, 0, 0, 0, 0, 0
547, 6315240, 0, 0, 0, 0, 0, 0, 0, 0, 0, 0, 0, 1964, -44, -33, 36, -1938, 626, 14874, 595, 0, 0, 0, 0, 0
548, 6325234, 0, 0, 0, 0, 0, 0, 0, 0, 0, 0, 0, 1967, -44, -33, 36, -1918, 610, 14908, 595, 0, 0, 0, 0, 0
549, 6335213, 0, 0, 0, 0, 0, 0, 0, 0, 0, 0, 0, 1971, -44, -33, 36, -1942, 598, 14960, 595, 0, 0, 0, 0, 0
550, 6345203, 0, 0, 0, 0, 0, 0, 0, 0, 0, 0, 0, 1974, -44, -34, 36, -1946, 602, 14914, 595, 0, 0, 0, 0, 0
551, 6355304, 0, 0, 0, 0, 0, 0, 0, 0, 0, 0, 0, 1978, -44, -34, 37, -1934, 592, 14962, 595, 0, 0, 0, 0, 0
552, 6365179, 0, 0, 0, 0, 0, 0, 0, 0, 0, 0, 0, 1981, -44, -33, 37, -1926, 604, 14914, 595, 0, 0, 0, 0, 0
553, 6375205, 0, 0, 0, 0, 0, 0, 0, 0, 0, 0, 0, 1985, -44, -34, 36, -1924, 614, 14938, 595, 0, 0, 0, 0, 0
554, 6385155, 0, 0, 0, 0, 0, 0, 0, 0, 0, 0, 0, 1988, -44, -33, 36, -1888, 596, 14934, 595, 0, 0, 0, 0, 0
555, 6395230, 0, 0, 0, 0, 0, 0, 0, 0, 0, 0, 0, 1992, -44, -33, 36, -1892, 584, 14926, 595, 0, 0, 0, 0, 0
556, 6405120, 0, 0, 0, 0, 0, 0, 0, 0, 0, 0, 0, 1995, -44, -32, 36, -1894, 552, 14902, 595, 0, 0, 0, 0, 0
557, 6415218, 0, 0, 0, 0, 0, 0, 0, 0, 0, 0, 0, 1999, -43, -32, 37, -1918, 548, 14898, 595, 0, 0, 0, 0, 0
558, 6425071, 0, 0, 0, 0, 0, 0, 0, 0, 0, 0, 0, 2002, -43, -32, 36, -1920, 568, 14890, 595, 0, 0, 0, 0, 0
559, 6435113, 0, 0, 0, 0, 0, 0, 0, 0, 0, 0, 0, 2005, -43, -33, 36, -1924, 588, 14904, 595, 0, 0, 0, 0, 0
560, 6445047, 0, 0, 0, 0, 0, 0, 0, 0, 0, 0, 0, 2009, -43, -33, 36, -1936, 620, 14892, 595, 0, 0, 0, 0, 0
561, 6455170, 0, 0, 0, 0, 0, 0, 0, 0, 0, 0, 0, 2012, -44, -32, 37, -1932, 618, 14864, 595, 0, 0, 0, 0, 0
562, 6465013, 0, 0, 0, 0, 0, 0, 0, 0, 0, 0, 0, 2016, -44, -32, 36, -1956, 638, 14898, 595, 0, 0, 0, 0, 0
563, 6475017, 0, 0, 0, 0, 0, 0, 0, 0, 0, 0, 0, 2019, -44, -33, 36, -1940, 634, 14904, 595, 0, 0, 0, 0, 0
564, 6484981, 0, 0, 0, 0, 0, 0, 0, 0, 0, 0, 0, 2023, -44, -33, 36, -1928, 598, 14900, 595, 0, 0, 0, 0, 0
565, 6494982, 0, 0, 0, 0, 0, 0, 0, 0, 0, 0, 0, 2026, -43, -33, 36, -1912, 590, 14902, 595, 0, 0, 0, 0, 0
566, 6504964, 0, 0, 0, 0, 0, 0, 0, 0, 0, 0, 0, 2029, -43, -33, 36, -1892, 574, 14872, 595, 0, 0, 0, 0, 0
