index_log, time_stamp, mode, thrust, roll, pitch, yaw, ae[0], ae[1], ae[2], ae[3], phi, theta, psi, sp, sq, sr, sax, say, saz, bat_volt, P, P1, P2, temperature, pressure,,,,
0,465726517,5,3263,0,0,0,408,408,406,407,76,-36,4588,-11,-4,-2,-1628,632,14992,595,0,16,2,0,0,,,,
1,465730384,5,3263,0,0,0,408,408,406,407,76,-36,4588,-11,-5,-1,-1552,596,15124,595,0,16,2,0,0,,3867,,3.90625
2,465734252,5,3263,0,0,0,408,408,406,407,76,-37,4588,-15,-3,-2,-1648,540,15092,595,0,16,2,0,0,,3868,,
3,465738115,5,3263,0,0,0,408,408,406,407,76,-38,4588,-9,-1,-1,-1684,584,15040,595,0,16,2,0,0,,3863,,
4,465741991,5,3263,0,0,0,408,408,406,407,76,-36,4588,-11,0,0,-1492,528,14908,595,0,16,2,0,0,,3876,,
5,465745887,5,3263,0,0,0,408,408,407,407,75,-37,4588,-10,-2,0,-1664,448,14864,595,0,16,2,0,0,,3896,,
6,465749717,5,3263,0,0,0,408,408,406,407,75,-38,4588,-12,-6,0,-1688,572,15128,595,0,16,2,0,0,,3830,,
7,465753637,5,3263,0,0,0,408,408,406,407,75,-38,4588,-11,-2,0,-1576,588,15024,595,0,16,2,0,0,,3920,,
8,465757455,5,3263,0,0,0,408,408,406,407,75,-38,4588,-14,1,2,-1660,528,14884,595,0,16,2,0,0,,3818,,
9,465761323,5,3263,0,0,0,408,408,407,407,75,-39,4588,-11,-5,-1,-1676,644,14928,595,0,16,2,0,0,,3868,,
10,465765190,5,3263,0,0,0,408,408,406,407,75,-40,4588,-9,-2,-3,-1656,608,14780,595,0,16,2,0,0,,3867,,
11,465769059,5,3263,0,0,0,408,408,406,407,76,-40,4588,-12,0,1,-1704,680,14960,595,0,16,2,0,0,,3869,,
12,465772935,5,3263,0,0,0,408,408,407,407,76,-40,4588,-10,-1,1,-1608,584,15056,595,0,16,2,0,0,,3876,,
13,465776795,5,3263,0,0,0,408,408,406,407,77,-40,4588,-11,-2,-2,-1568,652,14780,595,0,16,2,0,0,,3860,,
14,465780664,5,3263,0,0,0,408,408,406,407,78,-40,4588,-10,-4,0,-1616,728,15044,595,0,16,2,0,0,,3869,,
15,465784575,5,3263,0,0,0,408,408,406,407,78,-40,4588,-13,-1,-2,-1560,624,15000,595,0,16,2,0,0,,3911,,
16,465788411,5,3263,0,0,0,408,408,406,407,78,-40,4588,-15,-2,0,-1540,604,14920,595,0,16,2,0,0,,3836,,
17,465792273,5,3263,0,0,0,408,408,406,407,78,-40,4588,-13,-1,-1,-1552,548,15016,595,0,16,2,0,0,,3862,,
18,465796168,5,3263,0,0,0,408,408,406,407,79,-40,4588,-12,-1,0,-1572,668,15132,595,0,16,2,0,0,,3895,,
19,465800003,5,3263,0,0,0,408,408,406,407,79,-39,4588,-14,0,-2,-1552,636,14968,595,0,16,2,0,0,,3835,,
20,465803871,5,3263,0,0,0,408,408,407,407,79,-39,4588,-15,-1,-2,-1572,600,14864,595,0,16,2,0,0,,3868,,
21,465807767,5,3263,0,0,0,408,408,406,407,79,-39,4588,-10,-3,-2,-1568,528,15068,595,0,16,2,0,0,,3896,,
22,465811606,5,3263,0,0,0,408,408,406,407,79,-39,4588,-11,-3,1,-1616,560,14748,595,0,16,2,0,0,,3839,,
23,465815524,5,3263,0,0,0,408,408,406,407,79,-38,4588,-12,2,-1,-1552,528,15100,595,0,16,2,0,0,,3918,,
24,465819348,5,3263,0,0,0,408,408,407,407,80,-39,4588,-12,-2,2,-1640,656,14960,595,0,16,2,0,0,,3824,,
25,465823211,5,3263,0,0,0,408,408,406,406,80,-39,4588,-14,-3,-1,-1612,608,15048,595,0,16,2,0,0,,3863,,
26,465827077,5,3263,0,0,0,408,408,406,406,80,-39,4588,-13,-3,3,-1592,600,15068,595,0,16,2,0,0,,3866,,
27,465830950,5,3263,0,0,0,408,408,406,406,81,-39,4588,-12,-3,-2,-1620,692,15096,595,0,16,2,0,0,,3873,,
28,465834809,5,3263,0,0,0,408,408,406,406,81,-39,4588,-14,0,2,-1636,604,15040,595,0,16,2,0,0,,3859,,
29,465838678,5,3263,0,0,0,408,408,407,406,81,-40,4588,-11,-3,-1,-1660,652,15028,595,0,16,2,0,0,,3869,,
30,465842547,5,3263,0,0,0,408,408,406,406,81,-40,4588,-13,-2,-3,-1600,584,14916,595,0,16,2,0,0,,3869,,
31,465846479,5,3263,0,0,0,408,408,406,406,81,-41,4588,-9,-3,0,-1664,600,15024,595,0,16,2,0,0,,3932,,
32,465850301,5,3263,0,0,0,408,408,406,406,81,-41,4588,-14,-2,-2,-1596,564,15124,595,0,16,2,0,0,,3822,,
33,465854146,5,3263,0,0,0,408,408,406,406,81,-41,4588,-13,-1,3,-1600,628,14976,595,0,16,2,0,0,,3845,,
34,465858023,5,3263,0,0,0,408,408,406,406,80,-42,4588,-10,-4,-1,-1708,516,14984,595,0,16,2,0,0,,3877,,
35,465861882,5,3263,0,0,0,408,408,406,406,81,-42,4588,-13,1,0,-1672,712,14980,595,0,16,2,0,0,,3859,,
36,465865748,5,3263,0,0,0,408,408,407,406,80,-42,4588,-13,-1,1,-1588,516,14956,595,0,16,2,0,0,,3866,,
37,465869625,5,3263,0,0,0,408,408,406,406,80,-43,4588,-12,-1,-3,-1640,648,15152,595,0,16,2,0,0,,3877,,
38,465873481,5,3263,0,0,0,408,408,406,406,80,-44,4588,-10,-3,0,-1684,572,15012,595,0,16,2,0,0,,3856,,
39,465877397,5,3263,0,0,0,408,408,406,406,80,-44,4588,-12,-3,-2,-1572,576,14972,595,0,16,2,0,0,,3916,,
40,465881224,5,3263,0,0,0,408,408,406,406,80,-43,4588,-9,1,1,-1548,608,15140,595,0,16,2,0,0,,3827,,
41,465885093,5,3263,0,0,0,408,408,407,406,80,-42,4588,-12,0,-1,-1580,588,15016,595,0,16,2,0,0,,3869,,
42,465888954,5,3263,0,0,0,408,408,407,406,80,-42,4588,-11,-1,-2,-1536,636,15032,595,0,16,2,0,0,,3861,,
43,465892843,5,3263,0,0,0,408,408,406,406,80,-42,4588,-12,-7,2,-1592,600,15004,595,0,16,2,0,0,,3889,,
44,465896718,5,3263,0,0,0,408,408,406,406,80,-43,4588,-10,-4,-3,-1664,568,14952,595,0,16,2,0,0,,3875,,
45,465900560,5,3263,0,0,0,408,408,406,406,79,-43,4588,-13,-2,1,-1572,452,14976,595,0,16,2,0,0,,3842,,
46,465904434,5,3263,0,0,0,408,408,406,407,80,-43,4588,-13,-3,-3,-1596,700,15088,595,0,16,2,0,0,,3874,,
47,465908336,5,3263,0,0,0,408,408,406,406,80,-42,4588,-11,0,1,-1596,584,15008,595,0,16,2,0,0,,3902,,
48,465912161,5,3263,0,0,0,408,408,407,406,80,-42,4588,-8,-3,1,-1628,648,15056,595,0,16,2,0,0,,3825,,
49,465916034,5,3263,0,0,0,408,408,406,406,80,-42,4588,-14,-6,0,-1572,624,15076,595,0,16,2,0,0,,3873,,
50,465919898,5,3263,0,0,0,408,408,406,406,80,-40,4588,-14,3,-2,-1496,528,14920,595,0,16,2,0,0,,3864,,
51,465923766,5,3263,0,0,0,408,408,407,406,79,-40,4588,-12,0,-1,-1652,512,15164,595,0,16,2,0,0,,3868,,
52,465927635,5,3263,0,0,0,408,408,407,407,79,-40,4588,-10,-4,-3,-1592,636,15008,595,0,16,2,0,0,,3869,,
53,465931503,5,3263,0,0,0,408,408,406,407,78,-40,4588,-11,-3,-2,-1592,476,14880,595,0,16,2,0,0,,3868,,
54,465935369,5,3263,0,0,0,408,408,406,407,78,-40,4588,-13,-1,1,-1628,608,14840,595,0,16,2,0,0,,3866,,
55,465939283,5,3263,0,0,0,408,408,406,407,78,-41,4588,-10,-1,0,-1652,536,15076,595,0,16,2,0,0,,3914,,
56,465943106,5,3263,0,0,0,408,408,406,407,78,-41,4588,-13,-4,4,-1580,592,14944,595,0,16,2,0,0,,3823,,
57,465946994,5,3263,0,0,0,408,408,406,407,78,-41,4588,-11,-1,-2,-1624,612,15016,595,0,16,2,0,0,,3888,,
58,465950834,5,3263,0,0,0,408,408,406,407,78,-41,4588,-15,-4,-1,-1568,620,14996,595,0,16,2,0,0,,3840,,
59,465954719,5,3263,0,0,0,408,408,406,407,78,-40,4588,-9,0,-3,-1528,616,14856,595,0,16,2,0,0,,3885,,
60,465958576,5,3263,0,0,0,408,408,407,407,78,-41,4588,-12,-1,-1,-1644,560,14952,595,0,16,2,0,0,,3857,,
61,465962438,5,3263,0,0,0,408,408,406,407,78,-42,4588,-12,-2,0,-1656,616,15076,595,0,16,2,0,0,,3862,,
62,465966307,5,3263,0,0,0,408,408,406,407,78,-42,4588,-12,3,2,-1640,572,14992,595,0,16,2,0,0,,3869,,
63,465970221,5,3263,0,0,0,408,408,407,407,78,-42,4588,-10,-2,-3,-1572,580,15052,595,0,16,2,0,0,,3914,,
64,465974044,5,3263,0,0,0,408,408,406,407,78,-42,4588,-13,-2,2,-1636,612,15012,595,0,16,2,0,0,,3823,,
65,465977919,5,3263,0,0,0,408,408,406,407,79,-42,4588,-14,-1,-1,-1620,656,14832,595,0,16,2,0,0,,3875,,
66,465981778,5,3263,0,0,0,408,408,406,407,79,-42,4588,-13,-2,-3,-1576,568,15112,595,0,16,2,0,0,,3859,,
67,465985655,5,3263,0,0,0,408,408,406,407,79,-42,4588,-8,0,0,-1644,600,14996,595,0,16,2,0,0,,3877,,
68,465989515,5,3263,0,0,0,408,408,407,407,79,-42,4588,-12,-2,3,-1612,596,14944,595,0,16,2,0,0,,3860,,
69,465993390,5,3263,0,0,0,408,408,406,407,78,-42,4588,-12,-4,-2,-1584,520,15140,595,0,16,2,0,0,,3875,,
70,465997312,5,3263,0,0,0,408,408,406,407,78,-42,4588,-10,-1,-1,-1608,620,15004,595,0,16,2,0,0,,3922,,
71,466001165,5,3263,0,0,0,408,408,406,407,78,-42,4588,-9,-3,-1,-1608,608,15024,595,0,16,2,0,0,,3853,,
72,466004989,5,3263,0,0,0,408,408,406,407,78,-42,4588,-13,-2,-2,-1568,576,14972,595,0,16,2,0,0,,3824,,
73,466008855,5,3263,0,0,0,408,408,406,407,78,-42,4588,-12,-1,-1,-1520,652,14996,595,0,16,2,0,0,,3866,,
74,466012723,5,3263,0,0,0,408,408,406,407,78,-41,4588,-13,0,0,-1528,588,15000,595,0,16,2,0,0,,3868,,
75,466016592,5,3263,0,0,0,408,408,407,407,78,-41,4588,-13,-1,1,-1520,592,14980,595,0,16,2,0,0,,3869,,
76,466020463,5,3263,0,0,0,408,408,406,407,78,-40,4588,-13,0,-2,-1624,564,14932,595,0,16,2,0,0,,3871,,
77,466024332,5,3263,0,0,0,408,408,407,407,78,-40,4588,-10,-1,-1,-1632,648,15076,595,0,16,2,0,0,,3869,,
78,466028191,5,3263,0,0,0,408,408,406,407,79,-41,4588,-13,-1,-2,-1652,664,15012,595,0,16,2,0,0,,3859,,
79,466032118,5,3263,0,0,0,408,408,406,407,79,-39,4588,-12,0,-2,-1508,552,15000,595,0,16,2,0,0,,3927,,
80,466035925,5,3263,0,0,0,408,408,407,407,79,-39,4588,-12,-1,-1,-1616,596,15056,595,0,16,2,0,0,,3807,,
81,466039843,5,3263,0,0,0,408,408,406,407,79,-40,4588,-11,-1,0,-1652,584,15136,595,0,16,2,0,0,,3918,,
82,466043861,5,3263,0,0,0,408,408,406,407,79,-40,4588,-11,-1,1,-1580,528,14956,595,0,16,2,0,0,,4018,,
83,466047533,5,3263,0,0,0,408,408,406,407,79,-41,4588,-14,-3,1,-1700,580,14968,595,0,16,2,0,0,,3672,,
84,466051401,5,3263,0,0,0,408,408,406,407,79,-41,4588,-8,-1,-2,-1628,560,15040,595,0,16,2,0,0,,3868,,
85,466055264,5,3263,0,0,0,408,408,406,407,78,-42,4588,-16,-4,-2,-1708,516,14872,595,0,16,2,0,0,,3863,,
86,466059141,5,3263,0,0,0,408,408,406,407,77,-42,4588,-11,0,0,-1640,508,15124,595,0,16,2,0,0,,3877,,
87,466063049,5,3263,0,0,0,408,408,407,407,77,-43,4588,-11,-1,-1,-1656,560,15036,595,0,16,2,0,0,,3908,,
88,466066877,5,3263,0,0,0,408,408,406,407,77,-43,4588,-9,-1,1,-1604,592,15016,595,0,16,2,0,0,,3828,,
89,466070737,5,3263,0,0,0,408,408,406,407,78,-43,4588,-10,-3,-1,-1628,668,15048,595,0,16,2,0,0,,3860,,
90,466074603,5,3263,0,0,0,408,408,406,407,78,-43,4588,-10,-1,2,-1632,648,14976,595,0,16,2,0,0,,3866,,
91,466078467,5,3263,0,0,0,408,408,406,407,78,-43,4588,-9,-1,-2,-1572,640,14960,595,0,16,2,0,0,,3864,,
92,466082341,5,3263,0,0,0,408,408,406,407,79,-44,4588,-10,-2,-2,-1664,712,15096,595,0,16,2,0,0,,3874,,
93,466086209,5,3263,0,0,0,408,408,406,407,79,-43,4588,-12,0,0,-1628,596,15048,595,0,16,2,0,0,,3868,,
94,466090077,5,3263,0,0,0,408,408,407,407,79,-43,4588,-11,-3,0,-1600,588,14964,595,0,16,2,0,0,,3868,,
95,466094012,5,3263,0,0,0,408,408,406,407,79,-44,4588,-10,-3,-1,-1644,624,14892,595,0,16,2,0,0,,3935,,
96,466097812,5,3263,0,0,0,408,408,406,407,80,-44,4588,-11,-3,0,-1520,688,14836,595,0,16,2,0,0,,3800,,
97,466101693,5,3263,0,0,0,408,408,406,406,81,-43,4588,-9,-4,2,-1492,680,14984,595,0,16,2,0,0,,3881,,
98,466105546,5,3263,0,0,0,408,408,406,406,81,-42,4588,-10,1,-2,-1528,572,15136,595,0,16,2,0,0,,3853,,
99,466109412,5,3263,0,0,0,408,408,407,406,81,-42,4588,-12,0,-1,-1644,532,15000,595,0,16,2,0,0,,3866,,
100,466113277,5,3263,0,0,0,408,408,407,406,81,-41,4588,-9,0,1,-1624,540,15148,595,0,16,2,0,0,,3865,,
101,466117150,5,3263,0,0,0,408,408,407,406,81,-41,4588,-13,-3,2,-1524,588,15016,595,0,16,2,0,0,,3873,,
102,466121023,5,3263,0,0,0,408,408,406,406,81,-41,4588,-10,-4,0,-1516,588,15064,595,0,16,2,0,0,,3873,,
103,466124939,5,3263,0,0,0,408,408,406,406,81,-42,4588,-9,-2,-2,-1656,548,14992,595,0,16,2,0,0,,3916,,
104,466128749,5,3263,0,0,0,408,408,406,406,81,-43,4588,-11,-4,-2,-1648,588,15008,595,0,16,2,0,0,,3810,,
105,466132618,5,3263,0,0,0,408,408,406,406,81,-43,4588,-12,-2,-1,-1624,568,15020,595,0,16,2,0,0,,3869,,
106,466136487,5,3263,0,0,0,408,408,406,406,81,-42,4588,-11,0,0,-1636,576,15036,595,0,16,2,0,0,,3869,,
107,466140356,5,3263,0,0,0,408,408,407,406,81,-43,4588,-13,-3,2,-1640,592,15108,595,0,16,2,0,0,,3869,,
108,466144282,5,3263,0,0,0,408,408,406,406,81,-43,4588,-11,-1,-1,-1628,548,15016,595,0,16,2,0,0,,3926,,
109,466148097,5,3263,0,0,0,408,408,406,406,82,-43,4588,-9,1,-2,-1672,664,15156,595,0,16,2,0,0,,3815,,
110,466151957,5,3263,0,0,0,408,408,407,406,83,-43,4588,-14,0,-1,-1660,708,15052,595,0,16,2,0,0,,3860,,
111,466155867,5,3263,0,0,0,408,408,407,406,83,-43,4588,-11,-2,-1,-1576,576,15024,595,0,16,2,0,0,,3910,,
112,466159701,5,3263,0,0,0,408,408,406,406,83,-44,4588,-10,-2,0,-1664,640,14976,595,0,16,2,0,0,,3834,,
113,466163563,5,3263,0,0,0,408,408,406,406,83,-44,4588,-11,-3,-1,-1616,632,14852,595,0,16,2,0,0,,3862,,
114,466167433,5,3263,0,0,0,408,408,406,406,83,-44,4588,-13,-1,-2,-1584,544,15024,595,0,16,2,0,0,,3870,,
115,466171295,5,3263,0,0,0,408,408,406,406,84,-45,4588,-10,-2,-2,-1692,672,14992,595,0,16,2,0,0,,3862,,
116,466175164,5,3263,0,0,0,408,408,406,406,84,-45,4588,-12,1,0,-1724,596,15016,595,0,16,2,0,0,,3869,,
117,466179032,5,3263,0,0,0,408,408,407,406,84,-46,4588,-10,-1,1,-1644,552,14940,595,0,16,2,0,0,,3868,,
118,466182903,5,3263,0,0,0,408,408,406,406,84,-46,4588,-10,-5,-1,-1540,560,15108,595,0,16,2,0,0,,3871,,
119,466186849,5,3263,0,0,0,408,408,406,406,84,-46,4588,-11,-1,1,-1528,600,14996,595,0,16,2,0,0,,3946,,
120,466190629,5,3263,0,0,0,408,408,406,406,84,-46,4588,-12,-2,-3,-1552,624,14916,595,0,16,2,0,0,,3780,,
121,466194527,5,3263,0,0,0,408,408,406,406,85,-45,4588,-13,0,3,-1640,704,15072,595,0,16,2,0,0,,3898,,
122,466198365,5,3263,0,0,0,408,408,407,406,85,-45,4588,-12,-3,-1,-1612,644,15044,595,0,16,2,0,0,,3838,,
123,466202229,5,3263,0,0,0,408,408,406,406,85,-45,4588,-13,-3,0,-1596,636,15020,595,0,16,2,0,0,,3864,,
124,466206112,5,3263,0,0,0,408,408,406,406,85,-46,4588,-11,-3,-2,-1652,580,15040,595,0,16,2,0,0,,3883,,
125,466209968,5,3263,0,0,0,408,408,406,406,84,-46,4588,-12,-2,-3,-1576,532,14812,595,0,16,2,0,0,,3856,,
126,466213836,5,3263,0,0,0,408,408,406,406,84,-46,4588,-13,-2,-1,-1608,644,15040,595,0,16,2,0,0,,3868,,
127,466217750,5,3263,0,0,0,408,408,406,406,84,-46,4588,-13,-1,0,-1560,584,15100,595,0,16,2,0,0,,3914,,
128,466221573,5,3263,0,0,0,408,408,406,406,83,-45,4588,-14,0,0,-1628,516,14836,595,0,16,2,0,0,,3823,,
129,466225439,5,3263,0,0,0,408,408,407,406,83,-45,4588,-11,-2,-2,-1584,592,14956,595,0,16,2,0,0,,3866,,
130,466229316,5,3263,0,0,0,408,408,406,406,83,-45,4588,-13,-1,-1,-1612,636,15012,595,0,16,2,0,0,,3877,,
131,466233180,5,3263,0,0,0,408,408,406,406,83,-45,4588,-12,-4,-1,-1564,652,14944,595,0,16,2,0,0,,3864,,
132,466237038,5,3263,0,0,0,408,408,406,406,82,-45,4588,-12,-3,-1,-1580,512,15140,595,0,16,2,0,0,,3858,,
133,466240910,5,3263,0,0,0,408,408,406,406,81,-45,4588,-13,-3,-2,-1552,528,14976,595,0,16,2,0,0,,3872,,
134,466244775,5,3263,0,0,0,408,408,406,406,80,-45,4588,-9,-6,-1,-1616,468,14992,595,0,16,2,0,0,,3865,,
135,466248724,5,3263,0,0,0,408,408,406,406,80,-45,4588,-12,-1,0,-1548,564,15084,595,0,16,2,0,0,,3949,,
136,466252508,5,3263,0,0,0,408,408,406,406,80,-46,4588,-10,-2,0,-1696,608,15120,595,0,16,2,0,0,,3784,,
137,466256376,5,3263,0,0,0,408,408,406,406,81,-45,4588,-13,0,-3,-1564,664,15060,595,0,16,2,0,0,,3868,,
138,466260245,5,3263,0,0,0,408,408,407,406,81,-45,4588,-9,-3,-1,-1612,624,15060,595,0,16,2,0,0,,3869,,
139,466264113,5,3263,0,0,0,408,408,406,406,81,-46,4588,-10,-2,0,-1736,568,14916,595,0,16,2,0,0,,3868,,
140,466267990,5,3263,0,0,0,408,408,406,406,81,-46,4588,-8,-3,-2,-1556,572,14960,595,0,16,2,0,0,,3877,,
141,466271853,5,3263,0,0,0,408,408,406,406,81,-45,4588,-12,-2,-3,-1508,556,14984,595,0,16,2,0,0,,3863,,
142,466275728,5,3263,0,0,0,408,408,406,406,81,-45,4588,-13,-1,-1,-1580,576,14920,595,0,16,2,0,0,,3875,,
143,466279641,5,3263,0,0,0,408,408,406,406,81,-45,4588,-13,-2,-2,-1608,636,14956,595,0,16,2,0,0,,3913,,
144,466283446,5,3263,0,0,0,408,408,406,406,81,-45,4588,-10,-1,-2,-1604,648,15200,595,0,16,2,0,0,,3805,,
145,466287318,5,3263,0,0,0,408,408,406,406,81,-44,4588,-13,0,2,-1600,564,15072,595,0,16,2,0,0,,3872,,
146,466291223,5,3263,0,0,0,408,408,407,406,81,-44,4588,-12,-2,3,-1568,556,15008,595,0,16,2,0,0,,3905,,
147,466295091,5,3263,0,0,0,408,408,406,406,81,-44,4588,-10,-2,-3,-1600,624,15040,595,0,16,2,0,0,,3868,,
148,466298921,5,3263,0,0,0,408,408,406,406,81,-44,4588,-12,-1,1,-1624,540,14976,595,0,16,2,0,0,,3830,,
149,466302790,5,3263,0,0,0,408,408,406,406,81,-44,4588,-11,-3,0,-1560,648,15148,595,0,16,2,0,0,,3869,,
150,466306656,5,3263,0,0,0,408,408,406,406,82,-44,4588,-13,-1,2,-1584,732,14988,595,0,16,2,0,0,,3866,,
151,466310570,5,3263,0,0,0,408,408,406,406,82,-45,4588,-10,-1,1,-1644,628,14920,595,0,16,2,0,0,,3914,,
152,466314400,5,3263,0,0,0,408,408,406,406,82,-45,4588,-13,-5,0,-1552,600,15012,595,0,16,2,0,0,,3830,,
153,466318260,5,3263,0,0,0,408,408,406,406,82,-44,4588,-10,2,-1,-1576,544,15052,595,0,16,2,0,0,,3860,,
154,466322125,5,3263,0,0,0,408,408,407,406,82,-44,4588,-11,-3,1,-1564,584,15048,595,0,16,2,0,0,,3865,,
155,466326007,5,3263,0,0,0,408,408,406,406,82,-44,4588,-9,1,-1,-1696,612,15016,595,0,16,2,0,0,,3882,,
156,466329857,5,3263,0,0,0,408,408,407,406,82,-45,4588,-11,-2,0,-1648,540,14892,595,0,16,2,0,0,,3850,,
157,466333765,5,3263,0,0,0,408,408,406,406,82,-45,4588,-12,-3,1,-1620,596,14884,595,0,16,2,0,0,,3908,,
158,466337600,5,3263,0,0,0,408,408,406,406,82,-45,4588,-10,-2,-1,-1624,632,15004,595,0,16,2,0,0,,3835,,
159,466341514,5,3263,0,0,0,408,408,406,406,82,-45,4588,-16,-1,0,-1568,600,14864,595,0,16,2,0,0,,3914,,
160,466345349,5,3263,0,0,0,408,408,406,406,81,-45,4588,-11,-4,-2,-1552,484,14856,595,0,16,2,0,0,,3835,,
161,466349203,5,3263,0,0,0,408,408,406,406,81,-46,4588,-9,-1,0,-1688,596,14924,595,0,16,2,0,0,,3854,,
162,466353085,5,3263,0,0,0,408,408,406,406,81,-45,4588,-13,0,-1,-1588,584,14976,595,0,16,2,0,0,,3882,,
163,466356934,5,3263,0,0,0,408,408,407,406,81,-45,4588,-13,-1,1,-1636,604,14988,595,0,16,2,0,0,,3849,,
164,466360803,5,3263,0,0,0,408,408,406,406,81,-44,4588,-8,0,2,-1576,552,14972,595,0,16,2,0,0,,3869,,
165,466364674,5,3263,0,0,0,408,408,407,406,81,-44,4588,-14,-4,-1,-1636,596,14888,595,0,16,2,0,0,,3871,,
166,466368540,5,3263,0,0,0,408,408,406,406,81,-44,4588,-7,-2,2,-1548,612,14940,595,0,16,2,0,0,,3866,,
167,466372455,5,3263,0,0,0,408,408,406,406,81,-43,4588,-12,0,-1,-1552,576,15036,595,0,16,2,0,0,,3915,,
168,466376272,5,3263,0,0,0,408,408,407,406,80,-43,4588,-11,-1,-1,-1640,504,14832,595,0,16,2,0,0,,3817,,
169,466380140,5,3263,0,0,0,408,408,406,406,79,-43,4588,-10,-4,0,-1600,488,15048,595,0,16,2,0,0,,3868,,
170,466384009,5,3263,0,0,0,408,408,406,407,80,-43,4588,-10,-2,0,-1576,700,14880,595,0,16,2,0,0,,3869,,
171,466387878,5,3263,0,0,0,408,408,406,406,80,-42,4588,-12,0,1,-1544,612,15028,595,0,16,2,0,0,,3869,,
172,466391746,5,3263,0,0,0,408,408,407,406,80,-42,4588,-13,-2,1,-1636,588,15080,595,0,16,2,0,0,,3868,,
173,466395667,5,3263,0,0,0,408,408,406,406,80,-42,4588,-13,-1,-3,-1544,604,15032,595,0,16,2,0,0,,3921,,
174,466399481,5,3263,0,0,0,408,408,406,406,80,-43,4588,-16,-2,2,-1736,608,15056,595,0,16,2,0,0,,3814,,
175,466403391,5,3263,0,0,0,408,408,406,406,81,-43,4588,-10,-6,-2,-1616,664,15040,595,0,16,2,0,0,,3910,,
176,466407209,5,3263,0,0,0,408,408,406,406,82,-42,4588,-9,-2,0,-1472,668,15040,595,0,16,2,0,0,,3818,,
177,466411083,5,3263,0,0,0,408,408,406,406,82,-42,4588,-13,-2,-1,-1540,612,15000,595,0,16,2,0,0,,3874,,
178,466414945,5,3263,0,0,0,408,408,406,406,82,-42,4588,-10,-1,-1,-1628,564,15060,595,0,16,2,0,0,,3862,,
179,466418816,5,3263,0,0,0,408,408,406,406,82,-43,4588,-14,-5,0,-1640,604,15068,595,0,16,2,0,0,,3871,,
180,466422685,5,3263,0,0,0,408,408,406,406,82,-42,4588,-12,0,2,-1608,644,14940,595,0,16,2,0,0,,3869,,
181,466426554,5,3263,0,0,0,408,408,407,406,82,-43,4588,-12,-3,1,-1668,540,15008,595,0,16,2,0,0,,3869,,
182,466430429,5,3263,0,0,0,408,408,406,406,82,-43,4588,-11,-4,-1,-1540,556,15024,595,0,16,2,0,0,,3875,,
183,466434340,5,3263,0,0,0,408,408,406,406,82,-42,4588,-13,1,0,-1532,624,14984,595,0,16,2,0,0,,3911,,
184,466438194,5,3263,0,0,0,408,408,407,406,82,-42,4588,-11,-3,-1,-1616,564,15020,595,0,16,2,0,0,,3854,,
185,466442029,5,3263,0,0,0,408,408,406,406,82,-42,4588,-12,-3,0,-1632,616,15092,595,0,16,2,0,0,,3835,,
186,466445909,5,3263,0,0,0,408,408,406,406,81,-41,4588,-12,1,1,-1600,512,14980,595,0,16,2,0,0,,3880,,
187,466449763,5,3263,0,0,0,408,408,407,406,81,-41,4588,-14,-1,2,-1568,532,14972,595,0,16,2,0,0,,3854,,
188,466453622,5,3263,0,0,0,408,408,406,406,80,-41,4588,-13,-2,-1,-1604,504,15052,595,0,16,2,0,0,,3859,,
189,466457491,5,3263,0,0,0,408,408,406,406,80,-41,4588,-12,-6,1,-1592,584,15064,595,0,16,2,0,0,,3869,,
190,466461358,5,3263,0,0,0,408,408,406,406,80,-40,4588,-14,1,1,-1624,552,15040,595,0,16,2,0,0,,3867,,
191,466465273,5,3263,0,0,0,408,408,407,406,81,-40,4588,-9,-3,-1,-1572,672,15016,595,0,16,2,0,0,,3915,,
192,466469096,5,3263,0,0,0,408,408,406,406,81,-40,4588,-9,-3,-1,-1528,576,15008,595,0,16,2,0,0,,3823,,
193,466472962,5,3263,0,0,0,408,408,406,406,81,-39,4588,-9,0,-2,-1580,612,15076,595,0,16,2,0,0,,3866,,
194,466476837,5,3263,0,0,0,408,408,407,406,80,-39,4588,-13,-1,0,-1596,508,15040,595,0,16,2,0,0,,3875,,
195,466480706,5,3263,0,0,0,408,408,406,406,80,-39,4588,-11,-2,-1,-1564,588,15028,595,0,16,2,0,0,,3869,,
196,466484563,5,3263,0,0,0,408,408,406,406,80,-39,4588,-12,-1,-2,-1600,576,15084,595,0,16,2,0,0,,3857,,
197,466488436,5,3263,0,0,0,408,408,406,406,80,-40,4588,-10,-2,1,-1640,528,15028,595,0,16,2,0,0,,3873,,
198,466492296,5,3263,0,0,0,408,408,406,406,80,-40,4588,-10,-6,1,-1536,588,15120,595,0,16,2,0,0,,3860,,
199,466496233,5,3263,0,0,0,408,408,406,406,80,-39,4588,-13,2,3,-1636,576,14992,595,0,16,2,0,0,,3937,,
200,466500062,5,3263,0,0,0,408,408,407,406,80,-39,4588,-9,-3,0,-1608,536,15000,595,0,16,2,0,0,,3829,,
201,466503898,5,3263,0,0,0,408,408,406,406,80,-39,4588,-13,-3,-1,-1624,568,14944,595,0,16,2,0,0,,3836,,
202,466507767,5,3263,0,0,0,408,408,406,406,80,-39,4588,-10,-4,-1,-1608,600,14984,595,0,16,2,0,0,,3869,,
203,466511633,5,3263,0,0,0,408,408,406,406,80,-40,4588,-11,-3,-4,-1712,624,14892,595,0,16,2,0,0,,3866,,
204,466515510,5,3263,0,0,0,408,408,406,406,80,-41,4588,-13,-1,-1,-1672,544,15092,595,0,16,2,0,0,,3877,,
205,466519370,5,3263,0,0,0,408,408,406,406,80,-41,4588,-12,-4,1,-1592,588,15072,595,0,16,2,0,0,,3860,,
206,466523235,5,3263,0,0,0,408,408,406,406,80,-41,4588,-10,-4,-2,-1608,648,14868,595,0,16,2,0,0,,3865,,
207,466527150,5,3263,0,0,0,408,408,406,406,80,-41,4588,-12,-3,-2,-1580,628,15060,595,0,16,2,0,0,,3915,,
208,466530968,5,3263,0,0,0,408,408,406,406,80,-41,4588,-13,3,2,-1692,580,14988,595,0,16,2,0,0,,3818,,
209,466534847,5,3263,0,0,0,408,408,407,406,81,-41,4588,-10,-1,2,-1580,660,15064,595,0,16,2,0,0,,3879,,
210,466538709,5,3263,0,0,0,408,408,406,406,81,-41,4588,-11,-5,1,-1620,560,15040,595,0,16,2,0,0,,3862,,
211,466542610,5,3263,0,0,0,408,408,406,406,81,-41,4588,-12,-5,2,-1632,564,14936,595,0,16,2,0,0,,3901,,
212,466546478,5,3263,0,0,0,408,408,406,406,82,-40,4588,-12,1,-4,-1604,672,14960,595,0,16,2,0,0,,3868,,
213,466550311,5,3263,0,0,0,408,408,407,406,82,-39,4588,-11,0,-1,-1584,624,14984,595,0,16,2,0,0,,3833,,
214,466554179,5,3263,0,0,0,408,408,407,406,83,-39,4588,-14,-2,-1,-1552,716,14996,595,0,16,2,0,0,,3868,,
215,466558093,5,3263,0,0,0,408,408,406,406,83,-39,4588,-13,-3,-3,-1608,632,15056,595,0,16,2,0,0,,3914,,
216,466561923,5,3263,0,0,0,408,408,406,406,83,-39,4588,-11,-2,0,-1600,568,14964,595,0,16,2,0,0,,3830,,
217,466565788,5,3263,0,0,0,408,408,406,406,83,-38,4588,-10,0,-2,-1564,576,14948,595,0,16,2,0,0,,3865,,
218,466569647,5,3263,0,0,0,408,408,407,406,83,-38,4588,-12,-3,-1,-1512,652,15020,595,0,16,2,0,0,,3859,,
219,466573515,5,3263,0,0,0,408,408,406,406,82,-38,4588,-13,1,0,-1688,512,15116,595,0,16,2,0,0,,3868,,
220,466577383,5,3263,0,0,0,408,408,407,406,83,-38,4588,-11,-2,1,-1592,736,15020,595,0,16,2,0,0,,3868,,
221,466581251,5,3263,0,0,0,408,408,406,406,83,-38,4588,-12,-2,1,-1624,616,14976,595,0,16,2,0,0,,3868,,
222,466585138,5,3263,0,0,0,408,408,406,406,83,-38,4588,-10,-2,-1,-1540,604,15168,595,0,16,2,0,0,,3887,,
223,466589032,5,3263,0,0,0,408,408,406,406,83,-37,4588,-12,0,-2,-1540,556,14852,595,0,16,2,0,0,,3894,,
224,466592855,5,3263,0,0,0,408,408,407,406,83,-37,4588,-10,-2,0,-1544,592,15136,595,0,16,2,0,0,,3823,,
225,466596741,5,3263,0,0,0,408,408,406,406,83,-37,4588,-14,-4,0,-1536,616,14920,595,0,16,2,0,0,,3886,,
226,466600593,5,3263,0,0,0,408,408,406,406,82,-37,4588,-12,-4,1,-1540,500,14984,595,0,16,2,0,0,,3852,,
227,466604459,5,3263,0,0,0,408,408,406,406,82,-36,4588,-9,1,3,-1624,612,15076,595,0,16,2,0,0,,3866,,
228,466608319,5,3263,0,0,0,408,408,407,406,82,-37,4588,-11,-1,1,-1680,608,14972,595,0,16,2,0,0,,3860,,
229,466612197,5,3263,0,0,0,408,408,406,406,82,-37,4588,-8,-2,-3,-1600,588,14924,595,0,16,2,0,0,,3878,,
230,466616057,5,3263,0,0,0,408,408,406,406,83,-38,4588,-11,-3,1,-1640,700,14992,595,0,16,2,0,0,,3860,,
231,466619971,5,3263,0,0,0,408,408,406,406,83,-38,4588,-10,-4,-1,-1632,536,14928,595,0,16,2,0,0,,3914,,
232,466623794,5,3263,0,0,0,408,408,406,406,82,-38,4588,-9,-1,-2,-1632,500,15116,595,0,16,2,0,0,,3823,,
233,466627671,5,3263,0,0,0,408,408,406,406,82,-37,4588,-11,0,-1,-1516,592,15112,595,0,16,2,0,0,,3877,,
234,466631532,5,3263,0,0,0,408,408,407,406,83,-37,4588,-11,-2,-3,-1596,664,15032,595,0,16,2,0,0,,3861,,
235,466635404,5,3263,0,0,0,408,408,406,406,83,-37,4588,-13,-5,-2,-1612,648,15036,595,0,16,2,0,0,,3872,,
236,466639263,5,3263,0,0,0,408,408,406,406,83,-38,4588,-12,-3,-2,-1672,648,15016,595,0,16,2,0,0,,3859,,
237,466643142,5,3263,0,0,0,408,408,406,406,83,-39,4588,-12,-5,-1,-1664,636,14860,595,0,16,2,0,0,,3879,,
238,466647055,5,3263,0,0,0,408,408,406,406,84,-39,4588,-14,-1,1,-1620,692,15008,595,0,16,2,0,0,,3913,,
239,466650917,5,3263,0,0,0,408,408,406,406,84,-39,4588,-12,-2,0,-1596,612,14932,595,0,16,2,0,0,,3862,,
240,466654735,5,3263,0,0,0,408,408,406,406,84,-39,4588,-10,-1,0,-1592,608,15056,595,0,16,2,0,0,,3818,,
241,466658603,5,3263,0,0,0,408,408,406,406,84,-39,4588,-14,-2,-1,-1548,556,14920,595,0,16,2,0,0,,3868,,
242,466662472,5,3263,0,0,0,408,408,406,406,84,-39,4588,-12,-3,-3,-1544,592,14932,595,0,16,2,0,0,,3869,,
243,466666340,5,3263,0,0,0,408,408,406,406,84,-39,4588,-11,-2,0,-1584,644,15096,595,0,16,2,0,0,,3868,,
244,466670206,5,3263,0,0,0,408,408,406,406,84,-40,4588,-13,-3,-1,-1712,576,14984,595,0,16,2,0,0,,3866,,
245,466674074,5,3263,0,0,0,408,408,406,406,85,-41,4588,-11,-1,0,-1672,704,14908,595,0,16,2,0,0,,3868,,
246,466677949,5,3263,0,0,0,408,408,406,406,85,-41,4588,-13,-2,1,-1616,596,14852,595,0,16,2,0,0,,3875,,
247,466681861,5,3263,0,0,0,408,408,406,406,85,-41,4588,-12,-3,0,-1596,592,14888,595,0,16,2,0,0,,3912,,
248,466685675,5,3263,0,0,0,408,408,406,406,85,-41,4588,-12,-4,0,-1568,640,15100,595,0,16,2,0,0,,3814,,
249,466689567,5,3263,0,0,0,408,408,406,406,85,-41,4588,-10,-2,-1,-1568,600,14888,595,0,16,2,0,0,,3892,,
250,466693412,5,3263,0,0,0,408,408,406,406,85,-42,4588,-14,-2,-1,-1668,648,14976,595,0,16,2,0,0,,3845,,
251,466697320,5,3263,0,0,0,408,408,406,406,85,-43,4588,-10,-1,-2,-1664,592,14896,595,0,16,2,0,0,,3908,,
252,466701150,5,3263,0,0,0,408,408,406,406,85,-43,4588,-14,-7,-1,-1556,588,14844,595,0,16,2,0,0,,3830,,
253,466705012,5,3263,0,0,0,408,408,406,406,85,-42,4588,-12,0,-1,-1592,652,15028,595,0,16,2,0,0,,3862,,
254,466708880,5,3263,0,0,0,408,408,407,406,84,-43,4588,-11,-1,-1,-1728,532,15108,595,0,16,2,0,0,,3868,,
255,466712798,5,3263,0,0,0,408,408,406,406,84,-44,4588,-9,-4,0,-1644,624,14952,595,0,16,2,0,0,,3918,,
256,466716614,5,3263,0,0,0,408,408,406,406,84,-44,4588,-13,-3,0,-1636,560,15056,595,0,16,2,0,0,,3816,,
257,466720483,5,3263,0,0,0,408,408,406,406,84,-45,4588,-12,-2,-1,-1684,536,14960,595,0,16,2,0,0,,3869,,
258,466724364,5,3263,0,0,0,408,408,406,406,84,-45,4588,-12,-2,1,-1584,588,14908,595,0,16,2,0,0,,3881,,
259,466728225,5,3263,0,0,0,408,408,406,406,83,-45,4588,-11,-3,-1,-1628,492,15052,595,0,16,2,0,0,,3861,,
260,466732119,5,3263,0,0,0,408,408,406,406,83,-45,4588,-11,-2,-1,-1608,600,15024,595,0,16,2,0,0,,3894,,
261,466735955,5,3263,0,0,0,408,408,406,406,83,-45,4588,-12,-4,3,-1564,568,15004,595,0,16,2,0,0,,3836,,
262,466739819,5,3263,0,0,0,408,408,406,406,83,-44,4588,-9,1,-2,-1600,636,15044,595,0,16,2,0,0,,3864,,
263,466743869,5,3263,0,0,0,408,408,407,406,83,-44,4588,-8,-8,0,-1536,612,14776,595,0,16,2,0,0,,4050,,
264,466747559,5,3263,0,0,0,408,408,406,406,83,-43,4588,-12,-7,-1,-1396,588,14880,595,0,16,2,0,0,,3690,,
265,466751420,5,3263,0,0,0,408,408,406,406,83,-43,4588,-12,5,-2,-1760,620,15144,595,0,16,2,0,0,,3861,,
266,466755288,5,3263,0,0,0,408,408,407,406,83,-44,4588,-12,-1,0,-1680,624,15188,595,0,16,2,0,0,,3868,,
267,466759160,5,3263,0,0,0,408,408,406,406,83,-44,4588,-12,-5,-1,-1600,616,14960,595,0,16,2,0,0,,3872,,
268,466763031,5,3263,0,0,0,408,408,406,406,82,-45,4588,-12,-2,-2,-1656,520,14916,595,0,16,2,0,0,,3871,,
269,466766896,5,3263,0,0,0,408,408,406,406,81,-44,4588,-11,1,2,-1576,512,14980,595,0,16,2,0,0,,3865,,
270,466770762,5,3263,0,0,0,408,408,407,406,82,-44,4588,-11,-2,0,-1636,672,15128,595,0,16,2,0,0,,3866,,
271,466774689,5,3263,0,0,0,408,408,406,406,82,-44,4588,-10,-2,-1,-1516,568,15132,595,0,16,2,0,0,,3927,,
272,466778502,5,3263,0,0,0,408,408,406,406,82,-45,4588,-9,-4,1,-1648,596,15092,595,0,16,2,0,0,,3813,,
273,466782359,5,3263,0,0,0,408,408,406,406,82,-45,4588,-10,-4,-1,-1632,624,15120,595,0,16,2,0,0,,3857,,
274,466786234,5,3263,0,0,0,408,408,406,406,81,-44,4588,-12,0,1,-1604,452,15048,595,0,16,2,0,0,,3875,,
275,466790096,5,3263,0,0,0,408,408,407,406,81,-44,4588,-11,-1,-1,-1620,560,14980,595,0,16,2,0,0,,3862,,
276,466794014,5,3263,0,0,0,408,408,406,406,81,-45,4588,-11,-2,1,-1708,568,15116,595,0,16,2,0,0,,3918,,
277,466797835,5,3263,0,0,0,408,408,406,406,81,-45,4588,-10,-2,-2,-1628,552,15004,595,0,16,2,0,0,,3821,,
278,466801703,5,3263,0,0,0,408,408,406,406,81,-46,4588,-12,-3,0,-1648,548,15044,595,0,16,2,0,0,,3868,,
279,466805618,5,3263,0,0,0,408,408,406,406,81,-46,4588,-10,-3,-4,-1588,628,14992,595,0,16,2,0,0,,3915,,
280,466809446,5,3263,0,0,0,408,408,406,406,81,-45,4588,-13,2,0,-1628,572,14984,595,0,16,2,0,0,,3828,,
281,466813303,5,3263,0,0,0,408,408,407,406,81,-44,4588,-11,1,-2,-1556,612,15004,595,0,16,2,0,0,,3857,,
282,466817168,5,3263,0,0,0,408,408,407,406,80,-43,4588,-10,1,-2,-1628,528,15132,595,0,16,2,0,0,,3865,,
283,466821036,5,3263,0,0,0,408,408,407,406,79,-44,4588,-12,-5,0,-1668,524,14768,595,0,16,2,0,0,,3868,,
284,466824918,5,3263,0,0,0,408,408,406,407,79,-43,4588,-13,-9,-1,-1508,636,14948,595,0,16,2,0,0,,3882,,
285,466828771,5,3263,0,0,0,408,408,406,407,79,-42,4588,-10,-2,-4,-1464,624,14740,595,0,16,2,0,0,,3853,,
286,466832640,5,3263,0,0,0,408,408,406,407,79,-41,4588,-9,14,-1,-1592,568,15164,595,0,16,2,0,0,,3869,,
287,466836590,5,3263,0,0,0,408,408,407,407,76,-44,4588,-18,0,-25,-2120,224,15284,595,0,16,2,0,0,,3950,,
288,466840376,5,3263,0,0,0,408,408,407,407,75,-47,4588,-40,-18,-70,-1992,584,14996,595,0,16,2,0,0,,3786,,
289,466844247,5,3263,0,0,0,409,408,406,407,83,-30,4588,-1,34,-199,280,1600,15472,595,0,16,2,0,0,,3871,,
290,466848117,5,3263,0,0,0,407,408,407,406,54,-27,4588,25,-6,-378,-1156,-3404,16160,595,0,16,2,0,0,,3870,,
291,466851983,5,3263,0,0,0,408,408,407,406,25,-26,4588,51,-6,-459,-1492,-3508,14520,595,0,16,2,0,0,,3866,,
292,466855852,5,3263,0,0,0,408,408,407,406,2,-26,4588,2,0,-491,-1712,-2508,15104,595,0,16,2,0,0,,3869,,
293,466859713,5,3263,0,0,0,408,407,407,407,-16,-28,4588,-99,-24,-500,-1752,-1316,13368,595,0,16,2,0,0,,3861,,
294,466863581,5,3263,0,0,0,408,405,406,409,-33,-15,4588,-200,-72,-494,480,-644,13540,595,0,16,2,0,0,,3868,,
295,466867495,5,3263,0,0,0,409,403,406,411,-42,-7,4588,-88,-117,-499,92,-288,16988,595,0,16,2,0,0,,3914,,
296,466871317,5,3263,0,0,0,410,405,405,410,-48,18,4588,-42,-109,-502,2148,-224,10464,595,0,16,2,0,0,,3822,,
297,466875185,5,3263,0,0,0,409,406,406,409,-48,24,4588,-19,289,-460,-2420,448,18276,595,0,16,2,0,0,,3868,,
298,466879084,5,3263,0,0,0,403,406,412,409,-42,8,4588,-50,224,-400,-4852,1452,21540,595,0,16,2,0,0,,3899,,
299,466882925,5,3263,0,0,0,404,406,411,409,-27,-5,4588,8,-195,-297,-2120,2316,15824,595,0,16,2,0,0,,3841,,
300,466886806,5,3263,0,0,0,411,407,404,408,5,-12,4588,297,-282,-68,-848,2968,12900,595,0,16,2,0,0,,3881,,
301,466890653,5,3263,0,0,0,412,412,403,403,59,-7,4588,626,38,179,-1136,3844,12372,595,0,16,2,0,0,,3847,,
302,466894549,5,3263,0,0,0,407,418,408,397,112,-5,4588,477,260,86,-2760,4708,12876,595,0,16,2,0,0,,3896,,
303,466898436,5,3263,0,0,0,404,416,411,398,145,-29,4588,84,-5,-52,-4668,4320,14860,595,0,16,2,0,0,,3887,,
304,466902267,5,3263,0,0,0,408,411,407,404,155,-29,4588,-201,-185,-86,-724,2960,11372,595,0,16,2,0,0,,3831,,
305,466906128,5,3263,0,0,0,411,406,404,408,154,-27,4588,-299,28,-117,-1540,2096,14396,595,0,16,2,0,0,,3861,,
306,466909997,5,3263,0,0,0,408,405,407,410,148,-34,4588,-321,105,-131,-3068,1524,17116,595,0,16,2,0,0,,3869,,
307,466913865,5,3263,0,0,0,407,404,408,410,135,-41,4588,-430,-12,-87,-2412,1300,14920,595,0,16,2,0,0,,3868,,
308,466917727,5,3263,0,0,0,408,403,406,412,118,-38,4588,-558,-76,-50,-824,1568,12904,595,0,16,2,0,0,,3862,,
309,466921601,5,3263,0,0,0,409,400,405,414,93,-98,4588,-126,479,-20,-11888,-1912,32767,595,0,16,2,0,0,,3874,,
310,466925474,5,3263,0,0,0,402,407,413,408,78,-111,4588,-232,-1770,-55,6376,-76,6904,595,0,16,2,0,0,,3873,,
311,466929393,5,3263,0,0,0,437,405,378,410,53,-6,4588,-348,594,18,8532,-672,-6948,595,0,16,2,0,0,,3919,,
312,466933200,5,3263,0,0,0,398,403,416,412,28,-64,4588,-403,657,37,-12700,-468,32767,595,0,16,2,0,0,,3807,,
313,466937078,5,3263,0,0,0,398,401,417,414,6,-52,4588,-466,-975,-24,5236,260,84,595,0,16,2,0,0,,3878,,
314,466940947,5,3263,0,0,0,424,400,391,415,-17,-24,4588,-520,511,-7,-920,416,15148,595,0,16,2,0,0,,3869,,
315,466944842,5,3263,0,0,0,400,399,415,416,-47,-60,4588,-539,411,-6,-8500,-484,29800,595,0,16,2,0,0,,3895,,
316,466948668,5,3263,0,0,0,402,398,413,417,-74,-64,4588,-484,-365,-51,-140,-388,12120,595,0,16,2,0,0,,3826,,
317,466952538,5,3263,0,0,0,414,398,401,416,-97,-28,4588,-393,244,-62,1572,-508,8588,595,0,16,2,0,0,,3870,,
318,466956406,5,3263,0,0,0,404,399,411,415,-114,5,4588,-261,976,-83,-2744,-392,18312,595,0,16,2,0,0,,3868,,
319,466960320,5,3263,0,0,0,392,401,423,414,-124,5,4588,-96,992,-130,-7020,-392,27940,595,0,16,2,0,0,,3914,,
320,466964136,5,3263,0,0,0,392,404,423,411,-123,1,4588,80,681,-197,-5796,20,25880,595,0,16,2,0,0,,3816,,
321,466968009,5,3263,0,0,0,397,407,418,408,-112,50,4588,233,714,-256,820,368,12168,595,0,16,2,0,0,,3873,,
322,466971886,5,3263,0,0,0,396,409,419,406,-94,106,4588,340,1090,-307,-428,752,15220,595,0,16,2,0,0,,3877,,
323,466975739,5,3263,0,0,0,389,411,426,404,-71,154,4588,405,1391,-360,-3084,1028,21044,595,0,16,2,0,0,,3853,,
324,466979612,5,3263,0,0,0,384,412,431,402,-48,192,4588,435,1368,-422,-4104,996,23388,595,0,16,2,0,0,,3873,,
325,466983504,5,3263,0,0,0,383,413,432,401,-24,233,4588,441,1199,-488,-2728,996,20228,595,0,16,2,0,0,,3892,,
326,466987349,5,3263,0,0,0,385,414,429,401,0,291,4588,389,1177,-543,-308,1452,15540,595,0,16,2,0,0,,3845,,
327,466991258,5,3263,0,0,0,385,413,430,401,22,365,4588,365,1351,-608,692,1300,14056,595,0,16,2,0,0,,3909,,
328,466995094,5,3263,0,0,0,381,413,434,402,42,443,4588,371,1536,-670,272,904,15688,595,0,16,2,0,0,,3836,,
329,466998946,5,3263,0,0,0,377,414,438,401,57,507,4588,369,1599,-702,-1804,428,20568,595,0,16,2,0,0,,3852,,
330,467002814,5,3263,0,0,0,375,414,440,401,71,575,4588,396,1577,-726,-1104,28,19684,595,0,16,2,0,0,,3868,,
331,467006682,5,3263,0,0,0,374,414,441,400,83,651,4588,431,1617,-721,-132,-268,17916,595,0,16,2,0,0,,3868,,
332,467010559,5,3263,0,0,0,372,415,443,400,97,738,4588,473,1789,-703,292,-252,16656,595,0,16,2,0,0,,3877,,
333,467014427,5,3263,0,0,0,368,416,447,399,113,836,4588,506,2077,-671,268,-180,16340,595,0,16,2,0,0,,3868,,
334,467018281,5,3263,0,0,0,362,417,453,398,131,944,4588,546,2369,-614,24,-136,16916,595,0,16,2,0,0,,3854,,
335,467022202,5,3263,0,0,0,356,418,459,397,151,1058,4588,594,2598,-547,-364,-128,17408,595,0,16,2,0,0,,3921,,
336,467026026,5,3263,0,0,0,350,419,464,396,174,1179,4588,638,2753,-453,-108,16,17104,595,0,16,2,0,0,,3824,,
337,467029936,5,3263,0,0,0,346,420,469,395,199,1313,4588,678,2877,-356,900,136,14752,595,0,16,2,0,0,,3910,,
338,467033756,5,3263,0,0,0,342,421,473,394,228,1455,4588,709,3012,-257,1288,460,14052,595,0,16,2,0,0,,3820,,
339,467037619,5,3263,0,0,0,338,422,477,393,261,1599,4588,726,3112,-172,1224,892,14172,595,0,16,2,0,0,,3863,,
340,467041489,5,3263,0,0,0,334,423,481,392,296,1741,4588,742,3076,-93,1412,1056,14040,595,0,16,2,0,0,,3870,,
341,467045370,5,3263,0,0,0,332,423,482,391,331,1880,4588,760,2938,-30,1880,1052,13108,595,0,16,2,0,0,,3881,,
342,467049232,5,3263,0,0,0,332,424,482,391,367,2015,4588,760,2788,25,2244,1280,12484,595,0,16,2,0,0,,3862,,
343,467053141,5,3263,0,0,0,333,425,482,390,404,2140,4588,742,2605,65,2076,1388,12604,595,0,16,2,0,0,,3909,,
344,467056962,5,3263,0,0,0,334,425,481,390,440,2254,4588,697,2393,97,1948,1628,12556,595,0,16,2,0,0,,3821,,
345,467060820,5,3263,0,0,0,335,425,480,390,475,2363,4588,631,2228,115,2320,1848,12480,595,0,16,2,0,0,,3858,,
346,467064705,5,3263,0,0,0,336,424,479,390,506,2466,4588,556,2111,120,2388,1788,13024,595,0,16,2,0,0,,3885,,
347,467068568,5,3263,0,0,0,336,424,479,391,532,2567,4588,480,2001,114,2776,1672,13452,595,0,16,2,0,0,,3863,,
348,467072478,5,3263,0,0,0,336,423,479,392,551,2667,4588,411,1913,106,3340,1236,13636,595,0,16,2,0,0,,3910,,
349,467076296,5,3263,0,0,0,336,422,479,393,566,2770,4588,353,1878,101,3884,968,14188,595,0,16,2,0,0,,3818,,
350,467080161,5,3263,0,0,0,335,422,480,393,577,2873,4588,298,1851,110,4240,876,14740,595,0,16,2,0,0,,3865,,
351,467084075,5,3263,0,0,0,334,421,481,394,584,2978,4588,269,1829,149,4616,524,14860,595,0,16,2,0,0,,3914,,
352,467087908,5,3263,0,0,0,332,420,482,394,590,3085,4588,242,1856,209,4884,504,15116,595,0,16,2,0,0,,3833,,
353,467091766,5,3263,0,0,0,330,420,484,395,596,3194,4588,228,1927,281,4784,604,15468,595,0,16,2,0,0,,3858,,
354,467095668,5,3263,0,0,0,328,420,487,395,603,3304,4588,219,2024,351,4552,760,15572,595,0,16,2,0,0,,3902,,
355,467099509,5,3263,0,0,0,324,420,490,395,611,3416,4588,220,2137,415,4316,924,15216,595,0,16,2,0,0,,3841,,
356,467103375,5,3263,0,0,0,321,420,494,395,621,3527,4588,250,2244,462,3816,1032,15344,595,0,16,2,0,0,,3866,,
357,467107243,5,3263,0,0,0,317,421,497,394,634,3636,4588,291,2309,486,3244,1104,15348,595,0,16,2,0,0,,3868,,
358,467111105,5,3263,0,0,0,315,422,500,393,650,3742,4588,337,2340,483,2720,1284,14872,595,0,16,2,0,0,,3862,,
359,467115061,5,3263,0,0,0,313,423,502,392,671,3843,4588,378,2363,463,2092,1700,14356,595,0,16,2,0,0,,3956,,
360,467118842,5,3263,0,0,0,311,423,504,391,698,3938,4588,411,2383,427,1412,2384,13688,595,0,16,2,0,0,,3781,,
361,467122706,5,3263,0,0,0,309,424,506,390,728,4031,4588,433,2392,367,1132,2640,13568,595,0,16,2,0,0,,3864,,
362,467126576,5,3263,0,0,0,307,425,507,389,760,4120,4588,445,2365,286,784,2800,13052,595,0,16,2,0,0,,3870,,
363,467130450,5,3263,0,0,0,306,426,508,389,792,4205,4588,464,2304,184,788,2752,12764,595,0,16,2,0,0,,3874,,
364,467134320,5,3263,0,0,0,306,427,509,388,822,4286,4588,477,2218,70,808,2512,12892,595,0,16,2,0,0,,3870,,
365,467138175,5,3263,0,0,0,306,427,509,387,852,4365,4588,484,2119,-48,1192,2500,12808,595,0,16,2,0,0,,3855,,
366,467142049,5,3263,0,0,0,306,428,508,387,882,4444,4588,490,2018,-172,1716,2396,12592,595,0,16,2,0,0,,3874,,
367,467145969,5,3263,0,0,0,307,429,508,386,911,4524,4588,490,1922,-294,2496,2264,12600,595,0,16,2,0,0,,3920,,
368,467149784,5,3263,0,0,0,307,429,508,386,937,4606,4588,482,1836,-389,3328,2144,12480,595,0,16,2,0,0,,3815,,
369,467153647,5,3263,0,0,0,307,429,508,385,960,4688,4588,460,1758,-442,3952,1884,12492,595,0,16,2,0,0,,3863,,
370,467157522,5,3263,0,0,0,307,429,508,385,979,4773,4588,426,1729,-462,4548,1500,12584,595,0,16,2,0,0,,3875,,
371,467161379,5,3263,0,0,0,306,429,509,386,994,4863,4588,385,1755,-456,5144,1228,12616,595,0,16,2,0,0,,3857,,
372,467165249,5,3263,0,0,0,304,429,510,386,1006,4962,4588,349,1830,-443,5896,956,12584,595,0,16,2,0,0,,3870,,
373,467169117,5,3263,0,0,0,301,428,513,387,1015,5069,4588,301,1933,-415,6464,864,12524,595,0,16,2,0,0,,3868,,
374,467172981,5,3263,0,0,0,298,428,516,387,1021,5185,4588,244,2073,-380,6964,868,12792,595,0,16,2,0,0,,3864,,
375,467176945,5,3263,0,0,0,294,427,521,388,1024,5311,4588,169,2225,-341,7428,920,12884,595,0,16,2,0,0,,3964,,
376,467180720,5,3263,0,0,0,290,426,525,389,1025,5446,4588,94,2385,-299,7832,1032,13212,595,0,16,2,0,0,,3775,,
377,467184593,5,3263,0,0,0,285,425,530,390,1024,5588,4588,25,2526,-253,8100,1124,13304,595,0,16,2,0,0,,3873,,
378,467188451,5,3263,0,0,0,281,424,534,391,1022,5736,4588,-24,2648,-204,8360,1368,13832,595,0,16,2,0,0,,3858,,
379,467192326,5,3263,0,0,0,277,423,538,392,1022,5885,4588,-44,2726,-164,8336,1644,14240,595,0,16,2,0,0,,3875,,
380,467196226,5,3263,0,0,0,273,422,542,392,1025,6037,4588,-33,2754,-126,8604,2076,14620,595,0,16,2,0,0,,3900,,
381,467200060,5,3263,0,0,0,270,423,545,392,1032,6187,4588,11,2709,-92,8772,2340,15072,595,0,16,2,0,0,,3834,,
382,467203923,5,3263,0,0,0,269,423,546,391,1044,6332,4588,87,2600,-58,8868,2628,15180,595,0,16,2,0,0,,3863,,
383,467207839,5,3263,0,0,0,268,425,547,390,1062,6469,4588,181,2446,-25,8816,2788,14944,595,0,16,2,0,0,,3916,,
384,467211671,5,3263,0,0,0,268,427,546,388,1084,6594,4588,270,2280,24,8380,2828,14548,595,0,16,2,0,0,,3832,,
385,467215529,5,3263,0,0,0,269,428,546,387,1113,6709,4588,353,2147,85,8008,3248,14272,595,0,16,2,0,0,,3858,,
386,467219441,5,3263,0,0,0,269,430,546,385,1145,6816,4588,414,2042,131,7516,3424,13752,595,0,16,2,0,0,,3912,,
387,467223270,5,3263,0,0,0,269,431,546,383,1179,6913,4588,485,1951,159,6956,3292,13288,595,0,16,2,0,0,,3829,,
388,467227138,5,3263,0,0,0,269,433,546,382,1214,7000,4588,562,1859,167,6292,3024,13060,595,0,16,2,0,0,,3868,,
389,467231006,5,3263,0,0,0,269,435,546,380,1249,7080,4588,630,1758,152,6012,2688,12572,595,0,16,2,0,0,,3868,,
390,467234882,5,3263,0,0,0,270,437,545,378,1285,7154,4588,697,1654,114,5908,2428,11952,595,0,16,2,0,0,,3876,,
391,467238784,5,3263,0,0,0,270,438,545,377,1320,7223,4588,737,1546,67,5948,2260,11496,595,0,16,2,0,0,,3902,,
392,467242601,5,3263,0,0,0,271,439,544,375,1355,7292,4588,749,1495,6,6308,2088,10992,595,0,16,2,0,0,,3817,,
393,467246476,5,3263,0,0,0,270,440,544,375,1386,7359,4588,718,1421,-54,6520,1812,10796,595,0,16,2,0,0,,3875,,
394,467250342,5,3263,0,0,0,271,440,544,375,1414,7427,4588,658,1381,-122,6848,1796,10588,595,0,16,2,0,0,,3866,,
395,467254205,5,3263,0,0,0,270,440,545,375,1437,7497,4588,587,1409,-196,7072,1592,10760,595,0,16,2,0,0,,3863,,
396,467258083,5,3263,0,0,0,268,439,546,376,1458,7573,4588,511,1450,-281,7712,1756,10636,595,0,16,2,0,0,,3878,,
397,467261979,5,3263,0,0,0,267,438,548,377,1475,7653,4588,442,1487,-348,8072,1580,10860,595,0,16,2,0,0,,3896,,
398,467265808,5,3263,0,0,0,265,437,550,378,1488,7739,4588,375,1511,-405,8776,1524,10800,595,0,16,2,0,0,,3829,,
399,467269726,5,3263,0,0,0,263,436,552,378,1500,7831,4588,296,1569,-425,9328,1892,10608,595,0,16,2,0,0,,3918,,
400,467273544,5,3263,0,0,0,261,435,554,380,1511,7928,4588,211,1608,-422,9796,2144,10720,595,0,16,2,0,0,,3818,,
401,467277411,5,3263,0,0,0,259,434,556,381,1520,8027,4588,141,1611,-410,10196,2236,10364,595,0,16,2,0,0,,3867,,
402,467281283,5,3263,0,0,0,257,433,558,382,1525,8125,4588,95,1565,-374,10436,1996,10808,595,0,16,2,0,0,,3872,,
403,467285146,5,3263,0,0,0,256,432,558,382,1528,8219,4588,77,1452,-329,10608,1876,10764,595,0,16,2,0,0,,3863,,
404,467289016,5,3263,0,0,0,257,432,558,383,1531,8307,4588,82,1322,-275,10596,1932,10808,595,0,16,2,0,0,,3870,,
405,467292894,5,3263,0,0,0,257,432,558,382,1535,8384,4588,95,1177,-219,10124,1872,10968,595,0,16,2,0,0,,3878,,
406,467296750,5,3263,0,0,0,258,432,557,382,1540,8451,4588,105,1072,-158,9480,2040,10584,595,0,16,2,0,0,,3856,,
407,467300667,5,3263,0,0,0,259,433,556,382,1547,8510,4588,106,1045,-102,8644,2368,10452,595,0,16,2,0,0,,3917,,
408,467304502,5,3263,0,0,0,258,433,556,382,1557,8563,4588,98,1056,-72,7968,2716,10300,595,0,16,2,0,0,,3835,,
409,467308354,5,3263,0,0,0,257,433,558,382,1569,8614,4588,97,1077,-66,7616,2948,10040,595,0,16,2,0,0,,3852,,
410,467312227,5,3263,0,0,0,256,433,559,381,1582,8662,4588,114,1060,-81,7396,3072,10060,595,0,16,2,0,0,,3873,,
411,467316089,5,3263,0,0,0,256,434,559,381,1595,8706,4588,133,981,-107,7324,2956,9860,595,0,16,2,0,0,,3862,,
412,467319960,5,3263,0,0,0,256,434,559,381,1609,8746,4588,158,882,-138,7356,3044,9736,595,0,16,2,0,0,,3871,,
413,467323854,5,3263,0,0,0,257,435,558,380,1626,8782,4588,162,764,-176,7536,3292,9764,595,0,16,2,0,0,,3894,,
414,467327694,5,3263,0,0,0,259,435,556,380,1645,8816,4588,151,654,-216,7980,3624,9628,595,0,16,2,0,0,,3840,,
415,467331607,5,3263,0,0,0,260,435,555,380,1664,8850,4588,119,573,-259,8408,3804,9896,595,0,16,2,0,0,,3913,,
416,467335425,5,3263,0,0,0,260,435,554,380,1679,8884,4588,95,501,-292,8912,3420,9860,595,0,16,2,0,0,,3818,,
417,467339302,5,3263,0,0,0,261,435,554,380,1690,8921,4588,68,465,-306,9380,3172,10024,595,0,16,2,0,0,,3877,,
418,467343164,5,3263,0,0,0,261,435,554,380,1696,8960,4588,28,447,-308,9888,2744,10344,595,0,16,2,0,0,,3862,,
419,467347070,5,3263,0,0,0,261,434,554,381,1698,9004,4588,-5,460,-299,10456,2508,10492,595,0,16,2,0,0,,3906,,
420,467350899,5,3263,0,0,0,260,434,555,381,1698,9052,4588,-44,477,-280,10952,2396,10888,595,0,16,2,0,0,,3829,,
421,467354777,5,3263,0,0,0,259,433,556,382,1696,9103,4588,-70,489,-256,11248,2368,11036,595,0,16,2,0,0,,3878,,
422,467358633,5,3263,0,0,0,258,433,557,382,1694,9156,4588,-91,500,-230,11560,2348,11324,595,0,16,2,0,0,,3856,,
423,467362552,5,3263,0,0,0,257,432,558,383,1691,9209,4588,-94,502,-191,11588,2312,11504,595,0,16,2,0,0,,3919,,
424,467366405,5,3263,0,0,0,256,432,559,383,1687,9261,4588,-95,496,-145,11532,2188,11616,595,0,16,2,0,0,,3853,,
425,467370239,5,3263,0,0,0,255,432,560,383,1684,9312,4588,-106,530,-101,11360,2284,11844,595,0,16,2,0,0,,3834,,
426,467374108,5,3263,0,0,0,254,432,561,383,1683,9365,4588,-107,585,-65,11212,2580,11924,595,0,16,2,0,0,,3869,,
427,467377973,5,3263,0,0,0,252,432,563,383,1684,9417,4588,-89,628,-46,10912,2640,12316,595,0,16,2,0,0,,3865,,
428,467381849,5,3263,0,0,0,251,432,564,383,1685,9465,4588,-39,636,-40,10516,2444,12560,595,0,16,2,0,0,,3876,,
429,467385717,5,3263,0,0,0,250,433,565,382,1687,9510,4588,28,611,-40,10252,2216,12332,595,0,16,2,0,0,,3868,,
430,467389600,5,3263,0,0,0,249,434,565,381,1691,9550,4588,103,584,-41,9796,2036,12036,595,0,16,2,0,0,,3883,,
431,467393824,5,3263,0,0,0,249,435,565,380,1698,9586,4588,166,572,-33,9420,2100,11608,595,0,16,2,0,0,,4224,,
432,467397324,5,3263,0,0,0,249,436,566,378,1707,9619,4588,220,592,-5,8964,2096,10872,595,0,16,2,0,0,,3500,,
433,467401180,5,3263,0,0,0,248,437,567,378,1719,9651,4588,259,619,23,8692,2256,10504,595,0,16,2,0,0,,3856,,
434,467405044,5,3263,0,0,0,247,438,568,377,1732,9682,4588,282,629,47,8560,2212,10028,595,0,16,2,0,0,,3864,,
435,467408928,5,3263,0,0,0,246,439,568,376,1745,9712,4588,302,605,41,8500,2184,9464,595,0,16,2,0,0,,3884,,
436,467412782,5,3263,0,0,0,246,439,568,376,1757,9739,4588,318,558,19,8416,2012,9140,595,0,16,2,0,0,,3854,,
437,467416659,5,3263,0,0,0,247,439,568,375,1766,9761,4588,326,470,-14,8412,1520,8768,595,0,16,2,0,0,,3877,,
438,467420526,5,3263,0,0,0,248,440,567,375,1773,9781,4588,321,385,-48,8612,1408,8424,595,0,16,2,0,0,,3867,,
439,467424450,5,3263,0,0,0,249,440,566,375,1779,9799,4588,290,318,-76,8804,1440,8192,595,0,16,2,0,0,,3924,,
440,467428252,5,3263,0,0,0,250,440,565,375,1782,9817,4588,242,274,-99,9108,1312,7820,595,0,16,2,0,0,,3802,,
441,467432130,5,3263,0,0,0,250,439,565,376,1783,9837,4588,188,233,-109,9460,1324,7680,595,0,16,2,0,0,,3878,,
442,467436000,5,3263,0,0,0,250,438,564,377,1780,9857,4588,130,178,-109,9788,1192,7884,595,0,16,2,0,0,,3870,,
443,467439862,5,3263,0,0,0,251,437,564,378,1775,9876,4588,70,107,-96,10104,1196,7740,595,0,16,2,0,0,,3862,,
444,467443822,5,3263,0,0,0,252,436,563,379,1769,9895,4588,-3,50,-80,10420,1484,7956,595,0,16,2,0,0,,3960,,
445,467447594,5,3263,0,0,0,252,435,563,380,1762,9913,4588,-97,23,-76,10572,1832,8452,595,0,16,2,0,0,,3772,,
446,467451465,5,3263,0,0,0,252,433,562,382,1753,9934,4588,-191,42,-94,10792,2100,9152,595,0,16,2,0,0,,3871,,
447,467455383,5,3263,0,0,0,252,432,563,383,1739,9958,4588,-285,102,-134,10880,1964,10060,595,0,16,2,0,0,,3918,,
448,467459198,5,3263,0,0,0,250,430,564,385,1720,9987,4588,-373,206,-194,10936,1892,11168,595,0,16,2,0,0,,3815,,
449,467463061,5,3263,0,0,0,248,428,566,387,1699,10024,4588,-432,360,-269,11184,1804,11960,595,0,16,2,0,0,,3863,,
450,467466939,5,3263,0,0,0,245,427,569,388,1676,10069,4588,-454,521,-339,11272,1616,12708,595,0,16,2,0,0,,3878,,
451,467470803,5,3263,0,0,0,242,426,573,389,1652,10120,4588,-439,667,-394,11392,1348,13116,595,0,16,2,0,0,,3864,,
452,467474666,5,3263,0,0,0,239,426,576,389,1628,10178,4588,-401,807,-409,11524,1200,13100,595,0,16,2,0,0,,3863,,
453,467478529,5,3263,0,0,0,236,426,579,389,1611,10241,4588,-338,924,-388,11640,1696,13208,595,0,16,2,0,0,,3863,,
454,467482398,5,3263,0,0,0,233,427,582,388,1602,10307,4588,-273,1010,-335,11532,2324,13024,595,0,16,2,0,0,,3869,,
455,467486313,5,3263,0,0,0,231,428,584,387,1599,10374,4588,-190,1041,-269,11588,2808,12572,595,0,16,2,0,0,,3915,,
456,467490136,5,3263,0,0,0,229,429,586,386,1602,10438,4588,-99,1004,-209,11448,3052,12376,595,0,16,2,0,0,,3823,,
457,467494020,5,3263,0,0,0,229,431,586,384,1611,10496,4588,-6,922,-147,11268,3204,12228,595,0,16,2,0,0,,3884,,
458,467497880,5,3263,0,0,0,229,432,586,383,1623,10548,4588,79,827,-106,11040,3164,12120,595,0,16,2,0,0,,3860,,
459,467501739,5,3263,0,0,0,230,434,585,381,1638,10593,4588,166,733,-85,10768,3052,11908,595,0,16,2,0,0,,3859,,
460,467505608,5,3263,0,0,0,231,435,584,379,1655,10633,4588,242,645,-80,10652,2876,11512,595,0,16,2,0,0,,3869,,
461,467509480,5,3263,0,0,0,231,437,583,378,1673,10669,4588,304,569,-93,10512,2640,11124,595,0,16,2,0,0,,3872,,
462,467513363,5,3263,0,0,0,232,438,583,377,1691,10702,4588,353,500,-108,10604,2416,10540,595,0,16,2,0,0,,3883,,
463,467517252,5,3263,0,0,0,233,439,582,376,1706,10733,4588,380,429,-116,10720,1996,9908,595,0,16,2,0,0,,3889,,
464,467521080,5,3263,0,0,0,233,440,581,375,1720,10760,4588,403,340,-108,10728,1716,9116,595,0,16,2,0,0,,3828,,
465,467524954,5,3263,0,0,0,234,440,581,374,1733,10783,4588,397,254,-90,10816,1592,8648,595,0,16,2,0,0,,3874,,
466,467528810,5,3263,0,0,0,235,440,579,374,1743,10806,4588,359,188,-68,11028,1444,7924,595,0,16,2,0,0,,3856,,
467,467532676,5,3263,0,0,0,236,440,579,375,1749,10827,4588,299,137,-41,11248,1384,7416,595,0,16,2,0,0,,3866,,
468,467536546,5,3263,0,0,0,236,439,578,376,1751,10848,4588,228,80,-9,11448,1252,7316,595,0,16,2,0,0,,3870,,
469,467540417,5,3263,0,0,0,237,438,578,377,1748,10867,4588,138,13,16,11676,1136,7140,595,0,16,2,0,0,,3871,,
470,467544329,5,3263,0,0,0,238,437,577,378,1742,10886,4588,31,-33,42,11888,1260,7248,595,0,16,2,0,0,,3912,,
471,467548195,5,3263,0,0,0,238,435,577,380,1734,10905,4588,-82,-33,61,11908,1636,7616,595,0,16,2,0,0,,3866,,
472,467552023,5,3263,0,0,0,238,433,577,382,1723,10924,4588,-187,-15,66,11792,1792,8060,595,0,16,2,0,0,,3828,,
473,467555907,5,3263,0,0,0,237,431,578,384,1708,10943,4588,-262,6,66,11684,1680,8512,595,0,16,2,0,0,,3884,,
474,467559769,5,3263,0,0,0,237,430,578,385,1692,10960,4588,-311,14,57,11516,1832,9180,595,0,16,2,0,0,,3862,,
475,467563619,5,3263,0,0,0,236,429,579,386,1678,10977,4588,-347,23,53,11444,2152,9656,595,0,16,2,0,0,,3850,,
476,467567487,5,3263,0,0,0,236,428,579,387,1665,10995,4588,-372,50,34,11396,2552,10304,595,0,16,2,0,0,,3868,,
477,467571356,5,3263,0,0,0,235,427,580,387,1654,11015,4588,-389,102,14,11432,2800,10804,595,0,16,2,0,0,,3869,,
478,467575221,5,3263,0,0,0,234,427,581,388,1645,11038,4588,-387,161,-15,11548,3008,11496,595,0,16,2,0,0,,3865,,
479,467579144,5,3263,0,0,0,233,427,582,388,1636,11064,4588,-349,209,-43,11536,2860,12244,595,0,16,2,0,0,,3923,,
480,467582968,5,3263,0,0,0,231,427,583,387,1628,11091,4588,-277,248,-61,11548,2504,12460,595,0,16,2,0,0,,3824,,
481,467586841,5,3263,0,0,0,230,428,584,387,1623,11119,4588,-183,286,-74,11512,2328,12580,595,0,16,2,0,0,,3873,,
482,467590693,5,3263,0,0,0,230,430,585,385,1619,11148,4588,-85,335,-70,11448,1964,12516,595,0,16,2,0,0,,3852,,
483,467594618,5,3263,0,0,0,228,431,586,384,1617,11178,4588,9,394,-56,11212,1808,12068,595,0,16,2,0,0,,3925,,
484,467598427,5,3263,0,0,0,227,433,588,382,1618,11211,4588,89,453,-36,11300,1748,11308,595,0,16,2,0,0,,3809,,
485,467602306,5,3263,0,0,0,225,434,589,381,1624,11245,4588,144,487,-6,11276,1952,10644,595,0,16,2,0,0,,3879,,
486,467606161,5,3263,0,0,0,224,435,590,380,1631,11278,4588,180,479,27,11288,1956,9908,595,0,16,2,0,0,,3855,,
487,467610081,5,3263,0,0,0,224,435,591,379,1639,11309,4588,195,438,55,11312,2076,9372,595,0,16,2,0,0,,3920,,
488,467613899,5,3263,0,0,0,224,436,591,379,1647,11336,4588,198,376,74,11036,2032,9004,595,0,16,2,0,0,,3818,,
489,467617778,5,3263,0,0,0,225,436,590,379,1654,11357,4588,194,314,88,10772,1884,8684,595,0,16,2,0,0,,3879,,
490,467621639,5,3263,0,0,0,225,436,589,379,1658,11373,4588,179,262,89,10396,1700,8272,595,0,16,2,0,0,,3861,,
491,467625503,5,3263,0,0,0,226,436,589,379,1660,11386,4588,150,220,73,10232,1524,7828,595,0,16,2,0,0,,3864,,
492,467629380,5,3263,0,0,0,226,435,588,379,1659,11397,4588,107,178,50,10184,1424,7500,595,0,16,2,0,0,,3877,,
493,467633235,5,3263,0,0,0,227,435,588,380,1657,11407,4588,48,123,31,10376,1508,7068,595,0,16,2,0,0,,3855,,
494,467637108,5,3263,0,0,0,228,434,587,381,1653,11416,4588,-21,46,16,10720,1624,7008,595,0,16,2,0,0,,3873,,
495,467641015,5,3263,0,0,0,229,433,586,382,1646,11424,4588,-100,-36,13,10988,1836,7192,595,0,16,2,0,0,,3907,,
496,467644842,5,3263,0,0,0,230,431,585,384,1640,11432,4588,-192,-105,8,11404,2360,7316,595,0,16,2,0,0,,3827,,
497,467648706,5,3263,0,0,0,231,430,584,385,1630,11439,4588,-284,-146,4,11600,2452,7876,595,0,16,2,0,0,,3864,,
498,467652583,5,3263,0,0,0,231,428,583,387,1618,11446,4588,-352,-169,-2,11728,2536,8712,595,0,16,2,0,0,,3877,,
499,467656440,5,3263,0,0,0,231,427,583,388,1604,11454,4588,-408,-166,-17,11884,2540,9532,595,0,16,2,0,0,,3857,,
500,467660331,5,3263,0,0,0,231,426,583,389,1589,11464,4588,-437,-120,-33,11836,2544,10448,595,0,16,2,0,0,,3891,,
501,467664174,5,3263,0,0,0,230,425,584,390,1575,11479,4588,-423,-60,-55,12084,2536,11136,595,0,16,2,0,0,,3843,,
502,467668049,5,3263,0,0,0,229,425,586,390,1561,11494,4588,-382,-1,-66,11888,2268,11620,595,0,16,2,0,0,,3875,,
503,467671970,5,3263,0,0,0,228,426,587,389,1549,11511,4588,-316,45,-72,11852,2172,11752,595,0,16,2,0,0,,3921,,
504,467675776,5,3263,0,0,0,227,426,588,388,1540,11530,4588,-241,86,-57,11872,2236,11700,595,0,16,2,0,0,,3806,,
505,467679663,5,3263,0,0,0,226,427,589,387,1537,11549,4588,-173,113,-38,11808,2504,11628,595,0,16,2,0,0,,3887,,
506,467683512,5,3263,0,0,0,225,429,589,386,1539,11568,4588,-101,123,-17,11656,2772,11456,595,0,16,2,0,0,,3849,,
507,467687387,5,3263,0,0,0,225,430,590,385,1544,11586,4588,-30,104,3,11676,2856,11264,595,0,16,2,0,0,,3875,,
508,467691244,5,3263,0,0,0,225,431,590,384,1552,11600,4588,33,63,13,11420,2840,11164,595,0,16,2,0,0,,3857,,
509,467695116,5,3263,0,0,0,225,432,589,383,1561,11611,4588,99,30,17,11232,2540,11040,595,0,16,2,0,0,,3872,,
510,467698984,5,3263,0,0,0,226,433,589,382,1569,11619,4588,160,19,17,11016,2268,10760,595,0,16,2,0,0,,3868,,
511,467702902,5,3263,0,0,0,226,434,589,380,1577,11627,4588,202,35,15,10796,1932,10356,595,0,16,2,0,0,,3918,,
512,467706724,5,3263,0,0,0,225,435,589,380,1584,11636,4588,224,60,9,10892,1756,9756,595,0,16,2,0,0,,3822,,
513,467710585,5,3263,0,0,0,225,436,590,379,1590,11646,4588,227,73,7,10876,1548,9572,595,0,16,2,0,0,,3861,,
514,467714469,5,3263,0,0,0,225,436,590,379,1594,11658,4588,212,98,12,10996,1344,8892,595,0,16,2,0,0,,3884,,
515,467718326,5,3263,0,0,0,224,435,591,379,1596,11671,4588,168,127,20,11068,1312,8536,595,0,16,2,0,0,,3857,,
516,467722202,5,3263,0,0,0,223,435,591,380,1597,11686,4588,109,157,38,11216,1640,7960,595,0,16,2,0,0,,3876,,
517,467726055,5,3263,0,0,0,223,434,592,381,1595,11703,4588,39,177,48,11252,1612,7944,595,0,16,2,0,0,,3853,,
518,467729931,5,3263,0,0,0,222,433,593,382,1592,11721,4588,-20,169,51,11464,1704,8060,595,0,16,2,0,0,,3876,,
519,467733832,5,3263,0,0,0,222,432,593,383,1585,11738,4588,-75,120,45,11596,1600,8056,595,0,16,2,0,0,,3901,,
520,467737651,5,3263,0,0,0,222,431,592,384,1577,11752,4588,-132,64,43,11588,1648,8108,595,0,16,2,0,0,,3819,,
521,467741523,5,3263,0,0,0,223,430,592,385,1567,11764,4588,-194,41,32,11492,1816,8376,595,0,16,2,0,0,,3872,,
522,467745423,5,3263,0,0,0,223,428,592,386,1558,11779,4588,-264,63,15,11752,2304,8864,595,0,16,2,0,0,,3900,,
523,467749253,5,3263,0,0,0,223,427,592,387,1548,11797,4588,-313,94,-10,11896,2420,9316,595,0,16,2,0,0,,3830,,
524,467753130,5,3263,0,0,0,222,426,593,388,1536,11816,4588,-337,114,-33,12092,2316,10156,595,0,16,2,0,0,,3877,,
525,467757009,5,3263,0,0,0,221,426,594,389,1524,11836,4588,-325,122,-50,12108,2272,10584,595,0,16,2,0,0,,3879,,
526,467760864,5,3263,0,0,0,221,426,594,389,1513,11858,4588,-286,133,-61,12332,2100,10896,595,0,16,2,0,0,,3855,,
527,467764827,5,3263,0,0,0,220,426,595,388,1505,11881,4588,-238,142,-58,12316,2224,11144,595,0,16,2,0,0,,3963,,
528,467768590,5,3263,0,0,0,220,427,595,388,1500,11903,4588,-179,147,-43,12276,2256,11168,595,0,16,2,0,0,,3763,,
529,467772464,5,3263,0,0,0,219,428,595,387,1497,11925,4588,-115,145,-22,12344,2172,11112,595,0,16,2,0,0,,3874,,
530,467776327,5,3263,0,0,0,219,429,596,386,1496,11947,4588,-55,141,2,12288,2156,10960,595,0,16,2,0,0,,3863,,
531,467780198,5,3263,0,0,0,219,430,596,385,1498,11966,4588,1,134,26,12116,2112,10892,595,0,16,2,0,0,,3871,,
532,467784061,5,3263,0,0,0,219,431,596,384,1500,11985,4588,40,130,47,12044,2048,10616,595,0,16,2,0,0,,3863,,
533,467787939,5,3263,0,0,0,218,431,597,384,1503,12001,4588,79,134,68,11776,1940,10596,595,0,16,2,0,0,,3878,,
534,467791807,5,3263,0,0,0,218,432,597,383,1507,12014,4588,113,138,88,11388,1876,10252,595,0,16,2,0,0,,3868,,
535,467795748,5,3263,0,0,0,218,433,597,382,1512,12026,4588,139,146,94,11176,1756,9928,595,0,16,2,0,0,,3941,,
536,467799539,5,3263,0,0,0,217,433,597,382,1516,12036,4588,160,143,104,10836,1624,9700,595,0,16,2,0,0,,3791,,
537,467803400,5,3263,0,0,0,217,433,597,381,1521,12045,4588,171,147,105,10804,1668,9504,595,0,16,2,0,0,,3861,,
538,467807321,5,3263,0,0,0,217,434,598,381,1527,12055,4588,167,142,97,10844,1828,8920,595,0,16,2,0,0,,3921,,
539,467811131,5,3263,0,0,0,217,434,598,381,1532,12063,4588,157,117,92,10776,1832,8712,595,0,16,2,0,0,,3810,,
540,467815001,5,3263,0,0,0,217,433,597,381,1536,12069,4588,135,78,78,10772,1764,8468,595,0,16,2,0,0,,3870,,
541,467818865,5,3263,0,0,0,218,433,597,381,1538,12074,4588,112,44,71,10952,1704,8040,595,0,16,2,0,0,,3864,,
542,467822735,5,3263,0,0,0,218,433,596,382,1538,12079,4588,79,12,56,10996,1484,8152,595,0,16,2,0,0,,3870,,
543,467826655,5,3263,0,0,0,219,432,596,382,1536,12083,4588,47,-18,45,11028,1464,8104,595,0,16,2,0,0,,3920,,
544,467830468,5,3263,0,0,0,219,432,596,383,1532,12088,4588,16,-36,32,11320,1360,8184,595,0,16,2,0,0,,3813,,
545,467834340,5,3263,0,0,0,219,431,595,383,1526,12093,4588,-23,-45,24,11372,1312,8156,595,0,16,2,0,0,,3872,,
546,467838210,5,3263,0,0,0,219,431,595,384,1518,12099,4588,-62,-36,18,11404,1268,8332,595,0,16,2,0,0,,3870,,
547,467842072,5,3263,0,0,0,219,430,596,385,1509,12106,4588,-107,-26,10,11648,1416,8368,595,0,16,2,0,0,,3862,,
548,467845972,5,3263,0,0,0,219,429,596,386,1501,12115,4588,-134,-7,10,11740,1592,8744,595,0,16,2,0,0,,3900,,
549,467849811,5,3263,0,0,0,218,428,596,386,1492,12125,4588,-159,-7,13,11808,1680,8868,595,0,16,2,0,0,,3839,,
550,467853675,5,3263,0,0,0,218,428,596,387,1482,12134,4588,-169,-11,14,11752,1660,9120,595,0,16,2,0,0,,3864,,
551,467857590,5,3263,0,0,0,218,428,597,387,1473,12142,4588,-174,-20,23,11636,1724,9268,595,0,16,2,0,0,,3915,,
552,467861407,5,3263,0,0,0,218,428,596,387,1465,12150,4588,-176,-24,20,11696,1812,9280,595,0,16,2,0,0,,3817,,
553,467865276,5,3263,0,0,0,218,427,597,387,1457,12157,4588,-175,-21,25,11492,1784,9584,595,0,16,2,0,0,,3869,,
554,467869159,5,3263,0,0,0,218,427,597,387,1448,12162,4588,-166,-24,23,11420,1752,9656,595,0,16,2,0,0,,3883,,
555,467873014,5,3263,0,0,0,218,427,597,388,1443,12166,4588,-161,-13,23,11148,2056,9972,595,0,16,2,0,0,,3855,,
556,467876890,5,3263,0,0,0,218,427,597,388,1439,12169,4588,-149,3,20,10916,2204,10088,595,0,16,2,0,0,,3876,,
557,467880745,5,3263,0,0,0,217,427,597,388,1437,12173,4588,-126,12,13,11012,2300,10372,595,0,16,2,0,0,,3855,,
558,467884620,5,3263,0,0,0,217,428,597,387,1437,12177,4588,-99,12,4,11080,2484,10632,595,0,16,2,0,0,,3875,,
559,467888526,5,3263,0,0,0,217,428,598,387,1440,12182,4588,-63,7,-3,11148,2628,10664,595,0,16,2,0,0,,3906,,
560,467892350,5,3263,0,0,0,217,429,598,386,1445,12186,4588,-23,-5,-11,11152,2620,10568,595,0,16,2,0,0,,3824,,
561,467896233,5,3263,0,0,0,217,429,597,385,1451,12191,4588,21,-18,-23,11272,2592,10700,595,0,16,2,0,0,,3883,,
562,467900091,5,3263,0,0,0,218,430,597,385,1457,12196,4588,52,-24,-23,11384,2396,10444,595,0,16,2,0,0,,3858,,
563,467903946,5,3263,0,0,0,217,431,597,384,1462,12201,4588,69,-31,-20,11392,2280,10188,595,0,16,2,0,0,,3855,,
