index_log, time_stamp, mode, thrust, roll, pitch, yaw, ae[0], ae[1], ae[2], ae[3], phi, theta, psi, sp, sq, sr, sax, say, saz, bat_volt, P, P1, P2, temperature, pressure
0, 106902562, 5, 3326, 0, 0, 0, 415, 415, 416, 415, 0, 0, 10193, -1, -1, 1, -1654, 568, 14942, 595, 1, 0, 1, 0, 0
1, 106912538, 5, 3326, 0, 0, 0, 415, 415, 416, 415, 0, 0, 10193, -1, -1, 1, -1646, 558, 14950, 595, 1, 0, 1, 0, 0
2, 106922518, 5, 3326, 0, 0, 0, 415, 415, 416, 415, 0, 0, 10193, 0, 0, 1, -1644, 562, 14958, 595, 1, 0, 1, 0, 0
3, 106932514, 5, 3326, 0, 0, 0, 415, 415, 415, 415, 0, 0, 10193, 0, 0, 1, -1658, 554, 14942, 595, 1, 0, 1, 0, 0
4, 106942483, 5, 3326, 0, 0, 0, 415, 415, 415, 415, 0, 0, 10193, -1, -1, 1, -1650, 558, 14910, 595, 1, 0, 1, 0, 0
5, 106952738, 5, 3326, 0, 0, 0, 415, 415, 416, 415, 0, 0, 10194, 0, -1, 1, -1654, 570, 14942, 595, 1, 0, 1, 0, 0
6, 106962451, 5, 3326, 0, 0, 0, 415, 415, 416, 415, 0, 0, 10193, -3, -2, 1, -1666, 582, 14908, 595, 1, 0, 1, 0, 0
7, 106972425, 5, 3326, 0, 0, 0, 415, 415, 416, 415, 0, 0, 10193, -5, -1, 1, -1624, 528, 14962, 595, 1, 0, 1, 0, 0
8, 106982498, 5, 3326, 0, 0, 0, 415, 415, 416, 415, 0, 0, 10194, 3, 0, 1, -1670, 546, 14930, 595, 1, 0, 1, 0, 0
9, 106992400, 5, 3326, 0, 0, 0, 415, 415, 415, 415, 0, 0, 10194, 4, -1, 1, -1668, 552, 14926, 595, 1, 0, 1, 0, 0
10, 107002660, 5, 3326, 0, 0, 0, 415, 415, 416, 415, 0, 0, 10194, 1, -1, 1, -1692, 574, 14926, 595, 1, 0, 1, 0, 0
11, 107012354, 5, 3326, 0, 0, 0, 415, 415, 416, 415, 0, 0, 10194, -1, -1, 1, -1712, 560, 14988, 595, 1, 0, 1, 0, 0
12, 107022448, 5, 3326, 0, 0, 0, 415, 415, 416, 415, 0, 0, 10194, 0, 0, 1, -1690, 532, 14970, 595, 1, 0, 1, 0, 0
13, 107032333, 5, 3326, 0, 0, 0, 415, 415, 415, 415, 0, 0, 10194, 2, -1, 2, -1668, 542, 14928, 595, 1, 0, 1, 0, 0
14, 107042314, 5, 3326, 0, 0, 0, 415, 415, 416, 415, 0, 0, 10194, 0, 0, 2, -1660, 550, 14930, 595, 1, 0, 1, 0, 0
15, 107052594, 5, 3326, 0, 0, 0, 416, 415, 416, 415, 0, 0, 10194, -3, -1, 2, -1674, 532, 14984, 595, 1, 0, 1, 0, 0
16, 107062278, 5, 3326, 0, 0, 0, 415, 415, 416, 415, 0, 0, 10194, -4, -1, 1, -1676, 520, 14968, 595, 1, 0, 1, 0, 0
17, 107072247, 5, 3326, 0, 0, 0, 415, 415, 416, 415, 0, 0, 10194, -2, -1, 2, -1668, 552, 14928, 595, 1, 0, 1, 0, 0
18, 107082237, 5, 3326, 0, 0, 0, 415, 415, 416, 415, 0, 0, 10194, -1, -1, 1, -1660, 556, 14928, 595, 1, 0, 1, 0, 0
19, 107092221, 5, 3326, 0, 0, 0, 415, 415, 416, 415, 0, 0, 10194, -1, -2, 1, -1654, 568, 14954, 595, 1, 0, 1, 0, 0
20, 107102193, 5, 3326, 0, 0, 0, 415, 415, 416, 415, 0, 0, 10194, -1, -2, 1, -1652, 534, 14968, 595, 1, 0, 1, 0, 0
21, 107112178, 5, 3326, 0, 0, 0, 415, 415, 416, 415, 0, 0, 10194, 0, -1, 1, -1654, 558, 14980, 595, 1, 0, 1, 0, 0
22, 107122165, 5, 3326, 0, 0, 0, 415, 415, 416, 415, 0, 0, 10194, 1, -1, 1, -1660, 570, 14954, 595, 1, 0, 1, 0, 0
23, 107132138, 5, 3326, 0, 0, 0, 415, 415, 416, 415, 0, 0, 10194, 0, -1, 0, -1662, 562, 14948, 595, 1, 0, 1, 0, 0
24, 107142137, 5, 3326, 0, 0, 0, 415, 415, 415, 415, 0, 0, 10194, -1, -2, 0, -1666, 550, 14962, 595, 1, 0, 1, 0, 0
25, 107152429, 5, 3326, 0, 0, 0, 415, 415, 415, 415, 0, 0, 10194, -1, -1, 1, -1658, 532, 14974, 595, 1, 0, 1, 0, 0
26, 107162089, 5, 3326, 0, 0, 0, 415, 415, 416, 415, 0, 0, 10194, -1, -1, 1, -1664, 544, 14968, 595, 1, 0, 1, 0, 0
27, 107172115, 5, 3326, 0, 0, 0, 415, 415, 416, 415, 0, 0, 10194, -1, -2, 1, -1670, 536, 14960, 595, 1, 0, 1, 0, 0
28, 107182058, 5, 3326, 0, 0, 0, 415, 415, 416, 415, 0, 0, 10194, -1, -2, 1, -1674, 530, 14972, 595, 1, 0, 1, 0, 0
29, 107192130, 5, 3326, 0, 0, 0, 415, 415, 416, 415, 0, 0, 10194, -1, -2, 1, -1674, 558, 14972, 595, 1, 0, 1, 0, 0
30, 107202030, 5, 3326, 0, 0, 0, 415, 415, 416, 415, 0, 0, 10195, -1, -1, 1, -1658, 564, 14960, 595, 1, 0, 1, 0, 0
31, 107212127, 5, 3326, 0, 0, 0, 415, 415, 416, 415, 0, 0, 10195, 0, -1, 1, -1658, 556, 14970, 595, 1, 0, 1, 0, 0
32, 107221999, 5, 3326, 0, 0, 0, 415, 415, 416, 415, 0, 0, 10195, 0, -1, 1, -1648, 556, 14956, 595, 1, 0, 1, 0, 0
33, 107232052, 5, 3326, 0, 0, 0, 415, 415, 416, 415, 0, 0, 10195, 0, 0, 1, -1652, 562, 14966, 595, 1, 0, 1, 0, 0
34, 107241967, 5, 3326, 0, 0, 0, 415, 415, 415, 415, 0, 0, 10195, -1, -1, 1, -1670, 568, 14964, 595, 1, 0, 1, 0, 0
35, 107252346, 5, 3326, 0, 0, 0, 415, 415, 416, 415, 0, 0, 10195, -1, -1, 1, -1658, 568, 14978, 595, 1, 0, 1, 0, 0
36, 107261928, 5, 3326, 0, 0, 0, 415, 415, 416, 415, 0, 0, 10195, -1, -2, 1, -1686, 570, 14980, 595, 1, 0, 1, 0, 0
37, 107271914, 5, 3326, 0, 0, 0, 415, 415, 416, 415, 0, 0, 10195, -1, -2, 1, -1670, 570, 14980, 595, 1, 0, 1, 0, 0
38, 107281896, 5, 3326, 0, 0, 0, 415, 415, 416, 415, 0, 0, 10195, -1, -2, 1, -1662, 568, 14962, 595, 1, 0, 1, 0, 0
39, 107291878, 5, 3326, 0, 0, 0, 415, 415, 416, 415, 0, 0, 10195, -1, -2, 1, -1664, 564, 14974, 595, 1, 0, 1, 0, 0
40, 107301864, 5, 3326, 0, 0, 0, 415, 415, 416, 415, 0, 0, 10195, -1, -1, 1, -1658, 544, 14958, 595, 1, 0, 1, 0, 0
41, 107311842, 5, 3326, 0, 0, 0, 415, 415, 416, 415, 0, 0, 10195, -1, -1, 1, -1660, 560, 14946, 595, 1, 0, 1, 0, 0
42, 107321822, 5, 3326, 0, 0, 0, 415, 415, 416, 415, 0, 0, 10195, -1, -2, 1, -1664, 552, 14982, 595, 1, 0, 1, 0, 0
43, 107331813, 5, 3326, 0, 0, 0, 415, 415, 416, 415, 0, 0, 10195, -1, -2, 1, -1670, 544, 14980, 595, 1, 0, 1, 0, 0
44, 107341801, 5, 3326, 0, 0, 0, 415, 415, 416, 415, 0, 0, 10195, -1, -2, 1, -1654, 548, 14984, 595, 1, 0, 1, 0, 0
45, 107352351, 5, 3326, 0, 0, 0, 415, 415, 416, 415, 0, 0, 10195, -1, -2, 1, -1650, 558, 14972, 595, 1, 0, 1, 0, 0
46, 107361759, 5, 3326, 0, 0, 0, 415, 415, 416, 415, 0, 0, 10195, -1, -2, 1, -1660, 564, 14962, 595, 1, 0, 1, 0, 0
47, 107371739, 5, 3326, 0, 0, 0, 415, 415, 416, 415, 0, 0, 10196, -1, -2, 1, -1664, 572, 14972, 595, 1, 0, 1, 0, 0
48, 107381753, 5, 3326, 0, 0, 0, 415, 415, 416, 415, 0, 0, 10196, -1, -2, 1, -1666, 560, 14964, 595, 1, 0, 1, 0, 0
49, 107391699, 5, 3326, 0, 0, 0, 415, 415, 416, 415, 0, 0, 10196, -1, -1, 1, -1664, 544, 14948, 595, 1, 0, 1, 0, 0
50, 107401796, 5, 3326, 0, 0, 0, 415, 415, 416, 415, 0, 0, 10196, -1, -1, 1, -1662, 562, 14932, 553, 1, 0, 1, 0, 0
51, 107411690, 5, 3326, 0, 0, 0, 415, 415, 416, 415, 0, 0, 10196, -1, -1, 1, -1670, 566, 14934, 553, 1, 0, 1, 0, 0
52, 107421795, 5, 3326, 0, 0, 0, 415, 415, 416, 415, 0, 0, 10196, 0, -1, 1, -1644, 566, 14944, 553, 1, 0, 1, 0, 0
53, 107431635, 5, 3326, 0, 0, 0, 415, 415, 416, 415, 0, 0, 10196, -1, -1, 1, -1656, 568, 14960, 553, 1, 0, 1, 0, 0
54, 107441659, 5, 3326, 0, 0, 0, 415, 415, 416, 415, 0, 0, 10196, -1, -1, 1, -1664, 536, 14978, 553, 1, 0, 1, 0, 0
55, 107451614, 5, 3326, 0, 0, 0, 415, 415, 416, 415, 0, 0, 10196, -1, -1, 1, -1666, 534, 14966, 553, 1, 0, 1, 0, 0
56, 107461584, 5, 3326, 0, 0, 0, 415, 415, 416, 415, 0, 0, 10196, -1, -1, 2, -1668, 558, 15000, 602, 1, 0, 1, 0, 0
57, 107471579, 5, 3326, 0, 0, 0, 415, 415, 416, 415, 0, 0, 10196, -1, -1, 1, -1670, 568, 14986, 602, 1, 0, 1, 0, 0
58, 107481556, 5, 3326, 0, 0, 0, 415, 415, 416, 415, 0, 0, 10196, -1, -1, 1, -1666, 578, 14980, 602, 1, 0, 1, 0, 0
59, 107491551, 5, 3326, 0, 0, 0, 415, 415, 416, 415, 0, 0, 10196, -1, -2, 2, -1668, 566, 14984, 602, 1, 0, 1, 0, 0
60, 107501529, 5, 3326, 0, 0, 0, 415, 415, 416, 415, 0, 0, 10196, -1, -2, 1, -1648, 560, 14976, 602, 1, 0, 1, 0, 0
61, 107511517, 5, 3326, 0, 0, 0, 415, 415, 416, 415, 0, 0, 10197, -1, -2, 1, -1644, 582, 14986, 595, 1, 0, 1, 0, 0
62, 107521483, 5, 3326, 0, 0, 0, 415, 415, 416, 415, 0, 0, 10197, -1, -3, 1, -1646, 558, 15006, 595, 1, 0, 1, 0, 0
63, 107531461, 5, 3326, 0, 0, 0, 415, 415, 416, 415, 0, 0, 10197, -1, -2, 1, -1670, 556, 14978, 595, 1, 0, 1, 0, 0
64, 107541455, 5, 3326, 0, 0, 0, 415, 415, 416, 415, 0, 0, 10197, -1, -1, 1, -1670, 564, 14984, 595, 1, 0, 1, 0, 0
65, 107551444, 5, 3326, 0, 0, 0, 415, 415, 416, 415, 0, 0, 10197, -1, -1, 1, -1680, 558, 14942, 595, 1, 0, 1, 0, 0
66, 107561430, 5, 3326, 0, 0, 0, 415, 415, 416, 415, 0, 0, 10197, -1, -1, 1, -1680, 562, 14952, 595, 1, 0, 1, 0, 0
67, 107571420, 5, 3326, 0, 0, 0, 415, 415, 416, 415, 0, 0, 10197, -1, -1, 1, -1668, 570, 14964, 595, 1, 0, 1, 0, 0
68, 107581398, 5, 3326, 0, 0, 0, 415, 415, 416, 415, 0, 0, 10197, -1, -1, 1, -1672, 566, 14962, 595, 1, 0, 1, 0, 0
69, 107591454, 5, 3326, 0, 0, 0, 415, 415, 416, 415, 0, 0, 10197, -1, -1, 1, -1664, 562, 14944, 595, 1, 0, 1, 0, 0
70, 107601373, 5, 3326, 0, 0, 0, 415, 415, 416, 415, 0, 0, 10197, -1, -1, 1, -1674, 546, 14960, 595, 1, 0, 1, 0, 0
71, 107611644, 5, 3326, 0, 0, 0, 415, 415, 416, 415, 0, 0, 10197, -1, -1, 1, -1668, 536, 14922, 595, 1, 0, 1, 0, 0
72, 107621341, 5, 3326, 0, 0, 0, 415, 415, 416, 415, 0, 0, 10197, -1, -1, 1, -1670, 546, 14908, 595, 1, 0, 1, 0, 0
73, 107631437, 5, 3326, 0, 0, 0, 415, 415, 416, 415, 0, 0, 10197, -1, -2, 1, -1654, 550, 14938, 595, 1, 0, 1, 0, 0
74, 107641296, 5, 3326, 0, 0, 0, 415, 415, 416, 415, 0, 0, 10197, -1, -1, 1, -1666, 546, 14926, 595, 1, 0, 1, 0, 0
75, 107651278, 5, 3326, 0, 0, 0, 415, 415, 416, 415, 0, 0, 10197, 0, 0, 1, -1668, 560, 14936, 595, 1, 0, 1, 0, 0
76, 107661262, 5, 3326, 0, 0, 0, 415, 415, 415, 415, 0, 0, 10197, -1, -2, 1, -1660, 576, 14928, 595, 1, 0, 1, 0, 0
77, 107671258, 5, 3326, 0, 0, 0, 415, 415, 416, 415, 0, 0, 10198, -1, -2, 1, -1652, 574, 14948, 595, 1, 0, 1, 0, 0
78, 107681238, 5, 3326, 0, 0, 0, 415, 415, 416, 415, 0, 0, 10198, -1, -1, 1, -1664, 582, 14924, 595, 1, 0, 1, 0, 0
79, 107691215, 5, 3326, 0, 0, 0, 415, 415, 416, 415, 0, 0, 10198, -1, -1, 0, -1662, 588, 14920, 595, 1, 0, 1, 0, 0
80, 107701213, 5, 3326, 0, 0, 0, 415, 415, 415, 415, 0, 0, 10197, -1, -1, 1, -1672, 576, 14944, 595, 1, 0, 1, 0, 0
81, 107711184, 5, 3326, 0, 0, 0, 415, 415, 416, 415, 0, 0, 10198, -1, -1, 1, -1656, 566, 14934, 595, 1, 0, 1, 0, 0
82, 107721167, 5, 3326, 0, 0, 0, 415, 415, 416, 415, 0, 0, 10198, -1, -2, 1, -1646, 560, 14940, 595, 1, 0, 1, 0, 0
83, 107731153, 5, 3326, 0, 0, 0, 415, 415, 416, 415, 0, 0, 10198, -1, -2, 1, -1650, 540, 14964, 595, 1, 0, 1, 0, 0
84, 107741139, 5, 3326, 0, 0, 0, 415, 415, 416, 415, 0, 0, 10198, -2, -2, 1, -1646, 546, 14980, 595, 1, 0, 1, 0, 0
85, 107751114, 5, 3326, 0, 0, 0, 415, 415, 416, 415, 0, 0, 10198, -1, -2, 1, -1674, 558, 14968, 595, 1, 0, 1, 0, 0
86, 107761103, 5, 3326, 0, 0, 0, 415, 415, 416, 415, 0, 0, 10198, -1, -1, 1, -1674, 560, 14974, 595, 1, 0, 1, 0, 0
87, 107771074, 5, 3326, 0, 0, 0, 415, 415, 416, 415, 0, 0, 10198, 0, 0, 1, -1658, 546, 14946, 595, 1, 0, 1, 0, 0
88, 107781079, 5, 3326, 0, 0, 0, 415, 415, 415, 415, 0, 0, 10198, -1, -1, 1, -1678, 556, 14948, 595, 1, 0, 1, 0, 0
89, 107791047, 5, 3326, 0, 0, 0, 415, 415, 416, 415, 0, 0, 10198, 0, 0, 1, -1666, 570, 14940, 595, 1, 0, 1, 0, 0
90, 107801120, 5, 3326, 0, 0, 0, 415, 415, 415, 415, 0, 0, 10198, -1, -1, 1, -1678, 564, 14950, 595, 1, 0, 1, 0, 0
91, 107811019, 5, 3326, 0, 0, 0, 415, 415, 416, 415, 0, 0, 10198, -1, -1, 1, -1660, 564, 14954, 595, 1, 0, 1, 0, 0
92, 107821109, 5, 3326, 0, 0, 0, 415, 415, 416, 415, 0, 0, 10198, -1, -1, 1, -1664, 564, 14948, 595, 1, 0, 1, 0, 0
93, 107830970, 5, 3326, 0, 0, 0, 415, 415, 416, 415, 0, 0, 10198, -1, -1, 1, -1662, 572, 14950, 595, 1, 0, 1, 0, 0
94, 107841056, 5, 3326, 0, 0, 0, 415, 415, 416, 415, 0, 0, 10198, -1, -1, 1, -1662, 564, 14950, 595, 1, 0, 1, 0, 0
95, 107850938, 5, 3326, 0, 0, 0, 415, 415, 416, 415, 0, 0, 10198, -1, -2, 1, -1656, 556, 14936, 595, 1, 0, 1, 0, 0
96, 107860919, 5, 3326, 0, 0, 0, 415, 415, 416, 415, 0, 0, 10199, -1, -2, 1, -1638, 570, 14928, 595, 1, 0, 1, 0, 0
97, 107870915, 5, 3326, 0, 0, 0, 415, 415, 416, 415, 0, 0, 10199, -1, -1, 1, -1646, 574, 14930, 595, 1, 0, 1, 0, 0
98, 107880882, 5, 3326, 0, 0, 0, 415, 415, 416, 415, 0, 0, 10199, -1, -1, 1, -1666, 550, 14942, 595, 1, 0, 1, 0, 0
99, 107890877, 5, 3326, 0, 0, 0, 415, 415, 416, 415, 0, 0, 10199, -1, -1, 1, -1662, 568, 14962, 595, 1, 0, 1, 0, 0
100, 107900841, 5, 3326, 0, 0, 0, 415, 415, 416, 415, 0, 0, 10199, -1, -1, 1, -1664, 556, 14956, 595, 1, 0, 1, 0, 0
101, 107910821, 5, 3326, 0, 0, 0, 415, 415, 416, 415, 0, 0, 10199, -1, -1, 1, -1666, 552, 14952, 595, 1, 0, 1, 0, 0
102, 107920796, 5, 3326, 0, 0, 0, 415, 415, 416, 415, 0, 0, 10199, -1, -1, 1, -1666, 540, 14936, 595, 1, 0, 1, 0, 0
103, 107930777, 5, 3326, 0, 0, 0, 415, 415, 416, 415, 0, 0, 10199, -1, -1, 2, -1674, 538, 14942, 595, 1, 0, 1, 0, 0
104, 107940763, 5, 3326, 0, 0, 0, 415, 415, 416, 415, 0, 0, 10199, -1, -1, 2, -1676, 550, 14952, 595, 1, 0, 1, 0, 0
105, 107950738, 5, 3326, 0, 0, 0, 415, 415, 416, 415, 0, 0, 10199, -1, -1, 2, -1664, 568, 14954, 595, 1, 0, 1, 0, 0
106, 107960730, 5, 3326, 0, 0, 0, 415, 415, 416, 415, 0, 0, 10199, -1, -2, 1, -1662, 580, 14952, 595, 1, 0, 1, 0, 0
107, 107970705, 5, 3326, 0, 0, 0, 415, 415, 416, 415, 0, 0, 10200, -1, -2, 2, -1662, 558, 14946, 595, 1, 0, 1, 0, 0
108, 107980696, 5, 3326, 0, 0, 0, 415, 415, 416, 415, 0, 0, 10200, -1, -2, 1, -1652, 554, 14970, 595, 1, 0, 1, 0, 0
109, 107990728, 5, 3326, 0, 0, 0, 415, 415, 416, 415, 0, 0, 10200, -1, -2, 1, -1638, 558, 14978, 595, 1, 0, 1, 0, 0
110, 108000651, 5, 3326, 0, 0, 0, 415, 415, 416, 415, 0, 0, 10200, -1, -2, 1, -1640, 564, 14968, 595, 1, 0, 1, 0, 0
111, 108010733, 5, 3326, 0, 0, 0, 415, 415, 416, 415, 0, 0, 10200, -1, -2, 1, -1650, 542, 14960, 595, 1, 0, 1, 0, 0
112, 108020622, 5, 3326, 0, 0, 0, 415, 415, 416, 415, 0, 0, 10200, -1, -1, 1, -1654, 568, 14968, 595, 1, 0, 1, 0, 0
113, 108030715, 5, 3326, 0, 0, 0, 415, 415, 416, 415, 0, 0, 10200, -1, -2, 1, -1662, 556, 14960, 595, 1, 0, 1, 0, 0
114, 108040592, 5, 3326, 0, 0, 0, 415, 415, 416, 415, 0, 0, 10200, -1, -1, 1, -1664, 552, 14942, 595, 1, 0, 1, 0, 0
115, 108050643, 5, 3326, 0, 0, 0, 415, 415, 416, 415, 0, 0, 10200, 0, -1, 1, -1666, 554, 14944, 595, 1, 0, 1, 0, 0
116, 108060561, 5, 3326, 0, 0, 0, 415, 415, 416, 415, 0, 0, 10200, 0, -1, 1, -1664, 564, 14940, 595, 1, 0, 1, 0, 0
117, 108070532, 5, 3326, 0, 0, 0, 415, 415, 416, 415, 0, 0, 10200, 0, -1, 1, -1676, 578, 14926, 595, 1, 0, 1, 0, 0
118, 108080527, 5, 3326, 0, 0, 0, 415, 415, 416, 415, 0, 0, 10200, -1, -1, 1, -1652, 570, 14962, 595, 1, 0, 1, 0, 0
119, 108090522, 5, 3326, 0, 0, 0, 415, 415, 416, 415, 0, 0, 10200, -1, -2, 1, -1642, 552, 14970, 595, 1, 0, 1, 0, 0
120, 108100492, 5, 3326, 0, 0, 0, 415, 415, 416, 415, 0, 0, 10200, -1, -2, 1, -1660, 548, 14962, 595, 1, 0, 1, 0, 0
121, 108110474, 5, 3326, 0, 0, 0, 415, 415, 416, 415, 0, 0, 10200, -2, -2, 1, -1658, 558, 14952, 595, 1, 0, 1, 0, 0
122, 108120465, 5, 3326, 0, 0, 0, 415, 415, 416, 415, 0, 0, 10200, -2, -2, 1, -1668, 546, 14972, 595, 1, 0, 1, 0, 0
123, 108130445, 5, 3326, 0, 0, 0, 415, 415, 416, 415, 0, 0, 10201, -1, -2, 1, -1662, 558, 14932, 595, 1, 0, 1, 0, 0
124, 108140427, 5, 3326, 0, 0, 0, 415, 415, 416, 415, 0, 0, 10201, -1, -3, 1, -1652, 540, 14944, 595, 1, 0, 1, 0, 0
125, 108150396, 5, 3326, 0, 0, 0, 415, 415, 416, 415, 0, 0, 10201, -1, -1, 2, -1660, 562, 14948, 595, 1, 0, 1, 0, 0
126, 108160391, 5, 3326, 0, 0, 0, 415, 415, 416, 415, 0, 0, 10201, -1, -1, 1, -1646, 558, 14962, 595, 1, 0, 1, 0, 0
127, 108170364, 5, 3326, 0, 0, 0, 415, 415, 416, 415, 0, 0, 10201, 0, -2, 1, -1654, 576, 14936, 595, 1, 0, 1, 0, 0
128, 108180363, 5, 3326, 0, 0, 0, 415, 415, 416, 415, 0, 0, 10201, 0, -1, 1, -1668, 572, 14930, 595, 1, 0, 1, 0, 0
129, 108190337, 5, 3326, 0, 0, 0, 415, 415, 416, 415, 0, 0, 10201, 0, -2, 1, -1658, 562, 14948, 595, 1, 0, 1, 0, 0
130, 108200397, 5, 3326, 0, 0, 0, 415, 415, 416, 415, 0, 0, 10201, -1, -1, 1, -1670, 546, 14938, 595, 1, 0, 1, 0, 0
131, 108210302, 5, 3326, 0, 0, 0, 415, 415, 416, 415, 0, 0, 10201, -1, -3, 1, -1674, 564, 14966, 595, 1, 0, 1, 0, 0
132, 108220573, 5, 3326, 0, 0, 0, 415, 415, 416, 415, 0, 0, 10201, -1, -2, 1, -1676, 578, 14974, 595, 1, 0, 1, 0, 0
133, 108230280, 5, 3326, 0, 0, 0, 415, 415, 416, 415, 0, 0, 10201, -1, -2, 1, -1662, 588, 14960, 595, 1, 0, 1, 0, 0
134, 108240379, 5, 3326, 0, 0, 0, 415, 415, 416, 415, 0, 0, 10201, -1, -1, 1, -1656, 568, 14972, 595, 1, 0, 1, 0, 0
135, 108250241, 5, 3326, 0, 0, 0, 415, 415, 416, 415, 0, 0, 10201, -1, -2, 1, -1642, 566, 14970, 595, 1, 0, 1, 0, 0
136, 108260262, 5, 3326, 0, 0, 0, 415, 415, 416, 415, 0, 0, 10201, -1, -1, 1, -1638, 578, 14978, 595, 1, 0, 1, 0, 0
137, 108270204, 5, 3326, 0, 0, 0, 415, 415, 416, 415, 0, 0, 10201, -1, -1, 2, -1656, 602, 14988, 595, 1, 0, 1, 0, 0
138, 108280195, 5, 3326, 0, 0, 0, 415, 415, 416, 415, 0, 0, 10201, -1, -1, 1, -1642, 578, 14958, 595, 1, 0, 1, 0, 0
139, 108290171, 5, 3326, 0, 0, 0, 415, 415, 416, 415, 0, 0, 10201, -1, -1, 1, -1638, 568, 14964, 595, 1, 0, 1, 0, 0
140, 108300149, 5, 3326, 0, 0, 0, 415, 415, 416, 415, 0, 0, 10202, -1, -1, 1, -1656, 556, 14958, 595, 1, 0, 1, 0, 0
141, 108310127, 5, 3326, 0, 0, 0, 415, 415, 416, 415, 0, 0, 10202, -1, -1, 1, -1660, 556, 14964, 595, 1, 0, 1, 0, 0
142, 108320114, 5, 3326, 0, 0, 0, 415, 415, 416, 415, 0, 0, 10202, 0, -1, 1, -1666, 556, 14958, 595, 1, 0, 1, 0, 0
143, 108330104, 5, 3326, 0, 0, 0, 415, 415, 416, 415, 0, 0, 10202, -1, -1, 1, -1660, 566, 14978, 595, 1, 0, 1, 0, 0
144, 108340088, 5, 3326, 0, 0, 0, 415, 415, 416, 415, 0, 0, 10202, -1, -1, 1, -1674, 566, 14966, 595, 1, 0, 1, 0, 0
145, 108350070, 5, 3326, 0, 0, 0, 415, 415, 416, 415, 0, 0, 10202, -1, -1, 1, -1670, 550, 14952, 595, 1, 0, 1, 0, 0
146, 108360061, 5, 3326, 0, 0, 0, 415, 415, 416, 415, 0, 0, 10202, -1, -2, 1, -1642, 546, 14954, 595, 1, 0, 1, 0, 0
147, 108370034, 5, 3326, 0, 0, 0, 415, 415, 416, 415, 0, 0, 10202, -1, -1, 1, -1658, 544, 14942, 595, 1, 0, 1, 0, 0
148, 108380012, 5, 3326, 0, 0, 0, 415, 415, 416, 415, 0, 0, 10202, -1, -2, 2, -1652, 548, 14928, 595, 1, 0, 1, 0, 0
149, 108390003, 5, 3326, 0, 0, 0, 415, 415, 416, 415, 0, 0, 10202, -1, -1, 2, -1664, 550, 14962, 595, 1, 0, 1, 0, 0
150, 108399982, 5, 3326, 0, 0, 0, 415, 415, 416, 415, 0, 0, 10202, -1, -1, 1, -1656, 552, 14972, 595, 1, 0, 1, 0, 0
151, 108410030, 5, 3326, 0, 0, 0, 415, 415, 416, 415, 0, 0, 10202, -1, -2, 1, -1662, 572, 14984, 595, 1, 0, 1, 0, 0
152, 108419932, 5, 3326, 0, 0, 0, 415, 415, 416, 415, 0, 0, 10202, -1, -2, 1, -1656, 558, 14976, 595, 1, 0, 1, 0, 0
153, 108430046, 5, 3326, 0, 0, 0, 415, 415, 416, 415, 0, 0, 10203, -1, -1, 1, -1654, 552, 14974, 595, 1, 0, 1, 0, 0
154, 108439905, 5, 3326, 0, 0, 0, 415, 415, 416, 415, 0, 0, 10203, -1, -1, 1, -1672, 554, 14948, 595, 1, 0, 1, 0, 0
155, 108450015, 5, 3326, 0, 0, 0, 415, 415, 416, 415, 0, 0, 10203, -1, -1, 1, -1658, 558, 14982, 595, 1, 0, 1, 0, 0
156, 108459872, 5, 3326, 0, 0, 0, 415, 415, 416, 415, 0, 0, 10203, -1, -2, 1, -1656, 550, 14968, 595, 1, 0, 1, 0, 0
157, 108469852, 5, 3326, 0, 0, 0, 415, 415, 416, 415, 0, 0, 10203, -1, -2, 1, -1644, 554, 14944, 595, 1, 0, 1, 0, 0
158, 108479848, 5, 3326, 0, 0, 0, 415, 415, 416, 415, 0, 0, 10203, -1, -2, 1, -1644, 560, 14922, 595, 1, 0, 1, 0, 0
159, 108489823, 5, 3326, 0, 0, 0, 415, 415, 416, 415, 0, 0, 10203, -1, -2, 1, -1666, 564, 14910, 595, 1, 0, 1, 0, 0
160, 108499818, 5, 3326, 0, 0, 0, 415, 415, 416, 415, 0, 0, 10203, -2, -2, 1, -1670, 574, 14936, 595, 1, 0, 1, 0, 0
161, 108509795, 5, 3326, 0, 0, 0, 415, 415, 416, 415, 0, 0, 10203, -1, -2, 1, -1682, 562, 14958, 595, 1, 0, 1, 0, 0
162, 108519761, 5, 3326, 0, 0, 0, 415, 415, 416, 415, 0, 0, 10203, -1, -2, 1, -1684, 548, 14970, 595, 1, 0, 1, 0, 0
163, 108529753, 5, 3326, 0, 0, 0, 415, 415, 416, 415, 0, 0, 10203, -1, -1, 1, -1682, 554, 14956, 595, 1, 0, 1, 0, 0
164, 108539727, 5, 3326, 0, 0, 0, 415, 415, 416, 415, 0, 0, 10203, -1, -1, 1, -1650, 566, 14954, 595, 1, 0, 1, 0, 0
165, 108549713, 5, 3326, 0, 0, 0, 415, 415, 416, 415, 0, 0, 10203, -1, -1, 1, -1644, 568, 14958, 595, 1, 0, 1, 0, 0
166, 108559698, 5, 3326, 0, 0, 0, 415, 415, 416, 415, 0, 0, 10203, -1, -1, 1, -1650, 570, 14974, 595, 1, 0, 1, 0, 0
167, 108569670, 5, 3326, 0, 0, 0, 415, 415, 416, 415, 0, 0, 10203, -1, -1, 1, -1656, 572, 14960, 595, 1, 0, 1, 0, 0
168, 108579666, 5, 3326, 0, 0, 0, 415, 415, 416, 415, 0, 0, 10203, -1, -1, 1, -1658, 576, 14952, 595, 1, 0, 1, 0, 0
169, 108589644, 5, 3326, 0, 0, 0, 415, 415, 416, 415, 0, 0, 10203, -1, -1, 1, -1654, 566, 14958, 595, 1, 0, 1, 0, 0
170, 108599649, 5, 3326, 0, 0, 0, 415, 415, 416, 415, 0, 0, 10203, -1, -1, 1, -1684, 538, 14970, 595, 1, 0, 1, 0, 0
171, 108609615, 5, 3326, 0, 0, 0, 415, 415, 416, 415, 0, 0, 10204, -1, -2, 2, -1670, 550, 14978, 595, 1, 0, 1, 0, 0
172, 108619688, 5, 3326, 0, 0, 0, 415, 415, 416, 415, 0, 0, 10204, -1, -1, 2, -1684, 548, 14972, 595, 1, 0, 1, 0, 0
173, 108629566, 5, 3326, 0, 0, 0, 415, 415, 416, 415, 0, 0, 10204, -1, -2, 2, -1678, 548, 14988, 595, 1, 0, 1, 0, 0
174, 108639685, 5, 3326, 0, 0, 0, 415, 415, 416, 415, 0, 0, 10204, -1, -1, 1, -1652, 556, 14962, 595, 1, 0, 1, 0, 0
175, 108649542, 5, 3326, 0, 0, 0, 415, 415, 416, 415, 0, 0, 10204, -1, -2, 1, -1670, 534, 14936, 595, 1, 0, 1, 0, 0
176, 108659612, 5, 3326, 0, 0, 0, 415, 415, 416, 415, 0, 0, 10204, -1, -1, 1, -1676, 556, 14960, 595, 1, 0, 1, 0, 0
177, 108669507, 5, 3326, 0, 0, 0, 415, 415, 416, 415, 0, 0, 10204, -1, -1, 1, -1658, 556, 14942, 595, 1, 0, 1, 0, 0
178, 108679477, 5, 3326, 0, 0, 0, 415, 415, 416, 415, 0, 0, 10204, -1, -1, 1, -1656, 534, 14946, 595, 1, 0, 1, 0, 0
179, 108689447, 5, 3326, 0, 0, 0, 415, 415, 416, 415, 0, 0, 10204, 0, -1, 1, -1642, 540, 14940, 595, 1, 0, 1, 0, 0
180, 108699450, 5, 3326, 0, 0, 0, 415, 415, 416, 415, 0, 0, 10204, -1, -1, 1, -1658, 546, 14968, 595, 1, 0, 1, 0, 0
181, 108709438, 5, 3326, 0, 0, 0, 415, 415, 416, 415, 0, 0, 10205, 0, -1, 1, -1666, 576, 14980, 595, 1, 0, 1, 0, 0
182, 108719428, 5, 3326, 0, 0, 0, 415, 415, 416, 415, 0, 0, 10205, -1, -1, 1, -1660, 558, 14998, 595, 1, 0, 1, 0, 0
183, 108729407, 5, 3326, 0, 0, 0, 415, 415, 416, 415, 0, 0, 10205, -1, -1, 1, -1674, 552, 14968, 595, 1, 0, 1, 0, 0
184, 108739386, 5, 3326, 0, 0, 0, 415, 415, 416, 415, 0, 0, 10205, -1, -1, 2, -1672, 560, 14976, 595, 1, 0, 1, 0, 0
185, 108749368, 5, 3326, 0, 0, 0, 415, 415, 416, 415, 0, 0, 10205, -1, -1, 2, -1670, 570, 14982, 595, 1, 0, 1, 0, 0
186, 108759353, 5, 3326, 0, 0, 0, 415, 415, 416, 415, 0, 0, 10205, -1, -1, 1, -1664, 568, 14970, 595, 1, 0, 1, 0, 0
187, 108769334, 5, 3326, 0, 0, 0, 415, 415, 416, 415, 0, 0, 10205, -1, -1, 1, -1662, 562, 14948, 595, 1, 0, 1, 0, 0
188, 108779315, 5, 3326, 0, 0, 0, 415, 415, 416, 415, 0, 0, 10205, -1, -1, 1, -1668, 568, 14920, 595, 1, 0, 1, 0, 0
189, 108789309, 5, 3326, 0, 0, 0, 415, 415, 416, 415, 0, 0, 10205, -1, -2, 1, -1660, 576, 14932, 595, 1, 0, 1, 0, 0
190, 108799266, 5, 3326, 0, 0, 0, 415, 415, 416, 415, 0, 0, 10205, -1, -2, 0, -1662, 566, 14918, 595, 1, 0, 1, 0, 0
191, 108809286, 5, 3326, 0, 0, 0, 415, 415, 415, 415, 0, 0, 10205, -1, -1, 0, -1684, 578, 14950, 595, 1, 0, 1, 0, 0
192, 108819242, 5, 3326, 0, 0, 0, 415, 415, 415, 415, 0, 0, 10205, -1, -2, 1, -1654, 564, 14954, 595, 1, 0, 1, 0, 0
193, 108829496, 5, 3326, 0, 0, 0, 415, 415, 416, 415, 0, 0, 10205, -1, -1, 1, -1672, 570, 14952, 595, 1, 0, 1, 0, 0
194, 108839200, 5, 3326, 0, 0, 0, 415, 415, 416, 415, 0, 0, 10205, -1, -1, 1, -1678, 564, 14976, 595, 1, 0, 1, 0, 0
195, 108849315, 5, 3326, 0, 0, 0, 415, 415, 416, 415, 0, 0, 10205, -1, -1, 1, -1662, 558, 14950, 595, 1, 0, 1, 0, 0
196, 108859170, 5, 3326, 0, 0, 0, 415, 415, 416, 415, 0, 0, 10205, -1, -1, 1, -1652, 570, 14960, 595, 1, 0, 1, 0, 0
197, 108869179, 5, 3326, 0, 0, 0, 415, 415, 416, 415, 0, 0, 10205, -1, -1, 1, -1668, 562, 14984, 595, 1, 0, 1, 0, 0
198, 108879133, 5, 3326, 0, 0, 0, 415, 415, 416, 415, 0, 0, 10205, -1, -1, 1, -1668, 566, 14976, 595, 1, 0, 1, 0, 0
199, 108889108, 5, 3326, 0, 0, 0, 415, 415, 416, 415, 0, 0, 10206, -1, -1, 1, -1650, 554, 14966, 595, 1, 0, 1, 0, 0
200, 108899101, 5, 3326, 0, 0, 0, 415, 415, 416, 415, 0, 0, 10206, -1, -2, 1, -1666, 562, 14982, 595, 1, 0, 1, 0, 0
201, 108909095, 5, 3326, 0, 0, 0, 415, 415, 416, 415, 0, 0, 10206, -1, -2, 1, -1672, 558, 14990, 595, 1, 0, 1, 0, 0
202, 108919067, 5, 3326, 0, 0, 0, 415, 415, 416, 415, 0, 0, 10206, -1, -2, 1, -1664, 552, 14948, 595, 1, 0, 1, 0, 0
203, 108929043, 5, 3326, 0, 0, 0, 415, 415, 416, 415, 0, 0, 10206, -1, -1, 1, -1666, 542, 14938, 595, 1, 0, 1, 0, 0
204, 108939034, 5, 3326, 0, 0, 0, 415, 415, 416, 415, 0, 0, 10206, -1, -1, 1, -1652, 528, 14940, 595, 1, 0, 1, 0, 0
205, 108949011, 5, 3326, 0, 0, 0, 415, 415, 416, 415, 0, 0, 10206, -1, -1, 1, -1672, 528, 14944, 595, 1, 0, 1, 0, 0
206, 108959000, 5, 3326, 0, 0, 0, 415, 415, 416, 415, 0, 0, 10206, -1, -2, 1, -1684, 532, 14950, 595, 1, 0, 1, 0, 0
207, 108968968, 5, 3326, 0, 0, 0, 415, 415, 416, 415, 0, 0, 10206, -1, -1, 1, -1684, 548, 14962, 595, 1, 0, 1, 0, 0
208, 108978948, 5, 3326, 0, 0, 0, 415, 415, 416, 415, 0, 0, 10206, 0, -1, 1, -1668, 548, 14946, 595, 1, 0, 1, 0, 0
209, 108988933, 5, 3326, 0, 0, 0, 415, 415, 416, 415, 0, 0, 10206, 0, 0, 1, -1668, 564, 14932, 595, 1, 0, 1, 0, 0
210, 108998913, 5, 3326, 0, 0, 0, 415, 415, 415, 415, 0, 0, 10206, 0, -1, 1, -1664, 568, 14944, 595, 1, 0, 1, 0, 0
211, 109008906, 5, 3326, 0, 0, 0, 415, 415, 416, 415, 0, 0, 10206, -1, -1, 1, -16