index_log, time_stamp, mode, thrust, roll, pitch, yaw, ae[0], ae[1], ae[2], ae[3], phi, theta, psi, sp, sq, sr, sax, say, saz, bat_volt, P, P1, P2, temperature, pressure
0, 62654977, 4, 3263, 0, 0, 0, 407, 407, 407, 407, 0, -11, 5002, 0, -1, 0, -1692, 600, 14926, 595, 8, 0, 0, 0, 0
1, 62664891, 4, 3263, 0, 0, 0, 407, 407, 407, 407, 0, -11, 5002, 0, 0, 0, -1696, 588, 14872, 595, 8, 0, 0, 0, 0
2, 62674866, 4, 3263, 0, 0, 0, 407, 407, 407, 407, 0, -11, 5002, 1, 1, 0, -1696, 584, 14928, 595, 8, 0, 0, 0, 0
3, 62684853, 4, 3263, 0, 0, 0, 407, 407, 407, 407, 0, -11, 5002, 0, 0, 0, -1702, 578, 14942, 595, 8, 0, 0, 0, 0
4, 62694830, 4, 3263, 0, 0, 0, 407, 407, 407, 407, -1, -11, 5002, 1, 1, -1, -1690, 592, 14950, 595, 8, 0, 0, 0, 0
5, 62704896, 4, 3263, 0, 0, 0, 407, 407, 407, 407, -1, -11, 5002, 1, 1, -1, -1682, 590, 14964, 595, 8, 0, 0, 0, 0
6, 62714792, 4, 3263, 0, 0, 0, 407, 407, 407, 407, -1, -11, 5002, 1, 1, 0, -1688, 586, 14916, 595, 8, 0, 0, 0, 0
7, 62724784, 4, 3263, 0, 0, 0, 407, 407, 407, 407, 0, -11, 5002, 1, 1, 0, -1690, 584, 14904, 595, 8, 0, 0, 0, 0
8, 62734752, 4, 3263, 0, 0, 0, 407, 407, 407, 407, -1, -11, 5002, 0, 0, -1, -1712, 592, 14900, 595, 8, 0, 0, 0, 0
9, 62744741, 4, 3263, 0, 0, 0, 407, 407, 407, 407, -1, -11, 5002, 0, -1, 0, -1708, 600, 14928, 595, 8, 0, 0, 0, 0
10, 62754834, 4, 3263, 0, 0, 0, 407, 407, 407, 407, -1, -11, 5002, 0, -1, 0, -1698, 614, 14942, 595, 8, 0, 0, 0, 0
11, 62764701, 4, 3263, 0, 0, 0, 407, 407, 407, 407, 0, -11, 5002, 0, 0, 0, -1680, 622, 14918, 595, 8, 0, 0, 0, 0
12, 62774694, 4, 3263, 0, 0, 0, 407, 407, 407, 407, 0, -11, 5002, 0, 0, 0, -1670, 600, 14920, 595, 8, 0, 0, 0, 0
13, 62784692, 4, 3263, 0, 0, 0, 407, 407, 407, 407, 0, -11, 5002, 0, -1, 0, -1676, 588, 14948, 595, 8, 0, 0, 0, 0
14, 62794651, 4, 3263, 0, 0, 0, 407, 407, 407, 407, 0, -11, 5002, 0, 0, -1, -1670, 604, 14944, 595, 8, 0, 0, 0, 0
15, 62804735, 4, 3263, 0, 0, 0, 407, 407, 407, 407, 0, -11, 5002, 0, -1, 0, -1694, 594, 14910, 595, 8, 0, 0, 0, 0
16, 62814623, 4, 3263, 0, 0, 0, 407, 407, 407, 407, 0, -11, 5002, 0, -1, 0, -1718, 586, 14906, 595, 8, 0, 0, 0, 0
17, 62824602, 4, 3263, 0, 0, 0, 407, 407, 407, 407, 0, -11, 5002, 0, 0, 0, -1704, 592, 14880, 595, 8, 0, 0, 0, 0
18, 62834577, 4, 3263, 0, 0, 0, 407, 407, 407, 407, 0, -11, 5002, 0, -1, 0, -1704, 612, 14894, 595, 8, 0, 0, 0, 0
19, 62844572, 4, 3263, 0, 0, 0, 407, 407, 407, 407, 0, -11, 5002, 0, 0, 0, -1700, 604, 14926, 595, 8, 0, 0, 0, 0
20, 62854668, 4, 3263, 0, 0, 0, 407, 407, 407, 407, 0, -11, 5002, 0, 0, -1, -1700, 576, 14924, 595, 8, 0, 0, 0, 0
21, 62864542, 4, 3263, 0, 0, 0, 407, 407, 407, 407, 0, -11, 5002, 0, 0, 0, -1696, 588, 14918, 595, 8, 0, 0, 0, 0
22, 62874514, 4, 3263, 0, 0, 0, 407, 407, 407, 407, 0, -11, 5002, 1, 1, 0, -1686, 576, 14928, 595, 8, 0, 0, 0, 0
23, 62884514, 4, 3263, 0, 0, 0, 407, 407, 407, 407, 0, -11, 5002, 1, 1, -1, -1682, 574, 14922, 595, 8, 0, 0, 0, 0
24, 62894486, 4, 3263, 0, 0, 0, 407, 407, 407, 407, 0, -11, 5002, 0, 0, 0, -1694, 592, 14934, 595, 8, 0, 0, 0, 0
25, 62904734, 4, 3263, 0, 0, 0, 407, 407, 407, 407, 0, -11, 5002, 1, 1, 0, -1688, 608, 14926, 595, 8, 0, 0, 0, 0
26, 62914444, 4, 3263, 0, 0, 0, 407, 407, 407, 407, 0, -11, 5002, 1, 1, 0, -1708, 600, 14922, 595, 8, 0, 0, 0, 0
27, 62924430, 4, 3263, 0, 0, 0, 407, 407, 407, 407, 0, -11, 5002, 1, 1, 0, -1698, 592, 14912, 595, 8, 0, 0, 0, 0
28, 62934412, 4, 3263, 0, 0, 0, 407, 407, 407, 407, 0, -12, 5002, 0, 0, 0, -1686, 578, 14884, 595, 8, 0, 0, 0, 0
29, 62944381, 4, 3263, 0, 0, 0, 407, 407, 407, 407, 0, -12, 5002, 1, 1, 0, -1686, 584, 14902, 595, 8, 0, 0, 0, 0
30, 62954500, 4, 3263, 0, 0, 0, 407, 407, 407, 407, 0, -12, 5002, 0, -1, 0, -1692, 564, 14900, 595, 8, 0, 0, 0, 0
31, 62964370, 4, 3263, 0, 0, 0, 407, 407, 407, 407, 0, -12, 5002, 1, 1, 0, -1678, 570, 14884, 595, 8, 0, 0, 0, 0
32, 62974342, 4, 3263, 0, 0, 0, 407, 407, 407, 407, 0, -12, 5002, 0, 0, 0, -1688, 590, 14878, 595, 8, 0, 0, 0, 0
33, 62984321, 4, 3263, 0, 0, 0, 407, 407, 407, 407, 0, -12, 5002, 1, 1, 1, -1680, 592, 14888, 595, 8, 0, 0, 0, 0
34, 62994319, 4, 3263, 0, 0, 0, 408, 406, 408, 406, 0, -12, 5002, 1, 1, 0, -1678, 596, 14916, 595, 8, 0, 0, 0, 0
35, 63004442, 4, 3263, 0, 0, 0, 407, 407, 407, 407, 0, -12, 5002, 1, 1, 0, -1684, 590, 14908, 595, 8, 0, 0, 0, 0
36, 63014277, 4, 3263, 0, 0, 0, 407, 407, 407, 407, 0, -12, 5002, 1, 1, 0, -1688, 598, 14918, 595, 8, 0, 0, 0, 0
37, 63024249, 4, 3263, 0, 0, 0, 407, 407, 407, 407, 0, -12, 5002, 1, 1, 0, -1688, 600, 14948, 595, 8, 0, 0, 0, 0
38, 63034236, 4, 3263, 0, 0, 0, 407, 407, 407, 407, 0, -12, 5003, 1, 1, 1, -1682, 598, 14938, 595, 8, 0, 0, 0, 0
39, 63044240, 4, 3263, 0, 0, 0, 408, 406, 408, 406, 1, -12, 5003, 1, 1, 0, -1684, 576, 14910, 595, 8, 0, 0, 0, 0
40, 63054357, 4, 3263, 0, 0, 0, 407, 407, 407, 407, 1, -12, 5003, 1, 1, 0, -1680, 584, 14882, 595, 8, 0, 0, 0, 0
41, 63064185, 4, 3263, 0, 0, 0, 407, 407, 407, 407, 1, -12, 5003, 1, 1, 0, -1676, 590, 14884, 595, 8, 0, 0, 0, 0
42, 63074158, 4, 3263, 0, 0, 0, 407, 407, 407, 407, 1, -12, 5003, 1, 1, 0, -1692, 604, 14882, 595, 8, 0, 0, 0, 0
43, 63084154, 4, 3263, 0, 0, 0, 407, 407, 407, 407, 1, -12, 5003, 0, 0, 0, -1688, 594, 14878, 595, 8, 0, 0, 0, 0
44, 63094126, 4, 3263, 0, 0, 0, 407, 407, 407, 407, 1, -12, 5003, 0, 0, 0, -1710, 588, 14906, 595, 8, 0, 0, 0, 0
45, 63104273, 4, 3263, 0, 0, 0, 407, 407, 407, 407, 1, -12, 5003, 1, 1, 0, -1706, 588, 14910, 595, 8, 0, 0, 0, 0
46, 63114097, 4, 3263, 0, 0, 0, 407, 407, 407, 407, 1, -13, 5003, 1, 1, -1, -1716, 572, 14920, 595, 8, 0, 0, 0, 0
47, 63124082, 4, 3263, 0, 0, 0, 407, 407, 407, 407, 1, -13, 5003, 0, 0, 0, -1698, 570, 14902, 595, 8, 0, 0, 0, 0
48, 63134053, 4, 3263, 0, 0, 0, 407, 407, 407, 407, 1, -13, 5003, 0, 0, 0, -1708, 578, 14908, 595, 8, 0, 0, 0, 0
49, 63144033, 4, 3263, 0, 0, 0, 407, 407, 407, 407, 0, -13, 5003, 1, 1, 1, -1700, 578, 14918, 595, 8, 0, 0, 0, 0
50, 63154221, 4, 3263, 0, 0, 0, 408, 406, 408, 406, 0, -13, 5003, 1, 1, 0, -1688, 604, 14934, 595, 8, 0, 0, 0, 0
51, 63163994, 4, 3263, 0, 0, 0, 407, 407, 407, 407, 1, -13, 5003, 0, 0, 0, -1690, 598, 14932, 595, 8, 0, 0, 0, 0
52, 63173981, 4, 3263, 0, 0, 0, 407, 407, 407, 407, 1, -13, 5003, 1, 1, 0, -1672, 584, 14904, 595, 8, 0, 0, 0, 0
53, 63183957, 4, 3263, 0, 0, 0, 407, 407, 407, 407, 1, -13, 5003, 0, 0, 0, -1684, 586, 14946, 595, 8, 0, 0, 0, 0
54, 63193938, 4, 3263, 0, 0, 0, 407, 407, 407, 407, 1, -13, 5003, 0, 0, 0, -1670, 596, 14938, 595, 8, 0, 0, 0, 0
55, 63204089, 4, 3263, 0, 0, 0, 407, 407, 407, 407, 1, -13, 5003, 0, 0, 0, -1682, 610, 14946, 595, 8, 0, 0, 0, 0
56, 63213903, 4, 3263, 0, 0, 0, 407, 407, 407, 407, 1, -13, 5003, 0, 0, -1, -1698, 608, 14946, 595, 8, 0, 0, 0, 0
57, 63223885, 4, 3263, 0, 0, 0, 407, 407, 407, 407, 1, -13, 5003, 1, 0, 0, -1688, 594, 14964, 595, 8, 0, 0, 0, 0
58, 63233870, 4, 3263, 0, 0, 0, 407, 407, 407, 407, 1, -13, 5003, 0, 0, 0, -1694, 610, 14954, 595, 8, 0, 0, 0, 0
59, 63243855, 4, 3263, 0, 0, 0, 407, 407, 407, 407, 1, -12, 5003, 0, 0, 0, -1694, 622, 14942, 595, 8, 0, 0, 0, 0
60, 63254029, 4, 3263, 0, 0, 0, 407, 407, 407, 407, 1, -12, 5003, 1, 1, 0, -1676, 598, 14948, 595, 8, 0, 0, 0, 0
61, 63263814, 4, 3263, 0, 0, 0, 407, 407, 407, 407, 2, -12, 5003, 0, 0, 0, -1680, 604, 14948, 595, 8, 0, 0, 0, 0
62, 63273789, 4, 3263, 0, 0, 0, 407, 407, 407, 407, 2, -12, 5003, 0, 0, 0, -1690, 616, 14874, 595, 8, 0, 0, 0, 0
63, 63283785, 4, 3263, 0, 0, 0, 407, 407, 407, 407, 2, -12, 5003, 1, 1, 0, -1696, 620, 14882, 595, 8, 0, 0, 0, 0
64, 63293760, 4, 3263, 0, 0, 0, 407, 407, 407, 407, 2, -12, 5003, 1, 1, 0, -1688, 612, 14922, 595, 8, 0, 0, 0, 0
65, 63303930, 4, 3263, 0, 0, 0, 407, 407, 407, 407, 2, -12, 5003, 0, 0, 0, -1686, 586, 14930, 595, 8, 0, 0, 0, 0
66, 63313711, 4, 3263, 0, 0, 0, 407, 407, 407, 407, 2, -12, 5003, 1, 1, 0, -1676, 582, 14920, 595, 8, 0, 0, 0, 0
67, 63323709, 4, 3263, 0, 0, 0, 407, 407, 407, 407, 2, -12, 5003, 0, -1, 0, -1686, 596, 14922, 595, 8, 0, 0, 0, 0
68, 63333688, 4, 3263, 0, 0, 0, 407, 407, 407, 407, 2, -12, 5003, 0, -1, 0, -1690, 604, 14914, 595, 8, 0, 0, 0, 0
69, 63343685, 4, 3263, 0, 0, 0, 407, 407, 407, 407, 2, -12, 5003, 0, 0, 0, -1706, 592, 14922, 595, 8, 0, 0, 0, 0
70, 63353899, 4, 3263, 0, 0, 0, 407, 407, 407, 407, 2, -12, 5003, 0, 0, 0, -1708, 598, 14920, 595, 8, 0, 0, 0, 0
71, 63363649, 4, 3263, 0, 0, 0, 407, 407, 407, 407, 2, -12, 5003, 0, 0, 0, -1686, 592, 14898, 595, 8, 0, 0, 0, 0
72, 63373635, 4, 3263, 0, 0, 0, 407, 407, 407, 407, 2, -12, 5003, 0, -1, 0, -1698, 578, 14932, 595, 8, 0, 0, 0, 0
73, 63383596, 4, 3263, 0, 0, 0, 407, 407, 407, 407, 2, -12, 5003, 0, 0, 0, -1688, 574, 14912, 595, 8, 0, 0, 0, 0
74, 63393593, 4, 3263, 0, 0, 0, 407, 407, 407, 407, 2, -12, 5003, 0, 0, -1, -1668, 570, 14880, 595, 8, 0, 0, 0, 0
75, 63403796, 4, 3263, 0, 0, 0, 407, 407, 407, 407, 2, -12, 5003, 1, 1, -1, -1678, 572, 14890, 595, 8, 0, 0, 0, 0
76, 63413550, 4, 3263, 0, 0, 0, 407, 407, 407, 407, 2, -12, 5003, 0, -1, 0, -1674, 576, 14910, 595, 8, 0, 0, 0, 0
77, 63423523, 4, 3263, 0, 0, 0, 407, 407, 407, 407, 1, -12, 5003, 0, -1, 0, -1690, 594, 14898, 595, 8, 0, 0, 0, 0
78, 63433495, 4, 3263, 0, 0, 0, 407, 407, 407, 407, 1, -12, 5003, 0, -1, 0, -1686, 582, 14914, 595, 8, 0, 0, 0, 0
79, 63443486, 4, 3263, 0, 0, 0, 407, 407, 407, 407, 1, -12, 5003, 0, 0, 0, -1686, 584, 14906, 595, 8, 0, 0, 0, 0
80, 63453706, 4, 3263, 0, 0, 0, 407, 407, 407, 407, 1, -12, 5003, 0, 0, 0, -1678, 588, 14932, 595, 8, 0, 0, 0, 0
81, 63463453, 4, 3263, 0, 0, 0, 407, 407, 407, 407, 1, -12, 5003, 0, 0, 0, -1682, 602, 14914, 595, 8, 0, 0, 0, 0
82, 63473445, 4, 3263, 0, 0, 0, 407, 407, 407, 407, 1, -12, 5003, 1, 1, 0, -1682, 592, 14952, 595, 8, 0, 0, 0, 0
83, 63483418, 4, 3263, 0, 0, 0, 407, 407, 407, 407, 1, -12, 5003, 1, 1, 0, -1678, 578, 14956, 595, 8, 0, 0, 0, 0
84, 63493400, 4, 3263, 0, 0, 0, 407, 407, 407, 407, 1, -12, 5003, 1, 1, 0, -1690, 578, 14942, 595, 8, 0, 0, 0, 0
85, 63503667, 4, 3263, 0, 0, 0, 407, 407, 407, 407, 1, -12, 5003, 0, 0, 0, -1682, 584, 14892, 595, 8, 0, 0, 0, 0
86, 63513515, 4, 3263, 0, 0, 0, 407, 407, 407, 407, 1, -12, 5003, 1, 1, 0, -1692, 594, 14908, 595, 8, 0, 0, 0, 0
87, 63523338, 4, 3263, 0, 0, 0, 407, 407, 407, 407, 1, -12, 5003, 1, 1, 0, -1710, 598, 14910, 595, 8, 0, 0, 0, 0
88, 63533329, 4, 3263, 0, 0, 0, 407, 407, 407, 407, 1, -13, 5003, 0, 0, 0, -1698, 600, 14928, 595, 8, 0, 0, 0, 0
89, 63543308, 4, 3263, 0, 0, 0, 407, 407, 407, 407, 1, -13, 5003, 0, -1, 0, -1710, 588, 14908, 595, 8, 0, 0, 0, 0
90, 63553591, 4, 3263, 0, 0, 0, 407, 407, 407, 407, 1, -13, 5003, 0, 0, -1, -1704, 590, 14896, 595, 8, 0, 0, 0, 0
91, 63563280, 4, 3263, 0, 0, 0, 407, 407, 407, 407, 1, -13, 5003, 1, 1, -1, -1692, 588, 14920, 595, 8, 0, 0, 0, 0
92, 63573257, 4, 3263, 0, 0, 0, 407, 407, 407, 407, 1, -13, 5003, 1, 1, 0, -1688, 590, 14896, 595, 8, 0, 0, 0, 0
93, 63583228, 4, 3263, 0, 0, 0, 407, 407, 407, 407, 1, -13, 5003, 0, -1, 0, -1684, 598, 14896, 595, 8, 0, 0, 0, 0
94, 63593220, 4, 3263, 0, 0, 0, 407, 407, 407, 407, 1, -13, 5003, 0, -1, 0, -1678, 604, 14906, 595, 8, 0, 0, 0, 0
95, 63603470, 4, 3263, 0, 0, 0, 407, 407, 407, 407, 1, -13, 5003, 0, -1, -1, -1678, 614, 14902, 595, 8, 0, 0, 0, 0
96, 63613174, 4, 3263, 0, 0, 0, 407, 407, 407, 407, 1, -13, 5002, 0, -1, -1, -1676, 608, 14906, 595, 8, 0, 0, 0, 0
97, 63623159, 4, 3263, 0, 0, 0, 407, 407, 407, 407, 1, -12, 5002, 0, 0, -1, -1684, 612, 14880, 595, 8, 0, 0, 0, 0
98, 63633145, 4, 3263, 0, 0, 0, 407, 407, 407, 407, 1, -12, 5002, 0, 0, 0, -1684, 612, 14864, 595, 8, 0, 0, 0, 0
99, 63643134, 4, 3263, 0, 0, 0, 407, 407, 407, 407, 2, -12, 5002, 0, -1, 0, -1674, 594, 14894, 595, 8, 0, 0, 0, 0
100, 63653380, 4, 3263, 0, 0, 0, 407, 407, 407, 407, 2, -12, 5002, 0, 0, -1, -1668, 590, 14902, 595, 8, 0, 0, 0, 0
101, 63663080, 4, 3263, 0, 0, 0, 407, 407, 407, 407, 2, -12, 5002, 1, 1, 0, -1664, 578, 14928, 595, 8, 0, 0, 0, 0
102, 63673068, 4, 3263, 0, 0, 0, 407, 407, 407, 407, 2, -12, 5002, 1, 1, 0, -1654, 582, 14908, 595, 8, 0, 0, 0, 0
103, 63683050, 4, 3263, 0, 0, 0, 407, 407, 407, 407, 2, -12, 5002, 1, 1, 0, -1674, 566, 14906, 595, 8, 0, 0, 0, 0
104, 63693031, 4, 3263, 0, 0, 0, 407, 407, 407, 407, 2, -12, 5002, 1, 1, 0, -1668, 574, 14910, 595, 8, 0, 0, 0, 0
105, 63703344, 4, 3263, 0, 0, 0, 407, 407, 407, 407, 2, -12, 5002, 0, 0, 0, -1666, 566, 14886, 595, 8, 0, 0, 0, 0
106, 63713003, 4, 3263, 0, 0, 0, 407, 407, 407, 407, 2, -12, 5002, 1, 1, 0, -1670, 584, 14888, 595, 8, 0, 0, 0, 0
107, 63722975, 4, 3263, 0, 0, 0, 407, 407, 407, 407, 1, -12, 5002, 0, 0, 0, -1690, 580, 14880, 595, 8, 0, 0, 0, 0
108, 63732966, 4, 3263, 0, 0, 0, 407, 407, 407, 407, 1, -12, 5002, 0, 0, -1, -1700, 580, 14874, 595, 8, 0, 0, 0, 0
109, 63742929, 4, 3263, 0, 0, 0, 407, 407, 407, 407, 1, -12, 5002, 0, 0, 0, -1690, 578, 14904, 595, 8, 0, 0, 0, 0
110, 63753286, 4, 3263, 0, 0, 0, 407, 407, 407, 407, 1, -12, 5002, 1, 1, 0, -1690, 606, 14920, 595, 8, 0, 0, 0, 0
111, 63762899, 4, 3263, 0, 0, 0, 407, 407, 407, 407, 1, -12, 5002, 0, 0, 0, -1696, 588, 14908, 595, 8, 0, 0, 0, 0
112, 63772880, 4, 3263, 0, 0, 0, 407, 407, 407, 407, 1, -12, 5002, 1, 1, 0, -1672, 590, 14922, 595, 8, 0, 0, 0, 0
113, 63782873, 4, 3263, 0, 0, 0, 407, 407, 407, 407, 1, -12, 5002, 1, 1, 0, -1668, 600, 14932, 595, 8, 0, 0, 0, 0
114, 63792856, 4, 3263, 0, 0, 0, 407, 407, 407, 407, 2, -12, 5002, 1, 1, 0, -1678, 614, 14932, 595, 8, 0, 0, 0, 0
115, 63803232, 4, 3263, 0, 0, 0, 407, 407, 407, 407, 2, -12, 5002, 1, 1, 0, -1676, 594, 14940, 595, 8, 0, 0, 0, 0
116, 63812812, 4, 3263, 0, 0, 0, 407, 407, 407, 407, 2, -12, 5002, 1, 1, 0, -1672, 602, 14952, 595, 8, 0, 0, 0, 0
117, 63822802, 4, 3263, 0, 0, 0, 407, 407, 407, 407, 2, -12, 5002, 1, 1, 0, -1674, 610, 14908, 595, 8, 0, 0, 0, 0
118, 63832785, 4, 3263, 0, 0, 0, 407, 407, 407, 407, 2, -12, 5002, 0, 0, 0, -1696, 610, 14918, 595, 8, 0, 0, 0, 0
119, 63842774, 4, 3263, 0, 0, 0, 407, 407, 407, 407, 2, -12, 5002, 0, 0, 0, -1692, 602, 14916, 595, 8, 0, 0, 0, 0
120, 63853142, 4, 3263, 0, 0, 0, 407, 407, 407, 407, 2, -12, 5002, 2, 1, 0, -1684, 596, 14942, 595, 8, 0, 0, 0, 0
121, 63862731, 4, 3263, 0, 0, 0, 407, 407, 407, 407, 2, -12, 5002, 1, 1, 0, -1686, 578, 14902, 595, 8, 0, 0, 0, 0
122, 63872717, 4, 3263, 0, 0, 0, 407, 407, 407, 407, 2, -12, 5002, 2, 1, 0, -1690, 604, 14924, 595, 8, 0, 0, 0, 0
123, 63882690, 4, 3263, 0, 0, 0, 407, 407, 407, 407, 2, -12, 5002, 0, 0, 0, -1684, 608, 14932, 595, 8, 0, 0, 0, 0
124, 63892688, 4, 3263, 0, 0, 0, 407, 407, 407, 407, 2, -12, 5002, 1, 1, 0, -1680, 610, 14930, 595, 8, 0, 0, 0, 0
125, 63903072, 4, 3263, 0, 0, 0, 407, 407, 407, 407, 2, -12, 5002, 0, 0, 0, -1686, 602, 14884, 595, 8, 0, 0, 0, 0
126, 63912636, 4, 3263, 0, 0, 0, 407, 407, 407, 407, 2, -12, 5002, 0, -1, 0, -1670, 582, 14882, 595, 8, 0, 0, 0, 0
127, 63922621, 4, 3263, 0, 0, 0, 407, 407, 407, 407, 2, -12, 5002, 0, 0, 0, -1694, 574, 14890, 595, 8, 0, 0, 0, 0
128, 63932612, 4, 3263, 0, 0, 0, 407, 407, 407, 407, 2, -12, 5002, 0, 0, 0, -1682, 582, 14934, 595, 8, 0, 0, 0, 0
129, 63942578, 4, 3263, 0, 0, 0, 407, 407, 407, 407, 2, -12, 5002, 0, 0, 0, -1692, 588, 14898, 595, 8, 0, 0, 0, 0
130, 63953027, 4, 3263, 0, 0, 0, 407, 407, 407, 407, 2, -12, 5003, 1, 1, 0, -1684, 580, 14898, 595, 8, 0, 0, 0, 0
131, 63962557, 4, 3263, 0, 0, 0, 407, 407, 407, 407, 2, -12, 5003, 0, -1, 0, -1684, 564, 14934, 595, 8, 0, 0, 0, 0
132, 63972525, 4, 3263, 0, 0, 0, 407, 407, 407, 407, 2, -12, 5003, 0, -1, 0, -1702, 580, 14936, 595, 8, 0, 0, 0, 0
133, 63982510, 4, 3263, 0, 0, 0, 407, 407, 407, 407, 2, -12, 5003, 1, 1, 0, -1676, 576, 14938, 595, 8, 0, 0, 0, 0
134, 63992501, 4, 3263, 0, 0, 0, 407, 407, 407, 407, 2, -12, 5003, 1, 1, 0, -1682, 602, 14898, 595, 8, 0, 0, 0, 0
135, 64002987, 4, 3263, 0, 0, 0, 407, 407, 407, 407, 2, -12, 5003, 0, 0, 0, -1686, 602, 14874, 595, 8, 0, 0, 0, 0
136, 64012455, 4, 3263, 0, 0, 0, 407, 407, 407, 407, 2, -12, 5003, 0, -1, 0, -1712, 580, 14864, 595, 8, 0, 0, 0, 0
137, 64022441, 4, 3263, 0, 0, 0, 407, 407, 407, 407, 2, -12, 5003, 0, -1, 0, -1744, 588, 14944, 595, 8, 0, 0, 0, 0
138, 64032414, 4, 3263, 0, 0, 0, 407, 407, 407, 407, 2, -12, 5003, 1, 2, 0, -1672, 610, 14974, 595, 8, 0, 0, 0, 0
139, 64042408, 4, 3263, 0, 0, 0, 407, 407, 407, 407, 2, -12, 5003, 0, 0, 0, -1652, 628, 14868, 595, 8, 0, 0, 0, 0
140, 64053007, 4, 3263, 0, 0, 0, 407, 407, 407, 407, 2, -12, 5003, 0, 0, 0, -1692, 618, 14856, 595, 8, 0, 0, 0, 0
141, 64062356, 4, 3263, 0, 0, 0, 407, 407, 407, 407, 2, -12, 5003, 0, 0, 0, -1720, 592, 14926, 595, 8, 0, 0, 0, 0
142, 64072341, 4, 3263, 0, 0, 0, 407, 407, 407, 407, 2, -12, 5003, 1, 1, 0, -1680, 590, 14950, 595, 8, 0, 0, 0, 0
143, 64082333, 4, 3263, 0, 0, 0, 407, 407, 407, 407, 2, -12, 5003, 0, -1, 0, -1658, 598, 14950, 595, 8, 0, 0, 0, 0
144, 64092296, 4, 3263, 0, 0, 0, 407, 407, 407, 407, 2, -12, 5003, 0, -1, 0, -1674, 590, 14926, 595, 8, 0, 0, 0, 0
145, 64102298, 4, 3263, 0, 0, 0, 407, 407, 407, 407, 2, -12, 5003, 0, 0, 0, -1690, 604, 14904, 595, 8, 0, 0, 0, 0
146, 64112273, 4, 3263, 0, 0, 0, 407, 407, 407, 407, 2, -12, 5003, 1, 1, 0, -1694, 580, 14920, 595, 8, 0, 0, 0, 0
147, 64122421, 4, 3263, 0, 0, 0, 407, 407, 407, 407, 2, -12, 5003, 0, 0, 0, -1700, 592, 14934, 595, 8, 0, 0, 0, 0
148, 64132233, 4, 3263, 0, 0, 0, 407, 407, 407, 407, 2, -12, 5003, 0, -1, 0, -1686, 590, 14956, 595, 8, 0, 0, 0, 0
149, 64142214, 4, 3263, 0, 0, 0, 407, 407, 407, 407, 2, -12, 5003, 0, 0, 0, -1684, 596, 14926, 595, 8, 0, 0, 0, 0
150, 64152210, 4, 3263, 0, 0, 0, 407, 407, 407, 407, 2, -12, 5003, 1, 1, 0, -1654, 568, 14890, 595, 8, 0, 0, 0, 0
151, 64162184, 4, 3263, 0, 0, 0, 407, 407, 407, 407, 2, -12, 5003, 0, 0, 0, -1668, 584, 14858, 595, 8, 0, 0, 0, 0
152, 64172174, 4, 3263, 0, 0, 0, 407, 407, 407, 407, 2, -12, 5003, 0, -1, 0, -1706, 578, 14906, 595, 8, 0, 0, 0, 0
153, 64182146, 4, 3263, 0, 0, 0, 407, 407, 407, 407, 2, -12, 5003, 0, 0, 0, -1706, 570, 14972, 595, 8, 0, 0, 0, 0
154, 64192125, 4, 3263, 0, 0, 0, 407, 407, 407, 407, 2, -12, 5003, 1, 1, 0, -1662, 576, 14958, 595, 8, 0, 0, 0, 0
155, 64202116, 4, 3263, 0, 0, 0, 407, 407, 407, 407, 2, -12, 5003, 1, 1, 0, -1620, 584, 14910, 595, 8, 0, 0, 0, 0
156, 64212096, 4, 3263, 0, 0, 0, 407, 407, 407, 407, 2, -12, 5003, 1, 1, 0, -1654, 582, 14872, 595, 8, 0, 0, 0, 0
157, 64222078, 4, 3263, 0, 0, 0, 407, 407, 407, 407, 2, -12, 5003, 0, 0, 0, -1696, 584, 14890, 595, 8, 0, 0, 0, 0
158, 64232051, 4, 3263, 0, 0, 0, 407, 407, 407, 407, 2, -12, 5003, 0, -1, -1, -1700, 578, 14920, 595, 8, 0, 0, 0, 0
159, 64242045, 4, 3263, 0, 0, 0, 407, 407, 407, 407, 2, -12, 5003, 0, 0, 0, -1668, 588, 14930, 595, 8, 0, 0, 0, 0
160, 64252023, 4, 3263, 0, 0, 0, 407, 407, 407, 407, 2, -11, 5003, 1, 1, 0, -1652, 600, 14904, 595, 8, 0, 0, 0, 0
161, 64262003, 4, 3263, 0, 0, 0, 407, 407, 407, 407, 2, -11, 5003, 1, 1, 0, -1676, 602, 14888, 595, 8, 0, 0, 0, 0
162, 64271975, 4, 3263, 0, 0, 0, 407, 407, 407, 407, 2, -11, 5003, 1, 1, 0, -1706, 590, 14884, 595, 8, 0, 0, 0, 0
163, 64281963, 4, 3263, 0, 0, 0, 407, 407, 407, 407, 2, -11, 5003, 0, 0, 0, -1708, 576, 14914, 595, 8, 0, 0, 0, 0
164, 64291940, 4, 3263, 0, 0, 0, 407, 407, 407, 407, 2, -12, 5003, 0, 0, -1, -1688, 586, 14912, 595, 8, 0, 0, 0, 0
165, 64301912, 4, 3263, 0, 0, 0, 407, 407, 407, 407, 2, -12, 5003, 0, 0, -1, -1682, 602, 14896, 595, 8, 0, 0, 0, 0
166, 64311913, 4, 3263, 0, 0, 0, 407, 407, 407, 407, 2, -12, 5003, 0, -1, 0, -1668, 596, 14890, 595, 8, 0, 0, 0, 0
167, 64321886, 4, 3263, 0, 0, 0, 407, 407, 407, 407, 2, -11, 5003, 0, 0, 0, -1660, 578, 14896, 595, 8, 0, 0, 0, 0
168, 64331867, 4, 3263, 0, 0, 0, 407, 407, 407, 407, 1, -11, 5003, 0, 0, 0, -1672, 588, 14910, 595, 8, 0, 0, 0, 0
169, 64341861, 4, 3263, 0, 0, 0, 407, 407, 407, 407, 2, -12, 5003, 1, 2, -1, -1684, 600, 14916, 595, 8, 0, 0, 0, 0
170, 64351818, 4, 3263, 0, 0, 0, 407, 407, 407, 407, 2, -12, 5003, 1, 1, 0, -1706, 598, 14910, 595, 8, 0, 0, 0, 0
171, 64361800, 4, 3263, 0, 0, 0, 407, 407, 407, 407, 2, -12, 5003, 0, 0, 0, -1672, 612, 14920, 595, 8, 0, 0, 0, 0
172, 64371802, 4, 3263, 0, 0, 0, 407, 407, 407, 407, 2, -12, 5003, 0, 0, 0, -1664, 598, 14920, 595, 8, 0, 0, 0, 0
173, 64381763, 4, 3263, 0, 0, 0, 407, 407, 407, 407, 1, -12, 5003, 0, -1, 1, -1686, 598, 14930, 595, 8, 0, 0, 0, 0
174, 64391743, 4, 3263, 0, 0, 0, 408, 406, 408, 406, 1, -12, 5003, 0, -1, 0, -1704, 594, 14914, 595, 8, 0, 0, 0, 0
175, 64401737, 4, 3263, 0, 0, 0, 407, 407, 407, 407, 1, -12, 5003, 1, 1, 0, -1692, 562, 14916, 595, 8, 0, 0, 0, 0
176, 64411725, 4, 3263, 0, 0, 0, 407, 407, 407, 407, 1, -12, 5003, 1, 1, 0, -1686, 584, 14894, 595, 8, 0, 0, 0, 0
177, 64421716, 4, 3263, 0, 0, 0, 407, 407, 407, 407, 1, -12, 5003, 0, 0, 0, -1692, 588, 14884, 595, 8, 0, 0, 0, 0
178, 64431687, 4, 3263, 0, 0, 0, 407, 407, 407, 407, 1, -12, 5003, 0, 0, 0, -1692, 596, 14906, 595, 8, 0, 0, 0, 0
179, 64441662, 4, 3263, 0, 0, 0, 407, 407, 407, 407, 1, -12, 5003, 0, 0, 0, -1694, 588, 14926, 595, 8, 0, 0, 0, 0
180, 64451643, 4, 3263, 0, 0, 0, 407, 407, 407, 407, 1, -12, 5003, 1, 1, 0, -1688, 582, 14922, 595, 8, 0, 0, 0, 0
181, 64461626, 4, 3263, 0, 0, 0, 407, 407, 407, 407, 1, -12, 5003, 1, 1, 0, -1690, 564, 14914, 595, 8, 0, 0, 0, 0
182, 64471615, 4, 3263, 0, 0, 0, 407, 407, 407, 407, 1, -12, 5003, 0, 0, 0, -1688, 572, 14918, 595, 8, 0, 0, 0, 0
183, 64481584, 4, 3263, 0, 0, 0, 407, 407, 407, 407, 1, -12, 5003, 0, 0, -1, -1692, 574, 14926, 595, 8, 0, 0, 0, 0
184, 64491561, 4, 3263, 0, 0, 0, 407, 407, 407, 407, 1, -12, 5003, -1, 1, -3, -1698, 586, 14922, 595, 8, 0, 0, 0, 0
185, 64501545, 4, 3263, 0, 0, 0, 407, 407, 407, 407, 1, -12, 5002, -2, 0, -7, -1484, 506, 14860, 595, 8, 0, 0, 0, 0
186, 64511529, 4, 3263, 0, 0, 0, 407, 407, 407, 407, 0, -12, 4998, -5, 13, -49, -1420, 518, 15004, 595, 8, 0, 0, 0, 0
187, 64521498, 4, 3263, 0, 0, 0, 404, 410, 404, 410, 0, -14, 4991, -6, 32, -67, -1694, 636, 14880, 595, 8, 0, 0, 0, 0
188, 64531478, 4, 3263, 0, 0, 0, 403, 411, 403, 411, 0, -16, 4984, -4, 21, -53, -1768, 710, 14824, 595, 8, 0, 0, 0, 0
189, 64541475, 4, 3263, 0, 0, 0, 404, 410, 404, 410, 1, -17, 4980, 0, 1, -25, -1862, 686, 14842, 595, 8, 0, 0, 0, 0
190, 64551461, 4, 3263, 0, 0, 0, 406, 408, 406, 408, 2, -17, 4979, 1, -17, -4, -1798, 674, 14766, 595, 8, 0, 0, 0, 0
191, 64561435, 4, 3263, 0, 0, 0, 407, 407, 407, 407, 2, -14, 4981, 7, -24, 14, -1758, 536, 14956, 595, 8, 0, 0, 0, 0
192, 64571415, 4, 3263, 0, 0, 0, 408, 406, 408, 406, 3, -13, 4982, 5, -14, 8, -1664, 548, 14808, 595, 8, 0, 0, 0, 0
193, 64581409, 4, 3263, 0, 0, 0, 408, 406, 408, 406, 3, -12, 4983, 3, -7, 4, -1706, 568, 14932, 595, 8, 0, 0, 0, 0
194, 64591381, 4, 3263, 0, 0, 0, 408, 406, 408, 406, 3, -11, 4983, 1, -4, 2, -1698, 572, 14982, 595, 8, 0, 0, 0, 0
195, 64601362, 4, 3263, 0, 0, 0, 408, 406, 408, 406, 3, -11, 4983, 1, -2, 0, -1640, 556, 14916, 595, 8, 0, 0, 0, 0
196, 64611334, 4, 3263, 0, 0, 0, 407, 407, 407, 407, 3, -10, 4982, -1, 0, -13, -1634, 548, 14868, 595, 8, 0, 0, 0, 0
197, 64621328, 4, 3263, 0, 0, 0, 407, 407, 407, 407, 3, -10, 4981, -1, 0, -9, -1706, 592, 14954, 595, 8, 0, 0, 0, 0
198, 64631299, 4, 3263, 0, 0, 0, 407, 407, 407, 407, 2, -11, 4981, -6, 9, 1, -1644, 540, 15072, 595, 8, 0, 0, 0, 0
199, 64641280, 4, 3263, 0, 0, 0, 408, 406, 408, 406, 0, -15, 4982, -6, 46, 14, -1578, 486, 15084, 595, 8, 0, 0, 0, 0
200, 64651253, 4, 3263, 0, 0, 0, 408, 406, 408, 406, -1, -23, 4982, -9, 97, 3, -1482, 444, 15096, 595, 8, 0, 0, 0, 0
201, 64661239, 4, 3263, 0, 0, 0, 408, 406, 408, 406, -3, -37, 4981, -10, 145, -7, -1544, 486, 15060, 595, 8, 0, 0, 0, 0
202, 64671223, 4, 3263, 0, 0, 0, 407, 407, 407, 407, -4, -55, 4980, -6, 182, 0, -1650, 532, 15042, 595, 8, 0, 0, 0, 0
203, 64681196, 4, 3263, 0, 0, 0, 407, 407, 407, 407, -5, -78, 4982, -1, 208, 32, -1786, 578, 14966, 595, 8, 0, 0, 0, 0
204, 64691194, 4, 3263, 0, 0, 0, 409, 405, 409, 405, -6, -103, 4987, 3, 228, 65, -2058, 606, 15002, 595, 8, 0, 0, 0, 0
205, 64701190, 4, 3263, 0, 0, 0, 412, 402, 412, 402, -6, -132, 4995, 4, 256, 81, -2044, 550, 15038, 595, 8, 0, 0, 0, 0
206, 64711167, 4, 3263, 0, 0, 0, 413, 401, 413, 401, -7, -165, 5003, 3, 308, 86, -2076, 470, 15228, 595, 8, 0, 0, 0, 0
207, 64721136, 4, 3263, 0, 0, 0, 413, 401, 413, 401, -10, -207, 5011, -7, 386, 78, -2016, 422, 15220, 595, 8, 0, 0, 0, 0
208, 64731273, 4, 3263, 0, 0, 0, 412, 402, 412, 402, -12, -256, 5016, -8, 465, 59, -1956, 468, 15198, 595, 8, 0, 0, 0, 0
209, 64741111, 4, 3263, 0, 0, 0, 411, 403, 411, 403, -13, -314, 5019, 4, 547, 37, -1970, 556, 15116, 595, 8, 0, 0, 0, 0
210, 64751088, 4, 3263, 0, 0, 0, 410, 404, 410, 404, -12, -379, 5019, -4, 601, 26, -1984, 1234, 15142, 595, 8, 0, 0, 0, 0
211, 64761079, 4, 3263, 0, 0, 0, 409, 405, 409, 405, -13, -448, 5019, -40, 653, 31, -1994, 1090, 15466, 595, 8, 0, 0, 0, 0
212, 64771047, 4, 3263, 0, 0, 0, 409, 405, 409, 405, -14, -532, 5019, -24, 826, 21, -2148, 816, 15702, 595, 8, 0, 0, 0, 0
213, 64781035, 4, 3263, 0, 0, 0, 409, 405, 409, 405, -11, -643, 5014, 29, 1073, -6, -2620, 760, 15504, 595, 8, 0, 0, 0, 0
214, 64791013, 4, 3263, 0, 0, 0, 407, 407, 407, 407, -3, -775, 5005, 47, 1222, -52, -3358, 740, 14856, 595, 8, 0, 0, 0, 0
215, 64800999, 4, 3263, 0, 0, 0, 404, 410, 404, 410, 2, -914, 4987, 0, 1202, -124, -4074, 612, 14700, 595, 8, 0, 0, 0, 0
216, 64810984, 4, 3263, 0, 0, 0, 400, 414, 400, 414, 2, -1033, 4963, -60, 953, -190, -4710, 638, 14932, 595, 8, 0, 0, 0, 0
217, 64820960, 4, 3263, 0, 0, 0, 396, 418, 396, 418, 0, -1112, 4933, -75, 555, -249, -4906, 528, 15214, 595, 8, 0, 0, 0, 0
218, 64830954, 4, 3263, 0, 0, 0, 392, 422, 392, 422, 2, -1154, 4898, -27, 258, -318, -4778, 576, 15102, 595, 8, 0, 0, 0, 0
219, 64840939, 4, 3263, 0, 0, 0, 388, 426, 388, 426, 13, -1173, 4855, 13, 104, -387, -4618, 742, 14652, 595, 8, 0, 0, 0, 0
220, 64850928, 4, 3263, 0, 0, 0, 383, 431, 383, 431, 24, -1179, 4806, -6, -23, -433, -4486, 802, 14388, 595, 8, 0, 0, 0, 0
221, 64860888, 4, 3263, 0, 0, 0, 380, 434, 380, 434, 29, -1161, 4756, -89, -251, -450, -4254, 980, 14632, 595, 8, 0, 0, 0, 0
222, 64870885, 4, 3263, 0, 0, 0, 379, 435, 379, 435, 25, -1112, 4707, -167, -524, -450, -3778, 1056, 15358, 595, 8, 0, 0, 0, 0
223, 64880862, 4, 3263, 0, 0, 0, 379, 435, 379, 435, 18, -1038, 4659, -172, -687, -434, -3192, 1034, 16140, 595, 8, 0, 0, 0, 0
224, 64890854, 4, 3263, 0, 0, 0, 380, 434, 380, 434, 15, -955, 4615, -99, -721, -407, -2640, 802, 16538, 595, 8, 0, 0, 0, 0
225, 64900827, 4, 3263, 0, 0, 0, 382, 432, 382, 432, 21, -871, 4577, 12, -687, -351, -2178, 610, 16400, 595, 8, 0, 0, 0, 0
226, 64910812, 4, 3263, 0, 0, 0, 386, 428, 386, 428, 35, -793, 4548, 107, -631, -266, -1852, 538, 15960, 595, 8, 0, 0, 0, 0
227, 64920790, 4, 3263, 0, 0, 0, 391, 423, 391, 423, 55, -724, 4529, 163, -541, -168, -1842, 566, 15476, 595, 8, 0, 0, 0, 0
228, 64930783, 4, 3263, 0, 0, 0, 397, 417, 397, 417, 75, -666, 4520, 167, -455, -81, -2090, 666, 15184, 595, 8, 0, 0, 0, 0
229, 64940761, 4, 3263, 0, 0, 0, 402, 412, 402, 412, 91, -618, 4518, 131, -396, -19, -2406, 856, 15234, 595, 8, 0, 0, 0, 0
230, 64950733, 4, 3263, 0, 0, 0, 406, 408, 406, 408, 102, -579, 4521, 89, -330, 17, -2664, 1154, 15606, 595, 8, 0, 0, 0, 0
231, 64960720, 4, 3263, 0, 0, 0, 409, 405, 409, 405, 112, -552, 4524, 76, -213, 5, -2896, 1186, 16124, 595, 8, 0, 0, 0, 0
232, 64970687, 4, 3263, 0, 0, 0, 408, 406, 408, 406, 126, -540, 4521, 108, -90, -48, -3042, 1090, 16498, 595, 8, 0, 0, 0, 0
233, 64980683, 4, 3263, 0, 0, 0, 404, 410, 404, 410, 145, -536, 4510, 171, -31, -114, -2950, 982, 16578, 595, 8, 0, 0, 0, 0
234, 64990661, 4, 3263, 0, 0, 0, 400, 414, 400, 414, 174, -534, 4492, 247, -13, -164, -2740, 860, 16366, 595, 8, 0, 0, 0, 0
235, 65000647, 4, 3263, 0, 0, 0, 397, 417, 397, 417, 209, -531, 4472, 307, -16, -190, -2492, 798, 16006, 595, 8, 0, 0, 0, 0
236, 65010620, 4, 3263, 0, 0, 0, 396, 418, 396, 418, 249, -527, 4451, 341, -22, -190, -2234, 774, 15630, 595, 8, 0, 0, 0, 0
237, 65020586, 4, 3263, 0, 0, 0, 396, 418, 396, 418, 290, -522, 4432, 347, -16, -165, -2120, 798, 15212, 595, 8, 0, 0, 0, 0
238, 65030586, 4, 3263, 0, 0, 0, 397, 417, 397, 417, 329, -517, 4417, 337, -13, -121, -2042, 840, 14938, 595, 8, 0, 0, 0, 0
239, 65040574, 4, 3263, 0, 0, 0, 400, 414, 400, 414, 366, -516, 4408, 337, 15, -64, -2002, 822, 14802, 595, 8, 0, 0, 0, 0
240, 65050541, 4, 3263, 0, 0, 0, 403, 411, 403, 411, 403, -518, 4406, 343, 40, 1, -2166, 1008, 14698, 595, 8, 0, 0, 0, 0
241, 65060515, 4, 3263, 0, 0, 0, 408, 406, 408, 406, 439, -519, 4412, 326, 10, 61, -2426, 1224, 14668, 595, 8, 0, 0, 0, 0
242, 65070494, 4, 3263, 0, 0, 0, 411, 403, 411, 403, 472, -519, 4421, 306, -28, 90, -2782, 1394, 14732, 595, 8, 0, 0, 0, 0
243, 65080478, 4, 3263, 0, 0, 0, 413, 401, 413, 401, 505, -515, 4431, 304, -63, 75, -3024, 1486, 14704, 595, 8, 0, 0, 0, 0
244, 65090468, 4, 3263, 0, 0, 0, 412, 402, 412, 402, 540, -510, 4436, 319, -86, 24, -3166, 1406, 14508, 595, 8, 0, 0, 0, 0
245, 65100459, 4, 3263, 0, 0, 0, 409, 405, 409, 405, 577, -502, 4434, 326, -120, -51, -3236, 1358, 14100, 595, 8, 0, 0, 0, 0
246, 65110445, 4, 3263, 0, 0, 0, 404, 410, 404, 410, 613, -486, 4422, 297, -192, -147, -3190, 1378, 13676, 595, 8, 0, 0, 0, 0
247, 65120402, 4, 3263, 0, 0, 0, 398, 416, 398, 416, 644, -460, 4399, 224, -279, -257, -3058, 1434, 13402, 595, 8, 0, 0, 0, 0
248, 65130384, 4, 3263, 0, 0, 0, 391, 423, 391, 423, 666, -421, 4366, 124, -372, -355, -2736, 1454, 13370, 595, 8, 0, 0, 0, 0
249, 65140365, 4, 3263, 0, 0, 0, 385, 429, 385, 429, 679, -373, 4325, 38, -426, -423, -2280, 1410, 13520, 595, 8, 0, 0, 0, 0
250, 65150201, 4, 3263, 0, 0, 0, 381, 433, 381, 433, 685, -322, 4281, -9, -426, -448, -1856, 1370, 13672, 595, 8, 0, 0, 0, 0
251, 65160172, 4, 3263, 0, 0, 0, 379, 435, 379, 435, 688, -273, 4236, -22, -374, -431, -1538, 1370, 13838, 595, 8, 0, 0, 0, 0
252, 65170149, 4, 3263, 0, 0, 0, 381, 433, 381, 433, 691, -231, 4195, -17, -305, -393, -1470, 1370, 14012, 595, 8, 0, 0, 0, 0
253, 65180135, 4, 3263, 0, 0, 0, 383, 431, 383, 431, 695, -195, 4157, -4, -247, -367, -1520, 1328, 14164, 595, 8, 0, 0, 0, 0
254, 65190123, 4, 3263, 0, 0, 0, 385, 429, 385, 429, 701, -168, 4120, 27, -177, -347, -1550, 1242, 14156, 595, 8, 0, 0, 0, 0
255, 65200110, 4, 3263, 0, 0, 0, 386, 428, 386, 428, 710, -148, 4086, 59, -130, -320, -1654, 1286, 13916, 595, 8, 0, 0, 0, 0
256, 65210103, 4, 3263, 0, 0, 0, 387, 427, 387, 427, 719, -129, 4054, 59, -133, -289, -1770, 1266, 13670, 595, 8, 0, 0, 0, 0
257, 65220084, 4, 3263, 0, 0, 0, 389, 425, 389, 425, 727, -112, 4026, 40, -131, -270, -1860, 1128, 13476, 595, 8, 0, 0, 0, 0
258, 65230050, 4, 3263, 0, 0, 0, 391, 423, 391, 423, 730, -94, 3999, 7, -148, -260, -2068, 1186, 13250, 595, 8, 0, 0, 0, 0
259, 65240017, 4, 3263, 0, 0, 0, 391, 423, 391, 423, 728, -71, 3971, -52, -224, -277, -2272, 1282, 13084, 595, 8, 0, 0, 0, 0
260, 65250025, 4, 3263, 0, 0, 0, 390, 424, 390, 424, 719, -41, 3940, -127, -278, -327, -2286, 1342, 13094, 595, 8, 0, 0, 0, 0
261, 65259989, 4, 3263, 0, 0, 0, 387, 427, 387, 427, 703, -7, 3902, -200, -314, -385, -2236, 1436, 13292, 595, 8, 0, 0, 0, 0
262, 65269978, 4, 3263, 0, 0, 0, 383, 431, 383, 431, 680, 33, 3859, -265, -357, -436, -2006, 1426, 13682, 595, 8, 0, 0, 0, 0
263, 65279960, 4, 3263, 0, 0, 0, 380, 434, 380, 434, 652, 77, 3812, -302, -370, -468, -1694, 1396, 14198, 595, 8, 0, 0, 0, 0
264, 65289948, 4, 3263, 0, 0, 0, 378, 436, 378, 436, 623, 122, 3764, -304, -359, -467, -1450, 1400, 14716, 595, 8, 0, 0, 0, 0
265, 65299928, 4, 3263, 0, 0, 0, 378, 436, 378, 436, 596, 164, 3718, -266, -320, -443, -1182, 1388, 15184, 595, 8, 0, 0, 0, 0
266, 65309909, 4, 3263, 0, 0, 0, 380, 434, 380, 434, 576, 198, 3674, -185, -237, -404, -908, 1298, 15398, 595, 8, 0, 0, 0, 0
267, 65319884, 4, 3263, 0, 0, 0, 382, 432, 382, 432, 567, 223, 3636, -88, -139, -351, -576, 1190, 15344, 595, 8, 0, 0, 0, 0
268, 65329873, 4, 3263, 0, 0, 0, 386, 428, 386, 428, 565, 238, 3603, -9, -50, -282, -254, 1056, 15072, 595, 8, 0, 0, 0, 0
269, 65340020, 4, 3263, 0, 0, 0, 390, 424, 390, 424, 568, 248, 3580, 27, -10, -192, -162, 964, 14722, 595, 8, 0, 0, 0, 0
270, 65349854, 4, 3263, 0, 0, 0, 395, 419, 395, 419, 570, 256, 3567, 18, -14, -97, -180, 1002, 14502, 595, 8, 0, 0, 0, 0
271, 65359831, 4, 3263, 0, 0, 0, 401, 413, 401, 413, 568, 261, 3563, -6, 7, -18, -310, 1004, 14378, 595, 8, 0, 0, 0, 0
272, 65369787, 4, 3263, 0, 0, 0, 406, 408, 406, 408, 563, 261, 3566, -40, 39, 42, -630, 1196, 14382, 595, 8, 0, 0, 0, 0
273, 65379762, 4, 3263, 0, 0, 0, 410, 404, 410, 404, 553, 259, 3574, -90, 31, 89, -908, 1456, 14610, 595, 8, 0, 0, 0, 0
274, 65389749, 4, 3263, 0, 0, 0, 413, 401, 413, 401, 539, 257, 3586, -124, 21, 121, -1104, 1664, 15062, 595, 8, 0, 0, 0, 0
275, 65399741, 4, 3263, 0, 0, 0, 415, 399, 415, 399, 526, 255, 3601, -119, 18, 144, -1160, 1744, 15578, 595, 8, 0, 0, 0, 0
276, 65409716, 4, 3263, 0, 0, 0, 416, 398, 416, 398, 516, 253, 3619, -72, 12, 166, -1052, 1684, 15952, 595, 8, 0, 0, 0, 0
277, 65419695, 4, 3263, 0, 0, 0, 418, 396, 418, 396, 514, 251, 3640, 6, 13, 202, -914, 1676, 16094, 595, 8, 0, 0, 0, 0
278, 65429687, 4, 3263, 0, 0, 0, 420, 394, 420, 394, 520, 250, 3667, 93, 18, 254, -770, 1616, 16018, 595, 8, 0, 0, 0, 0
279, 65439669, 4, 3263, 0, 0, 0, 423, 391, 423, 391, 536, 246, 3699, 180, 50, 310, -822, 1514, 15618, 595, 8, 0, 0, 0, 0
280, 65449661, 4, 3263, 0, 0, 0, 427, 387, 427, 387, 558, 238, 3737, 236, 58, 359, -1096, 1464, 15044, 595, 8, 0, 0, 0, 0
281, 65459627, 4, 3263, 0, 0, 0, 430, 384, 430, 384, 581, 230, 3778, 237, 41, 379, -1398, 1572, 14472, 595, 8, 0, 0, 0, 0
282, 65469614, 4, 3263, 0, 0, 0, 431, 383, 431, 383, 600, 222, 3818, 184, 25, 354, -1746, 1648, 14168, 595, 8, 0, 0, 0, 0
283, 65479590, 4, 3263, 0, 0, 0, 430, 384, 430, 384, 613, 214, 3853, 108, 9, 301, -2044, 1844, 14234, 595, 8, 0, 0, 0, 0
284, 65489569, 4, 3263, 0, 0, 0, 426, 388, 426, 388, 618, 210, 3881, 29, -33, 230, -2184, 1990, 14626, 595, 8, 0, 0, 0, 0
285, 65499555, 4, 3263, 0, 0, 0, 422, 392, 422, 392, 619, 211, 3900, -7, -70, 150, -2092, 1928, 15118, 595, 8, 0, 0, 0, 0
286, 65509534, 4, 3263, 0, 0, 0, 417, 397, 417, 397, 620, 217, 3912, 12, -104, 81, -2062, 1932, 15460, 595, 8, 0, 0, 0, 0
287, 65519518, 4, 3263, 0, 0, 0, 413, 401, 413, 401, 626, 232, 3918, 53, -179, 31, -1984, 1924, 15562, 595, 8, 0, 0, 0, 0
288, 65529508, 4, 3263, 0, 0, 0, 409, 405, 409, 405, 638, 253, 3920, 102, -224, -11, -1786, 1832, 15544, 595, 8, 0, 0, 0, 0
289, 65539480, 4, 3263, 0, 0, 0, 407, 407, 407, 407, 654, 276, 3919, 140, -223, -44, -1548, 1870, 15398, 595, 8, 0, 0, 0, 0
290, 65549457, 4, 3263, 0, 0, 0, 405, 409, 405, 409, 673, 300, 3915, 170, -207, -55, -1304, 1644, 15176, 595, 8, 0, 0, 0, 0
291, 65559447, 4, 3263, 0, 0, 0, 404, 410, 404, 410, 694, 321, 3911, 194, -181, -51, -948, 1390, 14902, 595, 8, 0, 0, 0, 0
292, 65569429, 4, 3263, 0, 0, 0, 404, 410, 404, 410, 716, 342, 3910, 205, -173, -26, -574, 1194, 14640, 595, 8, 0, 0, 0, 0
293, 65579405, 4, 3263, 0, 0, 0, 406, 408, 406, 408, 736, 366, 3913, 197, -185, 21, -178, 1032, 14442, 595, 8, 0, 0, 0, 0
294, 65589388, 4, 3263, 0, 0, 0, 409, 405, 409, 405, 752, 392, 3925, 175, -209, 105, 166, 1026, 14270, 595, 8, 0, 0, 0, 0
295, 65599372, 4, 3263, 0, 0, 0, 414, 400, 414, 400, 765, 422, 3949, 140, -253, 222, 440, 1018, 14128, 595, 8, 0, 0, 0, 0
296, 65609360, 4, 3263, 0, 0, 0, 421, 393, 421, 393, 772, 455, 3990, 111, -273, 372, 768, 970, 14108, 595, 8, 0, 0, 0, 0
297, 65619343, 4, 3263, 0, 0, 0, 431, 383, 431, 383, 777, 485, 4050, 112, -240, 572, 1328, 636, 14188, 595, 8, 0, 0, 0, 0
298, 65629318, 4, 3263, 0, 0, 0, 443, 371, 443, 371, 781, 508, 4140, 150, -178, 865, 2138, 248, 14322, 595, 8, 0, 0, 0, 0
299, 65639309, 4, 3263, 0, 0, 0, 462, 352, 462, 352, 786, 527, 4271, 186, -159, 1272, 2898, 66, 14536, 595, 8, 0, 0, 0, 0
300, 65649433, 4, 3263, 0, 0, 0, 487, 327, 487, 327, 789, 544, 4456, 203, -184, 1782, 3472, -62, 14922, 595, 8, 0, 0, 0, 0
301, 65659411, 4, 3263, 0, 0, 0, 519, 295, 519, 295, 790, 558, 4701, 212, -176, 2319, 3754, 36, 15264, 595, 8, 0, 0, 0, 0
302, 65669391, 4, 3263, 0, 0, 0, 552, 262, 552, 262, 789, 557, 4998, 238, -62, 2778, 3678, -222, 15466, 595, 8, 0, 0, 0, 0
303, 65679363, 4, 3263, 0, 0, 0, 581, 233, 581, 233, 789, 532, 5333, 266, 111, 3104, 3290, -206, 15294, 595, 8, 0, 0, 0, 0
304, 65689346, 4, 3263, 0, 0, 0, 601, 213, 601, 213, 786, 494, 5691, 254, 149, 3281, 2506, -544, 14936, 595, 8, 0, 0, 0, 0
305, 65699337, 4, 3263, 0, 0, 0, 613, 201, 613, 201, 773, 461, 6057, 187, 11, 3320, 1884, -808, 14552, 595, 8, 0, 0, 0, 0
306, 65709309, 4, 3263, 0, 0, 0, 615, 200, 615, 200, 748, 448, 6425, 81, -186, 3287, 1484, -934, 14308, 595, 8, 0, 0, 0, 0
307, 65719290, 4, 3263, 0, 0, 0, 613, 201, 613, 201, 709, 461, 6790, -47, -434, 3245, 1300, -1676, 14080, 595, 8, 0, 0, 0, 0
308, 65729258, 4, 3263, 0, 0, 0, 610, 204, 610, 204, 651, 508, 7162, -194, -769, 3297, 978, -2248, 13558, 595, 8, 0, 0, 0, 0
309, 65739251, 4, 3263, 0, 0, 0, 614, 200, 614, 200, 575, 592, 7553, -373, -1109, 3467, 156, -1962, 12862, 595, 8, 0, 0, 0, 0
310, 65749222, 4, 3263, 0, 0, 0, 624, 200, 624, 200, 479, 698, 7969, -610, -1289, 3682, -1016, -1064, 12348, 595, 8, 0, 0, 0, 0
311, 65759195, 4, 3263, 0, 0, 0, 638, 200, 638, 200, 364, 795, 8397, -869, -1171, 3778, -2216, -180, 12490, 595, 8, 0, 0, 0, 0
312, 65769202, 4, 3263, 0, 0, 0, 644, 200, 644, 200, 232, 856, 8814, -1065, -777, 3649, -2810, 92, 13086, 595, 8, 0, 0, 0, 0
313, 65779192, 4, 3263, 0, 0, 0, 636, 200, 636, 200, 89, 871, 9202, -1180, -322, 3406, -2790, 248, 13890, 595, 8, 0, 0, 0, 0
314, 65789167, 4, 3263, 0, 0, 0, 620, 200, 620, 200, -58, 849, 9562, -1215, 53, 3187, -2410, 82, 14770, 595, 8, 0, 0, 0, 0
315, 65799165, 4, 3263, 0, 0, 0, 607, 207, 607, 207, -202, 793, 9901, -1148, 450, 3029, -2090, 106, 15658, 595, 8, 0, 0, 0, 0
316, 65809132, 4, 3263, 0, 0, 0, 597, 217, 597, 217, -330, 694, 10227, -993, 883, 2907, -2594, 302, 16254, 595, 8, 0, 0, 0, 0
317, 65819115, 4, 3263, 0, 0, 0, 589, 225, 589, 225, -439, 560, 10537, -807, 1157, 2751, -3956, 336, 16578, 595, 8, 0, 0, 0, 0
318, 65829097, 4, 3263, 0, 0, 0, 579, 235, 579, 235, -532, 414, 10825, -642, 1184, 2511, -5366, 314, 16604, 595, 8, 0, 0, 0, 0
319, 65839084, 4, 3263, 0, 0, 0, 564, 250, 564, 250, -611, 280, 11083, -525, 1004, 2230, -5760, 238, 16230, 595, 8, 0, 0, 0, 0
320, 65849052, 4, 3263, 0, 0, 0, 547, 267, 547, 267, -681, 171, 11311, -460, 783, 1961, -5314, 346, 15806, 595, 8, 0, 0, 0, 0
321, 65859045, 4, 3263, 0, 0, 0, 530, 284, 530, 284, -747, 83, 11512, -434, 675, 1729, -4628, 156, 15636, 595, 8, 0, 0, 0, 0
322, 65869029, 4, 3263, 0, 0, 0, 516, 298, 516, 298, -810, 0, 11692, -422, 694, 1546, -3992, 100, 15744, 595, 8, 0, 0, 0, 0
323, 65878991, 4, 3263, 0, 0, 0, 504, 310, 504, 310, -871, -89, 11857, -396, 801, 1416, -3798, 210, 15980, 595, 8, 0, 0, 0, 0
324, 65888966, 4, 3263, 0, 0, 0, 496, 318, 496, 318, -924, -188, 12008, -333, 889, 1285, -4136, 298, 16130, 595, 8, 0, 0, 0, 0
325, 65898968, 4, 3263, 0, 0, 0, 488, 326, 488, 326, -966, -289, 12140, -235, 863, 1083, -4578, 294, 16248, 595, 8, 0, 0, 0, 0
326, 65908944, 4, 3263, 0, 0, 0, 475, 339, 475, 339, -992, -383, 12244, -119, 760, 830, -4856, 304, 16300, 595, 8, 0, 0, 0, 0
327, 65918919, 4, 3263, 0, 0, 0, 459, 355, 459, 355, -1002, -463, 12320, -10, 615, 579, -4970, 342, 16282, 595, 8, 0, 0, 0, 0
328, 65928872, 4, 3263, 0, 0, 0, 444, 370, 444, 370, -996, -528, 12367, 92, 473, 349, -4802, 208, 16276, 595, 8, 0, 0, 0, 0
329, 65938837, 4, 3263, 0, 0, 0, 429, 385, 429, 385, -977, -577, 12392, 191, 340, 164, -4028, -306, 15870, 595, 8, 0, 0, 0, 0
330, 65948982, 4, 3263, 0, 0, 0, 418, 396, 418, 396, -949, -608, 12403, 264, 200, 72, -2816, -564, 15028, 595, 8, 0, 0, 0, 0
331, 65958808, 4, 3263, 0, 0, 0, 412, 402, 412, 402, -920, -623, 12412, 272, 130, 83, -1870, -662, 14254, 595, 8, 0, 0, 0, 0
332, 65968782, 4, 3263, 0, 0, 0, 413, 401, 413, 401, -896, -633, 12429, 219, 128, 170, -1406, -632, 13788, 595, 8, 0, 0, 0, 0
333, 65978770, 4, 3263, 0, 0, 0, 418, 396, 418, 396, -884, -644, 12460, 136, 169, 298, -1394, -584, 13740, 595, 8, 0, 0, 0, 0
334, 65988750, 4, 3263, 0, 0, 0, 426, 388, 426, 388, -884, -662, 12506, 55, 235, 441, -1852, -334, 13980, 595, 8, 0, 0, 0, 0
335, 65998715, 4, 3263, 0, 0, 0, 435, 379, 435, 379, -891, -689, 12567, 1, 309, 550, -2740, -102, 14424, 595, 8, 0, 0, 0, 0
336, 66008709, 4, 3263, 0, 0, 0, 442, 372, 442, 372, -901, -729, 12634, -9, 390, 581, -3888, 216, 14906, 595, 8, 0, 0, 0, 0
337, 66018679, 4, 3263, 0, 0, 0, 444, 370, 444, 370, -908, -781, 12697, 9, 447, 528, -5178, 646, 15280, 595, 8, 0, 0, 0, 0
338, 66028668, 4, 3263, 0, 0, 0, 440, 374, 440, 374, -906, -841, 12745, 48, 454, 376, -6322, 1016, 15468, 595, 8, 0, 0, 0, 0
339, 66038666, 4, 3263, 0, 0, 0, 431, 383, 431, 383, -892, -908, 12769, 103, 454, 143, -7374, 1462, 15558, 595, 8, 0, 0, 0, 0
340, 66048637, 4, 3263, 0, 0, 0, 416, 398, 416, 398, -863, -978, 12759, 165, 447, -184, -7974, 1940, 15576, 595, 8, 0, 0, 0, 0
341, 66058633, 4, 3263, 0, 0, 0, 396, 418, 396, 418, -810, -1061, 12699, 277, 566, -641, -8058, 2234, 15678, 595, 8, 0, 0, 0, 0
342, 66068618, 4, 3263, 0, 0, 0, 367, 447, 367, 447, -730, -1162, 12580, 401, 686, -1183, -8352, 2228, 15822, 595, 8, 0, 0, 0, 0
343, 66078608, 4, 3263, 0, 0, 0, 334, 480, 334, 480, -623, -1255, 12396, 506, 553, -1743, -8484, 1428, 16122, 595, 8, 0, 0, 0, 0
344, 66088642, 4, 3263, 0, 0, 0, 299, 515, 299, 515, -493, -1317, 12153, 630, 247, -2233, -8286, 798, 15864, 595, 8, 0, 0, 0, 0
345, 66098615, 4, 3263, 0, 0, 0, 268, 546, 268, 546, -345, -1332, 11865, 724, -148, -2594, -7420, -356, 15006, 595, 8, 0, 0, 0, 0
346, 66108602, 4, 3263, 0, 0, 0, 245, 569, 245, 569, -190, -1292, 11552, 766, -570, -2787, -5360, -1230, 13520, 595, 8, 0, 0, 0, 0
347, 66118572, 4, 3263, 0, 0, 0, 233, 581, 233, 581, -45, -1200, 11237, 703, -892, -2788, -3294, -1240, 12006, 595, 8, 0, 0, 0, 0
348, 66128565, 4, 3263, 0, 0, 0, 233, 581, 233, 581, 77, -1084, 10939, 524, -933, -2625, -2032, -774, 11146, 595, 8, 0, 0, 0, 0
349, 66138537, 4, 3263, 0, 0, 0, 243, 571, 243, 571, 166, -983, 10667, 265, -682, -2389, -1522, -48, 11396, 595, 8, 0, 0, 0, 0
350, 66148520, 4, 3263, 0, 0, 0, 258, 556, 258, 556, 219, -913, 10421, -18, -411, -2143, -1750, 666, 12760, 595, 8, 0, 0, 0, 0
351, 66158480, 4, 3263, 0, 0, 0, 274, 540, 274, 540, 242, -863, 10199, -220, -260, -1937, -2200, 1076, 14788, 595, 8, 0, 0, 0, 0
352, 66168467, 4, 3263, 0, 0, 0, 286, 528, 286, 528, 255, -824, 9993, -243, -193, -1812, -2842, 1124, 16616, 595, 8, 0, 0, 0, 0
353, 66178458, 4, 3263, 0, 0, 0, 294, 520, 294, 520, 276, -785, 9790, -103, -252, -1820, -3390, 756, 17650, 595, 8, 0, 0, 0, 0
354, 66188426, 4, 3263, 0, 0, 0, 294, 520, 294, 520, 322, -733, 9578, 144, -377, -1951, -3706, 482, 17658, 595, 8, 0, 0, 0, 0
355, 66198407, 4, 3263, 0, 0, 0, 286, 528, 286, 528, 396, -664, 9346, 389, -525, -2161, -3882, 360, 16914, 595, 8, 0, 0, 0, 0
356, 66208427, 4, 3263, 0, 0, 0, 272, 542, 272, 542, 492, -578, 9088, 547, -656, -2411, -3924, 398, 15650, 595, 8, 0, 0, 0, 0
357, 66218361, 4, 3263, 0, 0, 0, 257, 557, 257, 557, 596, -470, 8807, 560, -858, -2647, -3976, 276, 14360, 595, 8, 0, 0, 0, 0
358, 66228352, 4, 3263, 0, 0, 0, 242, 572, 242, 572, 690, -331, 8510, 467, -1110, -2808, -3262, -82, 13312, 595, 8, 0, 0, 0, 0
359, 66238318, 4, 3263, 0, 0, 0, 232, 582, 232, 582, 763, -162, 8207, 317, -1306, -2877, -2010, -94, 12712, 595, 8, 0, 0, 0, 0
360, 66248301, 4, 3263, 0, 0, 0, 228, 586, 228, 586, 814, 23, 7906, 157, -1343, -2854, -626, 52, 12624, 595, 8, 0, 0, 0, 0
361, 66258287, 4, 3263, 0, 0, 0, 229, 585, 229, 585, 842, 204, 7618, 16, -1237, -2725, 110, 490, 12930, 595, 8, 0, 0, 0, 0
362, 66268271, 4, 3263, 0, 0, 0, 237, 577, 237, 577, 852, 375, 7348, -99, -1159, -2538, 382, 1040, 13654, 595, 8, 0, 0, 0, 0
363, 66278252, 4, 3263, 0, 0, 0, 249, 565, 249, 565, 851, 533, 7096, -141, -1055, -2372, 170, 1054, 14494, 595, 8, 0, 0, 0, 0
364, 66288216, 4, 3263, 0, 0, 0, 259, 555, 259, 555, 848, 677, 6853, -91, -968, -2311, -54, 566, 15002, 595, 8, 0, 0, 0, 0
365, 66298210, 4, 3263, 0, 0, 0, 263, 551, 263, 551, 849, 815, 6609, 14, -925, -2341, 472, 82, 15064, 595, 8, 0, 0, 0, 0
366, 66308199, 4, 3263, 0, 0, 0, 261, 553, 261, 553, 857, 952, 6362, 101, -907, -2351, 1124, 324, 14734, 595, 8, 0, 0, 0, 0
367, 66318185, 4, 3263, 0, 0, 0, 261, 553, 261, 553, 867, 1093, 6121, 120, -939, -2277, 1514, 630, 14426, 595, 8, 0, 0, 0, 0
368, 66328172, 4, 3263, 0, 0, 0, 265, 549, 265, 549, 875, 1230, 5894, 111, -906, -2132, 1030, 1110, 14246, 595, 8, 0, 0, 0, 0
369, 66338135, 4, 3263, 0, 0, 0, 274, 540, 274, 540, 881, 1356, 5679, 96, -832, -2042, -136, 1704, 14160, 595, 8, 0, 0, 0, 0
370, 66348128, 4, 3263, 0, 0, 0, 280, 534, 280, 534, 885, 1462, 5463, 80, -715, -2070, -1462, 2104, 14198, 595, 8, 0, 0, 0, 0
371, 66358101, 4, 3263, 0, 0, 0, 278, 536, 278, 536, 887, 1554, 5232, 55, -639, -2222, -2350, 2272, 14304, 595, 8, 0, 0, 0, 0
372, 66368088, 4, 3263, 0, 0, 0, 269, 545, 269, 545, 883, 1640, 4975, 42, -593, -2468, -2078, 1652, 14424, 595, 8, 0, 0, 0, 0
373, 66378069, 4, 3263, 0, 0, 0, 253, 561, 253, 561, 873, 1725, 4693, 57, -534, -2665, -440, 1012, 14372, 595, 8, 0, 0, 0, 0
374, 66388056, 4, 3263, 0, 0, 0, 241, 573, 241, 573, 859, 1812, 4400, 67, -470, -2706, 1994, 630, 14222, 595, 8, 0, 0, 0, 0
375, 66397877, 4, 3263, 0, 0, 0, 238, 576, 238, 576, 842, 1895, 4117, 60, -324, -2550, 4070, 298, 14294, 595, 8, 0, 0, 0, 0
376, 66407846, 4, 3263, 0, 0, 0, 248, 566, 248, 566, 822, 1964, 3862, 51, -146, -2241, 5342, 192, 14436, 595, 8, 0, 0, 0, 0
377, 66417823, 4, 3263, 0, 0, 0, 267, 547, 267, 547, 804, 2010, 3645, 50, 47, -1852, 5614, 410, 14514, 595, 8, 0, 0, 0, 0
378, 66427821, 4, 3263, 0, 0, 0, 292, 522, 292, 522, 788, 2033, 3470, 39, 203, -1464, 5000, 828, 14624, 595, 8, 0, 0, 0, 0
379, 66437796, 4, 3263, 0, 0, 0, 316, 498, 316, 498, 775, 2034, 3331, 16, 310, -1154, 4152, 1212, 14978, 595, 8, 0, 0, 0, 0
380, 66447767, 4, 3263, 0, 0, 0, 335, 479, 335, 479, 764, 2020, 3217, 0, 364, -935, 3384, 1444, 15592, 595, 8, 0, 0, 0, 0
381, 66457752, 4, 3263, 0, 0, 0, 349, 465, 349, 465, 756, 2001, 3121, 25, 343, -797, 2902, 1124, 16096, 595, 8, 0, 0, 0, 0
382, 66467724, 4, 3263, 0, 0, 0, 358, 456, 358, 456, 755, 1984, 3037, 102, 282, -698, 2788, 800, 16058, 595, 8, 0, 0, 0, 0
383, 66477716, 4, 3263, 0, 0, 0, 364, 450, 364, 450, 762, 1976, 2964, 176, 191, -607, 2902, 628, 15552, 595, 8, 0, 0, 0, 0
384, 66487688, 4, 3263, 0, 0, 0, 370, 444, 370, 444, 774, 1977, 2903, 201, 102, -506, 3178, 582, 14916, 595, 8, 0, 0, 0, 0
385, 66497682, 4, 3263, 0, 0, 0, 376, 438, 376, 438, 785, 1986, 2856, 174, 51, -378, 3344, 640, 14424, 595, 8, 0, 0, 0, 0
386, 66507642, 4, 3263, 0, 0, 0, 384, 430, 384, 430, 792, 1995, 2826, 113, 36, -226, 3184, 940, 14224, 595, 8, 0, 0, 0, 0
387, 66517633, 4, 3263, 0, 0, 0, 393, 421, 393, 421, 795, 2003, 2812, 41, 35, -88, 2696, 1246, 14312, 595, 8, 0, 0, 0, 0
388, 66527619, 4, 3263, 0, 0, 0, 402, 412, 402, 412, 793, 2006, 2811, -14, 24, 18, 2058, 1546, 14614, 595, 8, 0, 0, 0, 0
389, 66537595, 4, 3263, 0, 0, 0, 409, 405, 409, 405, 789, 2008, 2818, -36, -5, 72, 1614, 1622, 15030, 595, 8, 0, 0, 0, 0
390, 66547593, 4, 3263, 0, 0, 0, 412, 402, 412, 402, 787, 2011, 2827, -11, -18, 80, 1424, 1516, 15274, 595, 8, 0, 0, 0, 0
391, 66557730, 4, 3263, 0, 0, 0, 412, 402, 412, 402, 789, 2015, 2836, 36, -46, 76, 1578, 1410, 15238, 595, 8, 0, 0, 0, 0
392, 66567559, 4, 3263, 0, 0, 0, 412, 402, 412, 402, 796, 2022, 2846, 85, -58, 96, 1886, 1340, 14890, 595, 8, 0, 0, 0, 0
393, 66577535, 4, 3263, 0, 0, 0, 413, 401, 413, 401, 807, 2028, 2860, 105, -24, 131, 1968, 1438, 14448, 595, 8, 0, 0, 0, 0
394, 66587512, 4, 3263, 0, 0, 0, 416, 398, 416, 398, 818, 2026, 2877, 93, 52, 162, 1736, 1324, 14068, 595, 8, 0, 0, 0, 0
395, 66597494, 4, 3263, 0, 0, 0, 418, 396, 418, 396, 825, 2016, 2894, 57, 97, 175, 1328, 1350, 13758, 595, 8, 0, 0, 0, 0
396, 66607469, 4, 3263, 0, 0, 0, 418, 396, 418, 396, 826, 2004, 2912, -9, 89, 161, 1060, 1616, 13722, 595, 8, 0, 0, 0, 0
397, 66617449, 4, 3263, 0, 0, 0, 418, 396, 418, 396, 821, 1990, 2925, -70, 109, 126, 846, 1844, 14012, 595, 8, 0, 0, 0, 0
398, 66627428, 4, 3263, 0, 0, 0, 415, 399, 415, 399, 812, 1974, 2934, -107, 128, 81, 750, 2008, 14476, 595, 8, 0, 0, 0, 0
399, 66637420, 4, 3263, 0, 0, 0, 413, 401, 413, 401, 800, 1958, 2938, -123, 110, 38, 788, 2028, 14926, 595, 8, 0, 0, 0, 0
400, 66647395, 4, 3263, 0, 0, 0, 410, 404, 410, 404, 788, 1947, 2938, -106, 87, 3, 1042, 1880, 15238, 595, 8, 0, 0, 0, 0
401, 66657380, 4, 3263, 0, 0, 0, 408, 406, 408, 406, 780, 1937, 2936, -69, 83, -10, 1364, 1738, 15358, 595, 8, 0, 0, 0, 0
402, 66667353, 4, 3263, 0, 0, 0, 407, 407, 407, 407, 774, 1930, 2935, -34, 75, 2, 1568, 1602, 15336, 595, 8, 0, 0, 0, 0
403, 66677337, 4, 3263, 0, 0, 0, 408, 406, 408, 406, 772, 1925, 2936, -10, 64, 26, 1644, 1512, 15196, 595, 8, 0, 0, 0, 0
404, 66687325, 4, 3263, 0, 0, 0, 409, 405, 409, 405, 771, 1920, 2941, 4, 53, 67, 1648, 1484, 14976, 595, 8, 0, 0, 0, 0
405, 66697320, 4, 3263, 0, 0, 0, 412, 402, 412, 402, 772, 1917, 2952, 7, 43, 117, 1570, 1458, 14734, 595, 8, 0, 0, 0, 0
406, 66707290, 4, 3263, 0, 0, 0, 415, 399, 415, 399, 772, 1912, 2968, -1, 46, 158, 1386, 1406, 14602, 595, 8, 0, 0, 0, 0
407, 66717276, 4, 3263, 0, 0, 0, 417, 397, 417, 397, 770, 1906, 2987, -26, 40, 182, 1042, 1564, 14520, 595, 8, 0, 0, 0, 0
408, 66727246, 4, 3263, 0, 0, 0, 419, 395, 419, 395, 765, 1899, 3006, -58, 40, 166, 676, 1760, 14526, 595, 8, 0, 0, 0, 0
409, 66737213, 4, 3263, 0, 0, 0, 418, 396, 418, 396, 758, 1889, 3019, -81, 66, 112, 412, 1842, 14660, 595, 8, 0, 0, 0, 0
410, 66747205, 4, 3263, 0, 0, 0, 414, 400, 414, 400, 748, 1878, 3025, -107, 64, 34, 450, 1954, 14920, 595, 8, 0, 0, 0, 0
411, 66757190, 4, 3263, 0, 0, 0, 410, 404, 410, 404, 735, 1872, 3022, -126, 25, -42, 712, 1854, 15296, 595, 8, 0, 0, 0, 0
412, 66767169, 4, 3263, 0, 0, 0, 405, 409, 405, 409, 723, 1872, 3013, -110, -17, -84, 978, 1642, 15382, 595, 8, 0, 0, 0, 0
413, 66777165, 4, 3263, 0, 0, 0, 402, 412, 402, 412, 712, 1878, 3004, -79, -56, -88, 1136, 1496, 15104, 595, 8, 0, 0, 0, 0
414, 66787141, 4, 3263, 0, 0, 0, 402, 412, 402, 412, 704, 1888, 2998, -62, -84, -56, 1162, 1480, 14660, 595, 8, 0, 0, 0, 0
415, 66797112, 4, 3263, 0, 0, 0, 404, 410, 404, 410, 695, 1898, 2996, -74, -85, -14, 986, 1596, 14358, 595, 8, 0, 0, 0, 0
416, 66807080, 4, 3263, 0, 0, 0, 407, 407, 407, 407, 686, 1904, 2997, -96, -42, 11, 706, 1650, 14290, 595, 8, 0, 0, 0, 0
417, 66817082, 4, 3263, 0, 0, 0, 408, 406, 408, 406, 674, 1901, 2998, -111, 24, 4, 458, 1720, 14416, 595, 8, 0, 0, 0, 0
418, 66827055, 4, 3263, 0, 0, 0, 408, 406, 408, 406, 662, 1892, 2995, -124, 65, -41, 350, 1754, 14688, 595, 8, 0, 0, 0, 0
419, 66837051, 4, 3263, 0, 0, 0, 405, 409, 405, 409, 648, 1882, 2984, -125, 64, -112, 394, 1546, 15048, 595, 8, 0, 0, 0, 0
420, 66847039, 4, 3263, 0, 0, 0, 400, 414, 400, 414, 633, 1878, 2965, -112, 14, -185, 590, 1400, 15178, 595, 8, 0, 0, 0, 0
421, 66857008, 4, 3263, 0, 0, 0, 396, 418, 396, 418, 620, 1882, 2940, -98, -52, -234, 924, 1460, 15088, 595, 8, 0, 0, 0, 0
422, 66866993, 4, 3263, 0, 0, 0, 393, 421, 393, 421, 606, 1895, 2914, -105, -110, -247, 1036, 1606, 14984, 595, 8, 0, 0, 0, 0
423, 66876982, 4, 3263, 0, 0, 0, 392, 422, 392, 422, 592, 1913, 2888, -119, -143, -255, 964, 1576, 14964, 595, 8, 0, 0, 0, 0
424, 66886946, 4, 3263, 0, 0, 0, 392, 422, 392, 422, 577, 1931, 2859, -126, -141, -284, 918, 1366, 14954, 595, 8, 0, 0, 0, 0
425, 66896926, 4, 3263, 0, 0, 0, 390, 424, 390, 424, 559, 1949, 2826, -132, -144, -315, 1016, 1222, 14932, 595, 8, 0, 0, 0, 0
426, 66906919, 4, 3263, 0, 0, 0, 388, 426, 388, 426, 541, 1968, 2792, -133, -150, -316, 1334, 1106, 14890, 595, 8, 0, 0, 0, 0
427, 66916892, 4, 3263, 0, 0, 0, 388, 426, 388, 426, 524, 1987, 2762, -115, -119, -272, 1632, 1044, 14820, 595, 8, 0, 0, 0, 0
428, 66926870, 4, 3263, 0, 0, 0, 390, 424, 390, 424, 508, 2002, 2737, -109, -91, -211, 1772, 1162, 14752, 595, 8, 0, 0, 0, 0
429, 66936868, 4, 3263, 0, 0, 0, 394, 420, 394, 420, 493, 2015, 2719, -124, -77, -163, 1854, 1192, 14934, 595, 8, 0, 0, 0, 0
430, 66946844, 4, 3263, 0, 0, 0, 397, 417, 397, 417, 477, 2027, 2704, -129, -66, -130, 1900, 1072, 15200, 595, 8, 0, 0, 0, 0
431, 66956814, 4, 3263, 0, 0, 0, 399, 415, 399, 415, 462, 2039, 2693, -109, -76, -97, 2012, 1044, 15368, 595, 8, 0, 0, 0, 0
432, 66966813, 4, 3263, 0, 0, 0, 401, 413, 401, 413, 451, 2052, 2686, -74, -84, -62, 2128, 1068, 15326, 595, 8, 0, 0, 0, 0
433, 66976792, 4, 3263, 0, 0, 0, 404, 410, 404, 410, 444, 2066, 2683, -42, -83, -18, 2142, 1072, 15202, 595, 8, 0, 0, 0, 0
434, 66986762, 4, 3263, 0, 0, 0, 406, 408, 406, 408, 441, 2078, 2686, -19, -76, 34, 2170, 1086, 15054, 595, 8, 0, 0, 0, 0
435, 66996755, 4, 3263, 0, 0, 0, 410, 404, 410, 404, 440, 2088, 2695, -10, -59, 93, 2102, 1190, 14946, 595, 8, 0, 0, 0, 0
436, 67006720, 4, 3263, 0, 0, 0, 413, 401, 413, 401, 440, 2096, 2711, -9, -45, 150, 1964, 1274, 14990, 595, 8, 0, 0, 0, 0
437, 67016709, 4, 3263, 0, 0, 0, 417, 397, 417, 397, 441, 2100, 2732, -1, -25, 198, 1842, 1290, 15150, 595, 8, 0, 0, 0, 0
438, 67026703, 4, 3263, 0, 0, 0, 420, 394, 420, 394, 446, 2102, 2759, 21, -18, 256, 1892, 1332, 15264, 595, 8, 0, 0, 0, 0
439, 67036683, 4, 3263, 0, 0, 0, 423, 391, 423, 391, 454, 2106, 2794, 51, -37, 334, 2172, 1376, 15310, 595, 8, 0, 0, 0, 0
440, 67046675, 4, 3263, 0, 0, 0, 428, 386, 428, 386, 466, 2112, 2839, 71, -64, 430, 2572, 1424, 15416, 595, 8, 0, 0, 0, 0
441, 67056650, 4, 3263, 0, 0, 0, 434, 380, 434, 380, 482, 2123, 2899, 95, -89, 569, 3252, 1450, 15578, 595, 8, 0, 0, 0, 0
442, 67066627, 4, 3263, 0, 0, 0, 443, 371, 443, 371, 504, 2135, 2981, 138, -77, 781, 4120, 1410, 15764, 595, 8, 0, 0, 0, 0
443, 67076615, 4, 3263, 0, 0, 0, 456, 358, 456, 358, 535, 2142, 3092, 210, -8, 1081, 4918, 1058, 15780, 595, 8, 0, 0, 0, 0
444, 67086596, 4, 3263, 0, 0, 0, 475, 339, 475, 339, 578, 2140, 3245, 305, 62, 1491, 5728, 344, 15386, 595, 8, 0, 0, 0, 0
445, 67096572, 4, 3263, 0, 0, 0, 501, 313, 501, 313, 632, 2132, 3451, 383, 91, 2004, 6624, -302, 14640, 595, 8, 0, 0, 0, 0
446, 67106556, 4, 3263, 0, 0, 0, 533, 281, 533, 281, 692, 2115, 3719, 401, 169, 2588, 7320, -820, 13936, 595, 8, 0, 0, 0, 0
447, 67116547, 4, 3263, 0, 0, 0, 569, 245, 569, 245, 752, 2076, 4053, 364, 331, 3203, 7508, -1128, 13552, 595, 8, 0, 0, 0, 0
448, 67126657, 4, 3263, 0, 0, 0, 608, 206, 608, 206, 808, 2006, 4451, 310, 529, 3813, 6928, -1526, 13424, 595, 8, 0, 0, 0, 0
449, 67136632, 4, 3263, 0, 0, 0, 646, 200, 646, 200, 857, 1907, 4907, 258, 672, 4332, 5852, -2178, 13448, 595, 8, 0, 0, 0, 0
450, 67146623, 4, 3263, 0, 0, 0, 678, 200, 678, 200, 894, 1785, 5409, 192, 750, 4735, 4650, -2620, 13478, 595, 8, 0, 0, 0, 0
451, 67156592, 4, 3263, 0, 0, 0, 703, 200, 703, 200, 915, 1651, 5942, 95, 737, 4992, 3634, -2900, 13564, 595, 8, 0, 0, 0, 0
452, 67166730, 4, 3263, 0, 0, 0, 719, 200, 719, 200, 915, 1517, 6494, -18, 666, 5135, 2988, -3146, 13598, 595, 8, 0, 0, 0, 0
453, 67176538, 4, 3263, 0, 0, 0, 728, 200, 728, 200, 896, 1389, 7058, -126, 583, 5213, 2332, -3386, 13322, 595, 8, 0, 0, 0, 0
454, 67186532, 4, 3263, 0, 0, 0, 733, 200, 733, 200, 856, 1269, 7629, -252, 524, 5255, 2122, -3082, 12954, 595, 8, 0, 0, 0, 0
455, 67196513, 4, 3263, 0, 0, 0, 736, 200, 736, 200, 803, 1147, 8204, -319, 559, 5288, 1146, -3026, 12468, 595, 8, 0, 0, 0, 0
456, 67206495, 4, 3263, 0, 0, 0, 738, 200, 738, 200, 730, 1019, 8782, -462, 610, 5306, -58, -2792, 11962, 595, 8, 0, 0, 0, 0
457, 67216504, 4, 3263, 0, 0, 0, 739, 200, 739, 200, 632, 879, 9358, -652, 739, 5271, -1452, -2122, 12452, 595, 8, 0, 0, 0, 0
458, 67226463, 4, 3263, 0, 0, 0, 737, 200, 737, 200, 511, 714, 9921, -803, 1020, 5134, -2532, -2038, 12962, 595, 8, 0, 0, 0, 0
459, 67236463, 4, 3263, 0, 0, 0, 728, 200, 728, 200, 374, 514, 10464, -847, 1398, 4945, -3944, -1644, 13418, 595, 8, 0, 0, 0, 0
460, 67246449, 4, 3263, 0, 0, 0, 717, 200, 717, 200, 230, 290, 10985, -839, 1555, 4721, -6022, -936, 13446, 595, 8, 0, 0, 0, 0
461, 67256416, 4, 3263, 0, 0, 0, 703, 200, 703, 200, 86, 71, 11471, -809, 1465, 4335, -7744, -148, 13408, 595, 8, 0, 0, 0, 0
462, 67266419, 4, 3263, 0, 0, 0, 678, 200, 678, 200, -53, -129, 11903, -778, 1305, 3761, -9118, 714, 13578, 595, 8, 0, 0, 0, 0
463, 67276391, 4, 3263, 0, 0, 0, 643, 200, 643, 200, -187, -298, 12264, -798, 1029, 3088, -9708, 1126, 14374, 595, 8, 0, 0, 0, 0
464, 67286326, 4, 3263, 0, 0, 0, 600, 214, 600, 214, -315, -429, 12554, -805, 759, 2444, -9460, 1316, 15560, 595, 8, 0, 0, 0, 0
465, 67296312, 4, 3263, 0, 0, 0, 560, 254, 560, 254, -428, -531, 12781, -738, 565, 1891, -9172, 1374, 16658, 595, 8, 0, 0, 0, 0
466, 67306302, 4, 3263, 0, 0, 0, 526, 288, 526, 288, -521, -607, 12952, -602, 370, 1413, -8930, 1220, 17248, 595, 8, 0, 0, 0, 0
467, 67316261, 4, 3263, 0, 0, 0, 496, 318, 496, 318, -587, -658, 13074, -423, 181, 983, -8498, 1032, 17290, 595, 8, 0, 0, 0, 0
468, 67326229, 4, 3263, 0, 0, 0, 469, 345, 469, 345, -628, -690, 13153, -250, 40, 625, -7938, 966, 16990, 595, 8, 0, 0, 0, 0
469, 67336210, 4, 3263, 0, 0, 0, 447, 367, 447, 367, -645, -713, 13199, -106, 19, 348, -7278, 1012, 16614, 595, 8, 0, 0, 0, 0
470, 67346197, 4, 3263, 0, 0, 0, 429, 385, 429, 385, -644, -743, 13218, 6, 138, 128, -6598, 1016, 16306, 595, 8, 0, 0, 0, 0
471, 67356182, 4, 3263, 0, 0, 0, 415, 399, 415, 399, -631, -788, 13218, 72, 293, -29, -5818, 864, 16096, 595, 8, 0, 0, 0, 0
472, 67366168, 4, 3263, 0, 0, 0, 406, 408, 406, 408, -614, -845, 13208, 97, 448, -96, -5084, 832, 15972, 595, 8, 0, 0, 0, 0
473, 67376171, 4, 3263, 0, 0, 0, 401, 413, 401, 413, -595, -915, 13197, 99, 578, -93, -4916, 1098, 15842, 595, 8, 0, 0, 0, 0
474, 67386124, 4, 3263, 0, 0, 0, 402, 412, 402, 412, -575, -990, 13186, 107, 588, -110, -5378, 1232, 15768, 595, 8, 0, 0, 0, 0
475, 67396111, 4, 3263, 0, 0, 0, 401, 413, 401, 413, -548, -1056, 13164, 141, 457, -221, -6058, 1552, 15712, 595, 8, 0, 0, 0, 0
476, 67406099, 4, 3263, 0, 0, 0, 394, 420, 394, 420, -509, -1103, 13118, 208, 253, -458, -6598, 1756, 15856, 595, 8, 0, 0, 0, 0
477, 67416081, 4, 3263, 0, 0, 0, 379, 435, 379, 435, -451, -1133, 13038, 309, 95, -764, -7158, 1924, 15916, 595, 8, 0, 0, 0, 0
478, 67426059, 4, 3263, 0, 0, 0, 360, 454, 360, 454, -373, -1156, 12920, 422, 44, -1100, -7836, 2316, 15864, 595, 8, 0, 0, 0, 0
479, 67436035, 4, 3263, 0, 0, 0, 339, 475, 339, 475, -272, -1183, 12760, 518, 73, -1478, -8422, 2312, 15684, 595, 8, 0, 0, 0, 0
480, 67446033, 4, 3263, 0, 0, 0, 315, 499, 315, 499, -151, -1209, 12550, 595, 50, -1951, -8586, 2138, 15412, 595, 8, 0, 0, 0, 0
481, 67456065, 4, 3263, 0, 0, 0, 286, 528, 286, 528, -14, -1209, 12280, 631, -224, -2485, -8876, 1512, 15276, 595, 8, 0, 0, 0, 0
482, 67466039, 4, 3263, 0, 0, 0, 252, 562, 252, 562, 135, -1157, 11954, 653, -699, -3015, -9202, 1176, 15096, 595, 8, 0, 0, 0, 0
483, 67476030, 4, 3263, 0, 0, 0, 219, 595, 219, 595, 292, -1039, 11575, 667, -1237, -3537, -9758, 1336, 14944, 595, 8, 0, 0, 0, 0
484, 67486012, 4, 3263, 0, 0, 0, 200, 628, 200, 628, 457, -866, 11140, 696, -1639, -4102, -10286, 1124, 14944, 595, 8, 0, 0, 0, 0
485, 67495974, 4, 3263, 0, 0, 0, 200, 663, 200, 663, 631, -661, 10644, 775, -1759, -4726, -10206, 518, 14856, 595, 8, 0, 0, 0, 0
486, 67505979, 4, 3263, 0, 0, 0, 200, 702, 200, 702, 812, -438, 10083, 886, -1796, -5375, -9746, -998, 14354, 595, 8, 0, 0, 0, 0
487, 67515931, 4, 3263, 0, 0, 0, 200, 742, 200, 742, 991, -179, 9464, 988, -1984, -5973, -8490, -2722, 13356, 595, 8, 0, 0, 0, 0
488, 67525893, 4, 3263, 0, 0, 0, 200, 780, 200, 780, 1159, 126, 8798, 1047, -2179, -6453, -6446, -3942, 11976, 595, 8, 0, 0, 0, 0
489, 67535859, 4, 3263, 0, 0, 0, 200, 810, 200, 810, 1303, 462, 8103, 991, -2220, -6751, -4244, -3518, 10570, 595, 8, 0, 0, 0, 0
490, 67545868, 4, 3263, 0, 0, 0, 200, 828, 200, 828, 1408, 811, 7394, 769, -2113, -6872, -2308, -2556, 9892, 595, 8, 0, 0, 0, 0
491, 67555839, 4, 3263, 0, 0, 0, 200, 836, 200, 836, 1460, 1152, 6681, 437, -1907, -6861, -890, -1348, 10274, 595, 8, 0, 0, 0, 0
492, 67565824, 4, 3263, 0, 0, 0, 200, 835, 200, 835, 1456, 1471, 5973, 111, -1649, -6760, 174, -968, 11408, 595, 8, 0, 0, 0, 0
493, 67575799, 4, 3263, 0, 0, 0, 200, 829, 200, 829, 1407, 1755, 5277, -66, -1337, -6553, 948, -1468, 12504, 595, 8, 0, 0, 0, 0
494, 67585765, 4, 3263, 0, 0, 0, 200, 816, 200, 816, 1332, 1997, 4599, -88, -1013, -6285, 2072, -2440, 13146, 595, 8, 0, 0, 0, 0
495, 67595604, 4, 3263, 0, 0, 0, 200, 799, 200, 799, 1245, 2195, 3943, -38, -653, -5984, 3706, -3084, 13294, 595, 8, 0, 0, 0, 0
496, 67605643, 4, 3263, 0, 0, 0, 200, 781, 200, 781, 1151, 2355, 3317, -30, -385, -5621, 5890, -2966, 13352, 595, 8, 0, 0, 0, 0
497, 67615592, 4, 3263, 0, 0, 0, 200, 758, 200, 758, 1051, 2491, 2738, -76, -211, -5107, 8142, -2630, 13642, 595, 8, 0, 0, 0, 0
