index_log, time_stamp, mode, thrust, roll, pitch, yaw, ae[0], ae[1], ae[2], ae[3], phi, theta, psi, sp, sq, sr, sax, say, saz, bat_volt, P, P1, P2, temperature, pressure
0, 857242, 0, 0, 0, 0, 0, 0, 0, 0, 0, 0, 0, 3, -44, -31, 36, -1862, 1646, 14962, 630, 0, 0, 0, 0, 0
1, 864087, 0, 0, 0, 0, 0, 0, 0, 0, 0, 0, 0, 7, -44, -32, 36, -1876, 1632, 14952, 630, 0, 0, 0, 0, 0
2, 874083, 0, 0, 0, 0, 0, 0, 0, 0, 0, 0, 0, 11, -44, -32, 36, -1870, 1620, 14930, 630, 0, 0, 0, 0, 0
3, 884049, 0, 0, 0, 0, 0, 0, 0, 0, 0, 0, 0, 15, -45, -32, 35, -1888, 1614, 14924, 630, 0, 0, 0, 0, 0
4, 894030, 0, 0, 0, 0, 0, 0, 0, 0, 0, 0, 0, 19, -44, -33, 35, -1890, 1612, 14904, 630, 0, 0, 0, 0, 0
5, 904032, 0, 0, 0, 0, 0, 0, 0, 0, 0, 0, 0, 22, -44, -32, 35, -1878, 1606, 14898, 602, 0, 0, 0, 0, 0
6, 914010, 0, 0, 0, 0, 0, 0, 0, 0, 0, 0, 0, 26, -44, -33, 35, -1880, 1606, 14910, 602, 0, 0, 0, 0, 0
7, 923997, 0, 0, 0, 0, 0, 0, 0, 0, 0, 0, 0, 30, -44, -32, 35, -1874, 1614, 14900, 602, 0, 0, 0, 0, 0
8, 933984, 0, 0, 0, 0, 0, 0, 0, 0, 0, 0, 0, 34, -44, -32, 35, -1886, 1614, 14910, 602, 0, 0, 0, 0, 0
9, 943953, 0, 0, 0, 0, 0, 0, 0, 0, 0, 0, 0, 38, -44, -33, 35, -1854, 1604, 14930, 602, 0, 0, 0, 0, 0
10, 954211, 0, 0, 0, 0, 0, 0, 0, 0, 0, 0, 0, 41, -44, -34, 36, -1878, 1622, 14934, 595, 0, 0, 0, 0, 0
11, 963926, 0, 0, 0, 0, 0, 0, 0, 0, 0, 0, 0, 45, -44, -34, 36, -1898, 1620, 14938, 595, 0, 0, 0, 0, 0
12, 973893, 0, 0, 0, 0, 0, 0, 0, 0, 0, 0, 0, 49, -44, -33, 36, -1874, 1622, 14914, 595, 0, 0, 0, 0, 0
13, 983887, 0, 0, 0, 0, 0, 0, 0, 0, 0, 0, 0, 53, -44, -33, 36, -1866, 1636, 14910, 595, 0, 0, 0, 0, 0
14, 993870, 0, 0, 0, 0, 0, 0, 0, 0, 0, 0, 0, 57, -44, -33, 36, -1886, 1650, 14922, 595, 0, 0, 0, 0, 0
15, 1003843, 0, 0, 0, 0, 0, 0, 0, 0, 0, 0, 0, 61, -44, -33, 36, -1870, 1634, 14960, 595, 0, 0, 0, 0, 0
16, 1013826, 0, 0, 0, 0, 0, 0, 0, 0, 0, 0, 0, 65, -44, -34, 36, -1886, 1652, 14924, 595, 0, 0, 0, 0, 0
17, 1023816, 0, 0, 0, 0, 0, 0, 0, 0, 0, 0, 0, 69, -44, -34, 36, -1882, 1642, 14930, 595, 0, 0, 0, 0, 0
18, 1033794, 0, 0, 0, 0, 0, 0, 0, 0, 0, 0, 0, 72, -44, -33, 35, -1880, 1618, 14946, 595, 0, 0, 0, 0, 0
19, 1043767, 0, 0, 0, 0, 0, 0, 0, 0, 0, 0, 0, 76, -44, -33, 35, -1894, 1620, 14948, 595, 0, 0, 0, 0, 0
20, 1054163, 0, 0, 0, 0, 0, 0, 0, 0, 0, 0, 0, 80, -44, -33, 35, -1894, 1616, 14936, 595, 0, 0, 0, 0, 0
21, 1063729, 0, 0, 0, 0, 0, 0, 0, 0, 0, 0, 0, 84, -44, -33, 36, -1884, 1630, 14936, 595, 0, 0, 0, 0, 0
22, 1073707, 0, 0, 0, 0, 0, 0, 0, 0, 0, 0, 0, 88, -43, -33, 36, -1892, 1646, 14894, 595, 0, 0, 0, 0, 0
23, 1083690, 0, 0, 0, 0, 0, 0, 0, 0, 0, 0, 0, 92, -44, -33, 36, -1896, 1656, 14914, 595, 0, 0, 0, 0, 0
24, 1093683, 0, 0, 0, 0, 0, 0, 0, 0, 0, 0, 0, 95, -44, -33, 35, -1902, 1636, 14926, 595, 0, 0, 0, 0, 0
25, 1103645, 0, 0, 0, 0, 0, 0, 0, 0, 0, 0, 0, 99, -44, -33, 36, -1918, 1634, 14938, 595, 0, 0, 0, 0, 0
26, 1113634, 0, 0, 0, 0, 0, 0, 0, 0, 0, 0, 0, 103, -44, -33, 35, -1892, 1638, 14932, 595, 0, 0, 0, 0, 0
27, 1123628, 0, 0, 0, 0, 0, 0, 0, 0, 0, 0, 0, 107, -44, -33, 35, -1886, 1648, 14952, 595, 0, 0, 0, 0, 0
28, 1133598, 0, 0, 0, 0, 0, 0, 0, 0, 0, 0, 0, 111, -44, -33, 36, -1864, 1638, 14930, 595, 0, 0, 0, 0, 0
29, 1143576, 0, 0, 0, 0, 0, 0, 0, 0, 0, 0, 0, 114, -44, -33, 36, -1854, 1618, 14920, 595, 0, 0, 0, 0, 0
30, 1153865, 0, 0, 0, 0, 0, 0, 0, 0, 0, 0, 0, 118, -44, -33, 35, -1858, 1632, 14912, 595, 0, 0, 0, 0, 0
31, 1163542, 0, 0, 0, 0, 0, 0, 0, 0, 0, 0, 0, 122, -43, -33, 35, -1876, 1604, 14890, 595, 0, 0, 0, 0, 0
32, 1173522, 0, 0, 0, 0, 0, 0, 0, 0, 0, 0, 0, 126, -44, -33, 35, -1874, 1612, 14920, 595, 0, 0, 0, 0, 0
33, 1183507, 0, 0, 0, 0, 0, 0, 0, 0, 0, 0, 0, 130, -44, -33, 36, -1874, 1628, 14916, 595, 0, 0, 0, 0, 0
34, 1193479, 0, 0, 0, 0, 0, 0, 0, 0, 0, 0, 0, 133, -43, -33, 35, -1870, 1638, 14908, 595, 0, 0, 0, 0, 0
35, 1203471, 0, 0, 0, 0, 0, 0, 0, 0, 0, 0, 0, 137, -44, -33, 35, -1886, 1642, 14930, 595, 0, 0, 0, 0, 0
36, 1213441, 0, 0, 0, 0, 0, 0, 0, 0, 0, 0, 0, 141, -43, -33, 35, -1888, 1616, 14928, 595, 0, 0, 0, 0, 0
37, 1223418, 0, 0, 0, 0, 0, 0, 0, 0, 0, 0, 0, 145, -44, -33, 36, -1882, 1610, 14920, 595, 0, 0, 0, 0, 0
38, 1233420, 0, 0, 0, 0, 0, 0, 0, 0, 0, 0, 0, 148, -44, -33, 35, -1876, 1620, 14872, 595, 0, 0, 0, 0, 0
39, 1243396, 0, 0, 0, 0, 0, 0, 0, 0, 0, 0, 0, 152, -44, -33, 36, -1870, 1606, 14864, 595, 0, 0, 0, 0, 0
40, 1253781, 0, 0, 0, 0, 0, 0, 0, 0, 0, 0, 0, 156, -43, -33, 36, -1858, 1612, 14896, 595, 0, 0, 0, 0, 0
41, 1263374, 0, 0, 0, 0, 0, 0, 0, 0, 0, 0, 0, 160, -43, -33, 35, -1874, 1626, 14902, 595, 0, 0, 0, 0, 0
42, 1273346, 0, 0, 0, 0, 0, 0, 0, 0, 0, 0, 0, 163, -44, -32, 35, -1868, 1618, 14902, 595, 0, 0, 0, 0, 0
43, 1283322, 0, 0, 0, 0, 0, 0, 0, 0, 0, 0, 0, 167, -43, -33, 36, -1870, 1632, 14922, 595, 0, 0, 0, 0, 0
44, 1293311, 0, 0, 0, 0, 0, 0, 0, 0, 0, 0, 0, 171, -43, -33, 36, -1876, 1624, 14918, 595, 0, 0, 0, 0, 0
45, 1303285, 0, 0, 0, 0, 0, 0, 0, 0, 0, 0, 0, 175, -44, -33, 36, -1880, 1624, 14944, 595, 0, 0, 0, 0, 0
46, 1313275, 0, 0, 0, 0, 0, 0, 0, 0, 0, 0, 0, 179, -44, -32, 36, -1878, 1628, 14920, 595, 0, 0, 0, 0, 0
47, 1323245, 0, 0, 0, 0, 0, 0, 0, 0, 0, 0, 0, 182, -43, -33, 36, -1856, 1630, 14928, 595, 0, 0, 0, 0, 0
48, 1333222, 0, 0, 0, 0, 0, 0, 0, 0, 0, 0, 0, 186, -44, -33, 35, -1874, 1652, 14950, 595, 0, 0, 0, 0, 0
49, 1343204, 0, 0, 0, 0, 0, 0, 0, 0, 0, 0, 0, 190, -45, -33, 36, -1888, 1636, 14936, 595, 0, 0, 0, 0, 0
50, 1353745, 0, 0, 0, 0, 0, 0, 0, 0, 0, 0, 0, 194, -44, -32, 36, -1872, 1610, 14918, 595, 0, 0, 0, 0, 0
51, 1363171, 0, 0, 0, 0, 0, 0, 0, 0, 0, 0, 0, 198, -44, -33, 36, -1882, 1604, 14898, 595, 0, 0, 0, 0, 0
52, 1373154, 0, 0, 0, 0, 0, 0, 0, 0, 0, 0, 0, 201, -44, -33, 36, -1870, 1612, 14902, 595, 0, 0, 0, 0, 0
53, 1383137, 0, 0, 0, 0, 0, 0, 0, 0, 0, 0, 0, 205, -44, -33, 36, -1868, 1628, 14910, 595, 0, 0, 0, 0, 0
54, 1393119, 0, 0, 0, 0, 0, 0, 0, 0, 0, 0, 0, 209, -44, -33, 36, -1882, 1626, 14924, 595, 0, 0, 0, 0, 0
55, 1403097, 0, 0, 0, 0, 0, 0, 0, 0, 0, 0, 0, 213, -44, -33, 36, -1870, 1638, 14928, 595, 0, 0, 0, 0, 0
56, 1413092, 0, 0, 0, 0, 0, 0, 0, 0, 0, 0, 0, 217, -44, -33, 35, -1884, 1642, 14940, 595, 0, 0, 0, 0, 0
57, 1423067, 0, 0, 0, 0, 0, 0, 0, 0, 0, 0, 0, 220, -44, -33, 36, -1866, 1622, 14938, 595, 0, 0, 0, 0, 0
58, 1433067, 0, 0, 0, 0, 0, 0, 0, 0, 0, 0, 0, 224, -44, -33, 36, -1870, 1614, 14954, 595, 0, 0, 0, 0, 0
59, 1443040, 0, 0, 0, 0, 0, 0, 0, 0, 0, 0, 0, 228, -44, -33, 36, -1852, 1616, 14936, 595, 0, 0, 0, 0, 0
60, 1453007, 0, 0, 0, 0, 0, 0, 0, 0, 0, 0, 0, 232, -44, -32, 36, -1876, 1622, 14912, 595, 0, 0, 0, 0, 0
61, 1463010, 0, 0, 0, 0, 0, 0, 0, 0, 0, 0, 0, 236, -44, -33, 36, -1876, 1618, 14938, 595, 0, 0, 0, 0, 0
62, 1472989, 0, 0, 0, 0, 0, 0, 0, 0, 0, 0, 0, 239, -43, -33, 36, -1878, 1632, 14914, 595, 0, 0, 0, 0, 0
63, 1482970, 0, 0, 0, 0, 0, 0, 0, 0, 0, 0, 0, 243, -44, -33, 35, -1868, 1634, 14918, 595, 0, 0, 0, 0, 0
64, 1492944, 0, 0, 0, 0, 0, 0, 0, 0, 0, 0, 0, 247, -44, -33, 36, -1876, 1628, 14902, 595, 0, 0, 0, 0, 0
65, 1502930, 0, 0, 0, 0, 0, 0, 0, 0, 0, 0, 0, 251, -44, -33, 36, -1890, 1620, 14888, 595, 0, 0, 0, 0, 0
66, 1512920, 0, 0, 0, 0, 0, 0, 0, 0, 0, 0, 0, 254, -44, -33, 36, -1904, 1612, 14930, 595, 0, 0, 0, 0, 0
67, 1522898, 0, 0, 0, 0, 0, 0, 0, 0, 0, 0, 0, 258, -44, -33, 36, -1904, 1614, 14926, 595, 0, 0, 0, 0, 0
68, 1532870, 0, 0, 0, 0, 0, 0, 0, 0, 0, 0, 0, 262, -44, -33, 36, -1878, 1616, 14920, 595, 0, 0, 0, 0, 0
69, 1542855, 0, 0, 0, 0, 0, 0, 0, 0, 0, 0, 0, 266, -44, -33, 35, -1852, 1616, 14932, 595, 0, 0, 0, 0, 0
70, 1552846, 0, 0, 0, 0, 0, 0, 0, 0, 0, 0, 0, 269, -44, -33, 36, -1848, 1622, 14928, 595, 0, 0, 0, 0, 0
71, 1562833, 0, 0, 0, 0, 0, 0, 0, 0, 0, 0, 0, 273, -44, -33, 35, -1848, 1602, 14928, 595, 0, 0, 0, 0, 0
72, 1572802, 0, 0, 0, 0, 0, 0, 0, 0, 0, 0, 0, 277, -44, -32, 36, -1866, 1600, 14932, 595, 0, 0, 0, 0, 0
73, 1582781, 0, 0, 0, 0, 0, 0, 0, 0, 0, 0, 0, 281, -44, -33, 35, -1882, 1586, 14924, 595, 0, 0, 0, 0, 0
74, 1592774, 0, 0, 0, 0, 0, 0, 0, 0, 0, 0, 0, 284, -44, -33, 36, -1914, 1600, 14920, 595, 0, 0, 0, 0, 0
75, 1602749, 0, 0, 0, 0, 0, 0, 0, 0, 0, 0, 0, 288, -44, -33, 36, -1908, 1624, 14918, 595, 0, 0, 0, 0, 0
76, 1612729, 0, 0, 0, 0, 0, 0, 0, 0, 0, 0, 0, 292, -43, -33, 36, -1874, 1642, 14928, 595, 0, 0, 0, 0, 0
77, 1622717, 0, 0, 0, 0, 0, 0, 0, 0, 0, 0, 0, 296, -44, -33, 36, -1872, 1662, 14930, 595, 0, 0, 0, 0, 0
78, 1632701, 0, 0, 0, 0, 0, 0, 0, 0, 0, 0, 0, 299, -44, -34, 36, -1864, 1646, 14938, 595, 0, 0, 0, 0, 0
79, 1642676, 0, 0, 0, 0, 0, 0, 0, 0, 0, 0, 0, 303, -44, -34, 36, -1864, 1638, 14916, 595, 0, 0, 0, 0, 0
80, 1652663, 0, 0, 0, 0, 0, 0, 0, 0, 0, 0, 0, 307, -44, -33, 36, -1868, 1624, 14918, 595, 0, 0, 0, 0, 0
81, 1662804, 0, 0, 0, 0, 0, 0, 0, 0, 0, 0, 0, 311, -44, -33, 36, -1862, 1618, 14938, 595, 0, 0, 0, 0, 0
82, 1672614, 0, 0, 0, 0, 0, 0, 0, 0, 0, 0, 0, 314, -43, -33, 35, -1844, 1604, 14932, 595, 0, 0, 0, 0, 0
83, 1682612, 0, 0, 0, 0, 0, 0, 0, 0, 0, 0, 0, 318, -44, -33, 35, -1838, 1636, 14942, 595, 0, 0, 0, 0, 0
84, 1692592, 0, 0, 0, 0, 0, 0, 0, 0, 0, 0, 0, 322, -44, -33, 35, -1858, 1658, 14904, 595, 0, 0, 0, 0, 0
85, 1702563, 0, 0, 0, 0, 0, 0, 0, 0, 0, 0, 0, 325, -45, -33, 35, -1866, 1650, 14924, 595, 0, 0, 0, 0, 0
86, 1712550, 0, 0, 0, 0, 0, 0, 0, 0, 0, 0, 0, 329, -44, -33, 36, -1874, 1624, 14950, 595, 0, 0, 0, 0, 0
87, 1722528, 0, 0, 0, 0, 0, 0, 0, 0, 0, 0, 0, 333, -44, -33, 36, -1908, 1606, 14916, 595, 0, 0, 0, 0, 0
88, 1732524, 0, 0, 0, 0, 0, 0, 0, 0, 0, 0, 0, 337, -44, -33, 36, -1914, 1606, 14900, 595, 0, 0, 0, 0, 0
89, 1742500, 0, 0, 0, 0, 0, 0, 0, 0, 0, 0, 0, 340, -44, -33, 36, -1902, 1600, 14938, 595, 0, 0, 0, 0, 0
90, 1752464, 0, 0, 0, 0, 0, 0, 0, 0, 0, 0, 0, 344, -44, -33, 36, -1872, 1614, 14916, 595, 0, 0, 0, 0, 0
91, 1762466, 0, 0, 0, 0, 0, 0, 0, 0, 0, 0, 0, 348, -43, -33, 36, -1848, 1634, 14908, 595, 0, 0, 0, 0, 0
92, 1772434, 0, 0, 0, 0, 0, 0, 0, 0, 0, 0, 0, 352, -43, -33, 36, -1856, 1626, 14926, 595, 0, 0, 0, 0, 0
93, 1782415, 0, 0, 0, 0, 0, 0, 0, 0, 0, 0, 0, 355, -44, -33, 35, -1866, 1608, 14936, 595, 0, 0, 0, 0, 0
94, 1792408, 0, 0, 0, 0, 0, 0, 0, 0, 0, 0, 0, 359, -44, -33, 36, -1874, 1606, 14962, 595, 0, 0, 0, 0, 0
95, 1802383, 0, 0, 0, 0, 0, 0, 0, 0, 0, 0, 0, 363, -44, -33, 35, -1904, 1612, 14954, 595, 0, 0, 0, 0, 0
96, 1812365, 0, 0, 0, 0, 0, 0, 0, 0, 0, 0, 0, 367, -44, -33, 36, -1912, 1612, 14926, 595, 0, 0, 0, 0, 0
97, 1822358, 0, 0, 0, 0, 0, 0, 0, 0, 0, 0, 0, 370, -44, -33, 36, -1908, 1644, 14934, 595, 0, 0, 0, 0, 0
98, 1832334, 0, 0, 0, 0, 0, 0, 0, 0, 0, 0, 0, 374, -44, -34, 36, -1900, 1660, 14928, 595, 0, 0, 0, 0, 0
99, 1842312, 0, 0, 0, 0, 0, 0, 0, 0, 0, 0, 0, 378, -44, -34, 36, -1888, 1670, 14952, 595, 0, 0, 0, 0, 0
100, 1852305, 0, 0, 0, 0, 0, 0, 0, 0, 0, 0, 0, 382, -44, -33, 36, -1870, 1654, 14930, 595, 0, 0, 0, 0, 0
101, 1862280, 1, 0, 0, 0, 0, 0, 0, 0, 0, 0, 0, 385, -44, -34, 36, -1858, 1608, 14944, 595, 0, 0, 0, 0, 0
102, 1872250, 1, 0, 0, 0, 0, 0, 0, 0, 0, 0, 0, 389, -44, -34, 36, -1858, 1606, 14922, 595, 0, 0, 0, 0, 0
103, 1882242, 1, 0, 0, 0, 0, 0, 0, 0, 0, 0, 0, 393, -44, -33, 35, -1872, 1604, 14936, 595, 0, 0, 0, 0, 0
104, 1892230, 1, 0, 0, 0, 0, 0, 0, 0, 0, 0, 0, 396, -44, -33, 36, -1844, 1618, 14902, 595, 0, 0, 0, 0, 0
105, 1902200, 1, 0, 0, 0, 0, 0, 0, 0, 0, 0, 0, 400, -44, -33, 36, -1830, 1634, 14924, 595, 0, 0, 0, 0, 0
106, 1912159, 1, 0, 0, 0, 0, 0, 0, 0, 0, 0, 0, 404, -44, -32, 36, -1854, 1620, 14918, 595, 0, 0, 0, 0, 0
107, 1922140, 1, 0, 0, 0, 0, 0, 0, 0, 0, 0, 0, 408, -44, -33, 36, -1874, 1616, 14912, 595, 0, 0, 0, 0, 0
108, 1932116, 1, 0, 0, 0, 0, 0, 0, 0, 0, 0, 0, 411, -44, -33, 36, -1868, 1620, 14928, 595, 0, 0, 0, 0, 0
109, 1942105, 1, 0, 0, 0, 0, 0, 0, 0, 0, 0, 0, 415, -43, -33, 36, -1882, 1624, 14914, 595, 0, 0, 0, 0, 0
110, 1952077, 1, 0, 0, 0, 0, 0, 0, 0, 0, 0, 0, 419, -44, -33, 36, -1890, 1622, 14942, 595, 0, 0, 0, 0, 0
111, 1962064, 1, 0, 0, 0, 0, 0, 0, 0, 0, 0, 0, 423, -44, -32, 36, -1886, 1630, 14914, 595, 0, 0, 0, 0, 0
112, 1972034, 1, 0, 0, 0, 0, 0, 0, 0, 0, 0, 0, 426, -44, -33, 36, -1890, 1636, 14924, 595, 0, 0, 0, 0, 0
113, 1982031, 1, 0, 0, 0, 0, 0, 0, 0, 0, 0, 0, 430, -44, -33, 36, -1880, 1646, 14890, 595, 0, 0, 0, 0, 0
114, 1992010, 1, 0, 0, 0, 0, 0, 0, 0, 0, 0, 0, 434, -44, -33, 36, -1872, 1630, 14914, 595, 0, 0, 0, 0, 0
115, 2001995, 1, 0, 0, 0, 0, 0, 0, 0, 0, 0, 0, 437, -44, -32, 35, -1866, 1622, 14906, 595, 0, 0, 0, 0, 0
116, 2011973, 1, 0, 0, 0, 0, 0, 0, 0, 0, 0, 0, 441, -44, -33, 36, -1860, 1590, 14892, 595, 0, 0, 0, 0, 0
117, 2021953, 1, 0, 0, 0, 0, 268, 268, 268, 268, 0, 0, 445, -44, -33, 36, -1866, 1606, 14928, 595, 0, 0, 0, 0, 0
118, 2031948, 1, 0, 0, 0, 0, 235, 235, 235, 235, 0, 0, 449, -44, -33, 36, -1876, 1626, 14944, 595, 0, 0, 0, 0, 0
119, 2041920, 1, 0, 0, 0, 0, 205, 205, 205, 205, 0, 0, 452, -45, -33, 36, -1872, 1630, 14960, 595, 0, 0, 0, 0, 0
120, 2051907, 1, 0, 0, 0, 0, 179, 179, 179, 179, 0, 0, 456, -44, -33, 35, -1870, 1634, 14916, 595, 0, 0, 0, 0, 0
121, 2061884, 1, 0, 0, 0, 0, 157, 157, 157, 157, 0, 0, 460, -44, -32, 35, -1894, 1646, 14936, 595, 0, 0, 0, 0, 0
122, 2071858, 1, 0, 0, 0, 0, 137, 137, 137, 137, 0, 0, 463, -44, -32, 36, -1908, 1648, 14908, 595, 0, 0, 0, 0, 0
123, 2081832, 1, 0, 0, 0, 0, 120, 120, 120, 120, 0, 0, 467, -44, -33, 36, -1900, 1610, 14894, 595, 0, 0, 0, 0, 0
124, 2091824, 1, 0, 0, 0, 0, 105, 105, 105, 105, 0, 0, 471, -44, -32, 36, -1904, 1616, 14896, 595, 0, 0, 0, 0, 0
125, 2101809, 1, 0, 0, 0, 0, 92, 92, 92, 92, 0, 0, 475, -44, -33, 36, -1894, 1622, 14912, 595, 0, 0, 0, 0, 0
126, 2111787, 1, 0, 0, 0, 0, 80, 80, 80, 80, 0, 0, 478, -45, -33, 36, -1872, 1616, 14904, 595, 0, 0, 0, 0, 0
127, 2121765, 1, 0, 0, 0, 0, 70, 70, 70, 70, 0, 0, 482, -45, -33, 36, -1866, 1620, 14880, 595, 0, 0, 0, 0, 0
128, 2131762, 1, 0, 0, 0, 0, 61, 61, 61, 61, 0, 0, 486, -45, -33, 36, -1860, 1620, 14908, 595, 0, 0, 0, 0, 0
129, 2141740, 1, 0, 0, 0, 0, 53, 53, 53, 53, 0, 0, 490, -44, -33, 36, -1854, 1592, 14914, 595, 0, 0, 0, 0, 0
130, 2151716, 1, 0, 0, 0, 0, 47, 47, 47, 47, 0, 0, 493, -44, -33, 36, -1860, 1612, 14944, 595, 0, 0, 0, 0, 0
131, 2161697, 1, 0, 0, 0, 0, 41, 41, 41, 41, 0, 0, 497, -44, -33, 36, -1870, 1632, 14912, 595, 0, 0, 0, 0, 0
132, 2171682, 1, 0, 0, 0, 0, 35, 35, 35, 35, 0, 0, 501, -43, -33, 36, -1878, 1616, 14924, 595, 0, 0, 0, 0, 0
133, 2181674, 1, 0, 0, 0, 0, 31, 31, 31, 31, 0, 0, 504, -43, -33, 36, -1880, 1612, 14876, 595, 0, 0, 0, 0, 0
134, 2191640, 1, 0, 0, 0, 0, 27, 27, 27, 27, 0, 0, 508, -45, -33, 35, -1886, 1628, 14940, 595, 0, 0, 0, 0, 0
135, 2201619, 1, 0, 0, 0, 0, 23, 23, 23, 23, 0, 0, 512, -44, -32, 35, -1864, 1642, 14894, 595, 0, 0, 0, 0, 0
136, 2211602, 1, 0, 0, 0, 0, 20, 20, 20, 20, 0, 0, 515, -44, -34, 35, -1880, 1616, 14910, 595, 0, 0, 0, 0, 0
137, 2221590, 1, 0, 0, 0, 0, 18, 18, 18, 18, 0, 0, 519, -44, -33, 35, -1886, 1622, 14948, 595, 0, 0, 0, 0, 0
138, 2231569, 1, 0, 0, 0, 0, 15, 15, 15, 15, 0, 0, 523, -44, -33, 36, -1878, 1618, 14888, 595, 0, 0, 0, 0, 0
139, 2241546, 1, 0, 0, 0, 0, 13, 13, 13, 13, 0, 0, 526, -44, -33, 35, -1908, 1610, 14956, 595, 0, 0, 0, 0, 0
140, 2251534, 1, 0, 0, 0, 0, 12, 12, 12, 12, 0, 0, 530, -44, -32, 35, -1910, 1618, 14916, 595, 0, 0, 0, 0, 0
141, 2261522, 1, 0, 0, 0, 0, 10, 10, 10, 10, 0, 0, 534, -44, -33, 36, -1878, 1620, 14928, 595, 0, 0, 0, 0, 0
142, 2271660, 1, 0, 0, 0, 0, 9, 9, 9, 9, 0, 0, 537, -44, -33, 36, -1880, 1616, 14932, 595, 0, 0, 0, 0, 0
143, 2281486, 1, 0, 0, 0, 0, 7, 7, 7, 7, 0, 0, 541, -44, -32, 36, -1870, 1636, 14924, 595, 0, 0, 0, 0, 0
144, 2291458, 1, 0, 0, 0, 0, 6, 6, 6, 6, 0, 0, 545, -43, -32, 36, -1862, 1634, 14936, 595, 0, 0, 0, 0, 0
145, 2301426, 1, 0, 0, 0, 0, 6, 6, 6, 6, 0, 0, 548, -43, -32, 36, -1882, 1638, 14936, 595, 0, 0, 0, 0, 0
146, 2311414, 1, 0, 0, 0, 0, 5, 5, 5, 5, 0, 0, 552, -43, -32, 35, -1886, 1612, 14908, 595, 0, 0, 0, 0, 0
147, 2321388, 1, 0, 0, 0, 0, 4, 4, 4, 4, 0, 0, 556, -44, -32, 36, -1900, 1588, 14932, 595, 0, 0, 0, 0, 0
148, 2331378, 1, 0, 0, 0, 0, 3, 3, 3, 3, 0, 0, 559, -43, -33, 35, -1894, 1632, 14904, 595, 0, 0, 0, 0, 0
149, 2341352, 1, 0, 0, 0, 0, 3, 3, 3, 3, 0, 0, 563, -44, -33, 35, -1896, 1642, 14908, 595, 0, 0, 0, 0, 0
150, 2351346, 1, 0, 0, 0, 0, 2, 2, 2, 2, 0, 0, 567, -44, -33, 36, -1888, 1642, 14910, 595, 0, 0, 0, 0, 0
151, 2361318, 1, 0, 0, 0, 0, 2, 2, 2, 2, 0, 0, 570, -44, -33, 35, -1882, 1648, 14944, 595, 0, 0, 0, 0, 0
152, 2371301, 1, 0, 0, 0, 0, 2, 2, 2, 2, 0, 0, 574, -44, -33, 35, -1866, 1620, 14940, 595, 0, 0, 0, 0, 0
153, 2381288, 1, 0, 0, 0, 0, 1, 1, 1, 1, 0, 0, 577, -44, -33, 35, -1876, 1612, 14952, 595, 0, 0, 0, 0, 0
154, 2391272, 1, 0, 0, 0, 0, 1, 1, 1, 1, 0, 0, 581, -44, -33, 35, -1882, 1614, 14934, 595, 0, 0, 0, 0, 0
155, 2401255, 0, 0, 0, 0, 0, 1, 1, 1, 1, 0, 0, 585, -44, -33, 36, -1890, 1612, 14918, 595, 0, 0, 0, 0, 0
156, 2411242, 0, 0, 0, 0, 0, 0, 0, 0, 0, 0, 0, 588, -45, -33, 35, -1882, 1608, 14908, 595, 0, 0, 0, 0, 0
157, 2421216, 0, 0, 0, 0, 0, 0, 0, 0, 0, 0, 0, 592, -44, -33, 36, -1884, 1620, 14914, 595, 0, 0, 0, 0, 0
158, 2431188, 0, 0, 0, 0, 0, 0, 0, 0, 0, 0, 0, 596, -45, -33, 36, -1888, 1636, 14920, 595, 0, 0, 0, 0, 0
159, 2441199, 0, 0, 0, 0, 0, 0, 0, 0, 0, 0, 0, 599, -45, -33, 35, -1874, 1620, 14930, 595, 0, 0, 0, 0, 0
160, 2451161, 0, 0, 0, 0, 0, 0, 0, 0, 0, 0, 0, 603, -45, -34, 35, -1870, 1614, 14926, 595, 0, 0, 0, 0, 0
161, 2461230, 0, 0, 0, 0, 0, 0, 0, 0, 0, 0, 0, 607, -45, -33, 36, -1868, 1596, 14920, 595, 0, 0, 0, 0, 0
162, 2471127, 0, 0, 0, 0, 0, 0, 0, 0, 0, 0, 0, 610, -45, -34, 36, -1888, 1596, 14934, 595, 0, 0, 0, 0, 0
163, 2481233, 0, 0, 0, 0, 0, 0, 0, 0, 0, 0, 0, 614, -44, -33, 36, -1862, 1610, 14952, 595, 0, 0, 0, 0, 0
164, 2491090, 2, 0, 0, 0, 0, 0, 0, 0, 0, 0, 0, 618, -44, -33, 35, -1844, 1630, 14950, 595, 0, 0, 0, 0, 0
165, 2501145, 2, 0, 0, 0, 0, 0, 0, 0, 0, 0, 0, 621, -44, -32, 35, -1862, 1634, 14942, 595, 0, 0, 0, 0, 0
166, 2511051, 2, 0, 0, 0, 0, 0, 0, 0, 0, 0, 0, 625, -44, -32, 35, -1876, 1632, 14930, 595, 0, 0, 0, 0, 0
167, 2521030, 2, 0, 0, 0, 0, 0, 0, 0, 0, 0, 0, 629, -44, -32, 35, -1902, 1638, 14912, 595, 0, 0, 0, 0, 0
168, 2531024, 2, 1845, 0, 0, 0, 0, 0, 0, 0, 0, 0, 632, -44, -32, 35, -1924, 1632, 14910, 595, 0, 0, 0, 0, 0
169, 2540974, 2, 1845, 0, 0, 0, 230, 230, 230, 230, 0, 0, 636, -44, -33, 35, -1938, 1624, 14904, 595, 0, 0, 0, 0, 0
170, 2550976, 2, 2571, 0, 0, 0, 230, 230, 230, 230, 0, 0, 639, -44, -33, 35, -1922, 1624, 14904, 595, 0, 0, 0, 0, 0
171, 2560943, 2, 2571, 0, 0, 0, 321, 321, 321, 321, 0, 0, 643, -45, -34, 35, -1900, 1626, 14902, 595, 0, 0, 0, 0, 0
172, 2570936, 2, 2687, 0, 0, 0, 321, 321, 321, 321, 0, 0, 647, -44, -34, 35, -1888, 1642, 14924, 595, 0, 0, 0, 0, 0
173, 2580922, 2, 2687, 0, 0, 0, 335, 335, 335, 335, 0, 0, 650, -44, -34, 36, -1872, 1646, 14942, 595, 0, 0, 0, 0, 0
174, 2590879, 2, 2687, 0, 0, 0, 335, 335, 335, 335, 0, 0, 654, -45, -34, 36, -1842, 1624, 14934, 595, 0, 0, 0, 0, 0
175, 2600873, 2, 2687, 0, 0, 0, 335, 335, 335, 335, 0, 0, 658, -45, -34, 36, -1844, 1622, 14946, 595, 0, 0, 0, 0, 0
176, 2610858, 2, 2687, 0, 0, 0, 335, 335, 335, 335, 0, 0, 661, -44, -33, 36, -1852, 1616, 14928, 595, 0, 0, 0, 0, 0
177, 2620828, 2, 2687, 0, 0, 0, 335, 335, 335, 335, 0, 0, 665, -44, -32, 35, -1860, 1626, 14940, 595, 0, 0, 0, 0, 0
178, 2630823, 2, 2687, 0, 0, 0, 335, 335, 335, 335, 0, 0, 669, -44, -32, 35, -1874, 1628, 14960, 595, 0, 0, 0, 0, 0
179, 2640807, 2, 2687, 0, 0, 0, 335, 335, 335, 335, 0, 0, 672, -44, -32, 36, -1880, 1632, 14932, 595, 0, 0, 0, 0, 0
180, 2650829, 2, 2687, 0, 0, 0, 335, 335, 335, 335, 0, 0, 676, -44, -32, 36, -1894, 1648, 14946, 595, 0, 0, 0, 0, 0
181, 2660772, 2, 2687, 0, 0, 0, 335, 335, 335, 335, 0, 0, 680, -44, -32, 36, -1914, 1648, 14958, 595, 0, 0, 0, 0, 0
182, 2670870, 2, 2687, 0, 0, 0, 335, 335, 335, 335, 0, 0, 683, -44, -33, 36, -1922, 1630, 14932, 595, 0, 0, 0, 0, 0
183, 2680735, 2, 2687, 0, 0, 0, 335, 335, 335, 335, 0, 0, 687, -44, -34, 36, -1908, 1624, 14936, 595, 0, 0, 0, 0, 0
184, 2690844, 2, 2687, 0, 0, 0, 335, 335, 335, 335, 0, 0, 691, -44, -34, 36, -1898, 1628, 14952, 595, 0, 0, 0, 0, 0
185, 2700700, 2, 2687, 0, 0, 0, 335, 335, 335, 335, 0, 0, 694, -44, -34, 36, -1868, 1612, 14910, 595, 0, 0, 0, 0, 0
186, 2710707, 2, 2687, 0, 0, 0, 335, 335, 335, 335, 0, 0, 698, -45, -33, 36, -1856, 1610, 14934, 595, 0, 0, 0, 0, 0
187, 2720659, 2, 2687, 0, 0, 0, 335, 335, 335, 335, 0, 0, 702, -44, -34, 36, -1840, 1628, 14896, 595, 0, 0, 0, 0, 0
188, 2730647, 2, 2687, 0, 0, 0, 335, 335, 335, 335, 0, 0, 705, -43, -33, 36, -1850, 1618, 14900, 595, 0, 0, 0, 0, 0
189, 2740625, 2, 2687, 0, 0, 0, 335, 335, 335, 335, 0, 0, 709, -43, -33, 35, -1852, 1630, 14888, 595, 0, 0, 0, 0, 0
190, 2750619, 2, 2687, 0, 0, 0, 335, 335, 335, 335, 0, 0, 713, -44, -33, 36, -1878, 1638, 14934, 595, 0, 0, 0, 0, 0
191, 2760583, 2, 2397, 0, 0, 0, 335, 335, 335, 335, 0, 0, 716, -44, -33, 36, -1870, 1638, 14926, 595, 0, 0, 0, 0, 0
192, 2770573, 2, 2397, 0, 0, 0, 299, 299, 299, 299, 0, 0, 720, -44, -32, 36, -1880, 1642, 14920, 595, 0, 0, 0, 0, 0
193, 2780557, 2, 1482, 0, 0, 0, 299, 299, 299, 299, 0, 0, 724, -44, -32, 36, -1880, 1642, 14938, 595, 0, 0, 0, 0, 0
194, 2790538, 2, 1482, 0, 0, 0, 185, 185, 185, 185, 0, 0, 727, -44, -32, 36, -1860, 1638, 14932, 595, 0, 0, 0, 0, 0
195, 2800516, 2, 0, 0, 0, 0, 185, 185, 185, 185, 0, 0, 731, -44, -32, 36, -1866, 1632, 14940, 595, 0, 0, 0, 0, 0
196, 2810495, 2, 0, 0, 0, 0, 0, 0, 0, 0, 0, 0, 735, -43, -33, 36, -1870, 1602, 14936, 595, 0, 0, 0, 0, 0
197, 2820480, 2, 0, 0, 0, 0, 0, 0, 0, 0, 0, 0, 738, -44, -33, 36, -1882, 1592, 14922, 595, 0, 0, 0, 0, 0
198, 2830471, 2, 0, 0, 0, 0, 0, 0, 0, 0, 0, 0, 742, -44, -33, 36, -1900, 1602, 14948, 595, 0, 0, 0, 0, 0
199, 2840467, 2, 0, 0, 0, 0, 0, 0, 0, 0, 0, 0, 746, -44, -32, 36, -1910, 1630, 14924, 595, 0, 0, 0, 0, 0
200, 2850426, 2, 0, 0, 0, 0, 0, 0, 0, 0, 0, 0, 749, -44, -33, 35, -1908, 1642, 14936, 595, 0, 0, 0, 0, 0
201, 2860472, 2, 0, 0, 0, 0, 0, 0, 0, 0, 0, 0, 753, -44, -33, 35, -1904, 1650, 14948, 595, 0, 0, 0, 0, 0
202, 2870394, 2, 0, 0, 0, 0, 0, 0, 0, 0, 0, 0, 757, -44, -34, 35, -1900, 1652, 14934, 595, 0, 0, 0, 0, 0
203, 2880634, 2, 0, 0, 0, 0, 0, 0, 0, 0, 0, 0, 760, -44, -34, 35, -1874, 1634, 14970, 595, 0, 0, 0, 0, 0
204, 2890361, 2, 0, 0, 0, 0, 0, 0, 0, 0, 0, 0, 764, -44, -34, 36, -1874, 1616, 14932, 595, 0, 0, 0, 0, 0
205, 2900463, 2, 0, 0, 0, 0, 0, 0, 0, 0, 0, 0, 767, -44, -33, 35, -1852, 1618, 14918, 595, 0, 0, 0, 0, 0
206, 2910317, 2, 0, 0, 0, 0, 0, 0, 0, 0, 0, 0, 771, -44, -33, 36, -1850, 1598, 14968, 595, 0, 0, 0, 0, 0
207, 2920312, 2, 0, 0, 0, 0, 0, 0, 0, 0, 0, 0, 775, -44, -33, 35, -1838, 1612, 14910, 595, 0, 0, 0, 0, 0
208, 2930286, 2, 1816, 0, 0, -201, 0, 0, 0, 0, 0, 0, 778, -44, -32, 36, -1836, 1622, 14944, 595, 0, 0, 0, 0, 0
209, 2940269, 2, 1816, 0, 0, -201, 252, 201, 252, 201, 0, 0, 782, -43, -33, 36, -1870, 1608, 14936, 595, 0, 0, 0, 0, 0
210, 2950258, 2, 2687, 0, 0, -307, 252, 201, 252, 201, 0, 0, 786, -44, -33, 36, -1878, 1628, 14906, 595, 0, 0, 0, 0, 0
211, 2960238, 2, 2687, 0, 0, -307, 374, 297, 374, 297, 0, 0, 789, -44, -33, 36, -1900, 1630, 14892, 595, 0, 0, 0, 0, 0
212, 2970205, 2, 2687, 0, 0, -354, 374, 297, 374, 297, 0, 0, 793, -44, -33, 36, -1926, 1634, 14900, 595, 0, 0, 0, 0, 0
213, 2980198, 2, 2687, 0, 0, -354, 380, 291, 380, 291, 0, 0, 797, -44, -33, 36, -1926, 1640, 14876, 595, 0, 0, 0, 0, 0
214, 2990180, 2, 2687, 0, 0, -359, 380, 291, 380, 291, 0, 0, 800, -45, -33, 36, -1914, 1646, 14902, 595, 0, 0, 0, 0, 0
215, 3000159, 2, 2687, 0, 0, -359, 380, 291, 380, 291, 0, 0, 804, -44, -33, 35, -1888, 1646, 14902, 595, 0, 0, 0, 0, 0
216, 3010135, 2, 3152, 0, 0, -254, 380, 291, 380, 291, 0, 0, 808, -44, -34, 36, -1870, 1636, 14896, 595, 0, 0, 0, 0, 0
217, 3020123, 2, 3152, 0, 0, -254, 425, 362, 425, 362, 0, 0, 811, -44, -33, 36, -1850, 1630, 14914, 595, 0, 0, 0, 0, 0
218, 3030100, 2, 3790, 0, 0, 0, 425, 362, 425, 362, 0, 0, 815, -44, -34, 36, -1846, 1602, 14884, 595, 0, 0, 0, 0, 0
219, 3040073, 2, 3790, 0, 0, 0, 473, 473, 473, 473, 0, 0, 818, -44, -33, 35, -1858, 1606, 14926, 595, 0, 0, 0, 0, 0
220, 3050088, 2, 3790, 0, 0, 0, 473, 473, 473, 473, 0, 0, 822, -45, -32, 36, -1862, 1604, 14912, 595, 0, 0, 0, 0, 0
221, 3060045, 2, 3790, 0, 0, 0, 473, 473, 473, 473, 0, 0, 826, -44, -33, 35, -1872, 1628, 14910, 595, 0, 0, 0, 0, 0
222, 3070104, 2, 3790, 0, 0, 0, 473, 473, 473, 473, 0, 0, 829, -44, -33, 36, -1866, 1650, 14892, 595, 0, 0, 0, 0, 0
223, 3079988, 2, 4052, 0, 0, 453, 473, 473, 473, 473, 0, 0, 833, -43, -33, 36, -1884, 1668, 14924, 595, 0, 0, 0, 0, 0
224, 3090109, 2, 4052, 0, 0, 453, 449, 563, 449, 563, 0, 0, 836, -44, -34, 35, -1916, 1664, 14912, 595, 0, 0, 0, 0, 0
225, 3099952, 2, 4052, 0, 0, 511, 449, 563, 449, 563, 0, 0, 840, -44, -34, 36, -1902, 1644, 14926, 595, 0, 0, 0, 0, 0
226, 3110019, 2, 4052, 0, 0, 511, 442, 570, 442, 570, 0, 0, 844, -44, -33, 36, -1896, 1638, 14922, 595, 0, 0, 0, 0, 0
227, 3119923, 2, 3370, 0, 0, 511, 442, 570, 442, 570, 0, 0, 847, -45, -34, 35, -1888, 1602, 14934, 595, 0, 0, 0, 0, 0
228, 3129898, 2, 3370, 0, 0, 511, 357, 485, 357, 485, 0, 0, 851, -44, -34, 35, -1872, 1596, 14908, 595, 0, 0, 0, 0, 0
229, 3139871, 2, 2687, 0, 0, 511, 357, 485, 357, 485, 0, 0, 854, -44, -34, 35, -1848, 1608, 14946, 595, 0, 0, 0, 0, 0
230, 3149868, 2, 2687, 0, 0, 511, 272, 399, 272, 399, 0, 0, 858, -44, -33, 35, -1846, 1632, 14984, 595, 0, 0, 0, 0, 0
231, 3159841, 2, 2687, 0, 0, 511, 272, 399, 272, 399, 0, 0, 862, -44, -33, 35, -1850, 1622, 14952, 595, 0, 0, 0, 0, 0
232, 3169817, 2, 2687, 0, 0, 511, 272, 399, 272, 399, 0, 0, 865, -43, -33, 36, -1844, 1622, 14936, 595, 0, 0, 0, 0, 0
233, 3179811, 2, 2527, 0, 0, 511, 272, 399, 272, 399, 0, 0, 869, -45, -33, 36, -1870, 1612, 14944, 595, 0, 0, 0, 0, 0
234, 3189788, 2, 2527, 0, 0, 511, 252, 379, 252, 379, 0, 0, 872, -44, -32, 36, -1892, 1610, 14924, 595, 0, 0, 0, 0, 0
235, 3199764, 2, 1845, 0, 0, 511, 252, 379, 252, 379, 0, 0, 876, -44, -33, 36, -1896, 1640, 14932, 595, 0, 0, 0, 0, 0
236, 3209759, 2, 1845, 0, 0, 511, 200, 294, 200, 294, 0, 0, 880, -44, -32, 36, -1920, 1646, 14954, 595, 0, 0, 0, 0, 0
237, 3219730, 2, 0, 0, 0, 0, 200, 294, 200, 294, 0, 0, 883, -44, -33, 36, -1902, 1644, 14920, 595, 0, 0, 0, 0, 0
238, 3229707, 2, 0, 0, 0, 0, 0, 0, 0, 0, 0, 0, 887, -44, -33, 36, -1898, 1638, 14922, 595, 0, 0, 0, 0, 0
239, 3239693, 2, 0, 0, 0, 0, 0, 0, 0, 0, 0, 0, 891, -44, -33, 36, -1912, 1642, 14912, 595, 0, 0, 0, 0, 0
240, 3249661, 2, 0, 0, 0, 0, 0, 0, 0, 0, 0, 0, 894, -44, -34, 36, -1912, 1618, 14952, 595, 0, 0, 0, 0, 0
241, 3259697, 2, 0, 0, 0, 0, 0, 0, 0, 0, 0, 0, 898, -45, -33, 36, -1888, 1606, 14940, 595, 0, 0, 0, 0, 0
242, 3269634, 2, 1337, 0, 0, -512, 0, 0, 0, 0, 0, 0, 902, -44, -33, 35, -1894, 1604, 14914, 595, 0, 0, 0, 0, 0
243, 3279706, 2, 1337, 0, 0, -512, 167, 167, 167, 167, 0, 0, 905, -44, -33, 35, -1874, 1624, 14918, 595, 0, 0, 0, 0, 0
244, 3289608, 2, 0, 0, 0, 0, 167, 167, 167, 167, 0, 0, 909, -44, -33, 36, -1874, 1638, 14896, 595, 0, 0, 0, 0, 0
245, 3299712, 2, 0, 0, 0, 0, 0, 0, 0, 0, 0, 0, 913, -44, -32, 36, -1880, 1650, 14880, 595, 0, 0, 0, 0, 0
246, 3309563, 2, 1482, 0, 0, -512, 0, 0, 0, 0, 0, 0, 916, -44, -32, 36, -1888, 1656, 14872, 595, 0, 0, 0, 0, 0
247, 3319596, 2, 1482, 0, 0, -512, 185, 185, 185, 185, 0, 0, 920, -44, -33, 36, -1884, 1636, 14856, 595, 0, 0, 0, 0, 0
248, 3329525, 2, 1831, 0, 0, -512, 185, 185, 185, 185, 0, 0, 924, -44, -33, 36, -1886, 1626, 14898, 595, 0, 0, 0, 0, 0
249, 3339507, 2, 1831, 0, 0, -512, 292, 200, 292, 200, 0, 0, 927, -44, -33, 36, -1910, 1628, 14926, 595, 0, 0, 0, 0, 0
250, 3349493, 2, 2164, 0, 0, -512, 292, 200, 292, 200, 0, 0, 931, -44, -33, 36, -1886, 1632, 14966, 595, 0, 0, 0, 0, 0
251, 3359477, 2, 2164, 0, 0, -512, 334, 206, 334, 206, 0, 0, 935, -43, -33, 35, -1880, 1626, 14906, 595, 0, 0, 0, 0, 0
252, 3369466, 2, 2353, 0, 0, -512, 334, 206, 334, 206, 0, 0, 938, -44, -33, 35, -1872, 1640, 14946, 595, 0, 0, 0, 0, 0
253, 3379447, 2, 2353, 0, 0, -512, 358, 230, 358, 230, 0, 0, 942, -44, -33, 35, -1882, 1640, 14914, 595, 0, 0, 0, 0, 0
254, 3389433, 2, 2527, 0, 0, -512, 358, 230, 358, 230, 0, 0, 945, -44, -33, 35, -1888, 1616, 14948, 595, 0, 0, 0, 0, 0
255, 3399412, 2, 2527, 0, 0, -512, 379, 251, 379, 251, 0, 0, 949, -44, -33, 36, -1890, 1614, 14912, 595, 0, 0, 0, 0, 0
256, 3409402, 2, 2687, 0, 0, -512, 379, 251, 379, 251, 0, 0, 953, -44, -33, 36, -1894, 1604, 14904, 595, 0, 0, 0, 0, 0
257, 3419393, 2, 2687, 0, 0, -512, 399, 271, 399, 271, 0, 0, 956, -44, -34, 36, -1872, 1624, 14882, 595, 0, 0, 0, 0, 0
258, 3429364, 2, 2687, 0, 0, -476, 399, 271, 399, 271, 0, 0, 960, -44, -33, 36, -1842, 1656, 14894, 595, 0, 0, 0, 0, 0
259, 3439326, 2, 2687, 0, 0, -476, 395, 276, 395, 276, 0, 0, 964, -44, -33, 36, -1858, 1650, 14924, 595, 0, 0, 0, 0, 0
260, 3449329, 2, 2687, 0, 0, -476, 395, 276, 395, 276, 0, 0, 967, -44, -34, 35, -1866, 1664, 14886, 595, 0, 0, 0, 0, 0
261, 3459304, 2, 3282, 0, 0, 0, 395, 276, 395, 276, 0, 0, 971, -44, -33, 35, -1894, 1630, 14902, 595, 0, 0, 0, 0, 0
262, 3469328, 2, 3282, 0, 0, 0, 410, 410, 410, 410, 0, 0, 974, -44, -33, 35, -1902, 1606, 14874, 595, 0, 0, 0, 0, 0
263, 3479258, 2, 3471, 0, 0, 163, 410, 410, 410, 410, 0, 0, 978, -44, -33, 36, -1898, 1610, 14878, 595, 0, 0, 0, 0, 0
264, 3489512, 2, 3471, 0, 0, 163, 413, 454, 413, 454, 0, 0, 982, -44, -34, 35, -1888, 1624, 14884, 595, 0, 0, 0, 0, 0
265, 3499235, 2, 3935, 0, 0, 511, 413, 454, 413, 454, 0, 0, 985, -44, -34, 36, -1878, 1640, 14924, 595, 0, 0, 0, 0, 0
266, 3509338, 2, 3935, 0, 0, 511, 428, 555, 428, 555, 0, 0, 989, -44, -33, 35, -1886, 1622, 14950, 595, 0, 0, 0, 0, 0
267, 3519194, 2, 4008, 0, 0, 511, 428, 555, 428, 555, 0, 0, 993, -44, -33, 35, -1880, 1608, 14930, 595, 0, 0, 0, 0, 0
268, 3529184, 2, 4008, 0, 0, 511, 437, 564, 437, 564, 0, 0, 996, -45, -33, 35, -1892, 1594, 14932, 595, 0, 0, 0, 0, 0
269, 3539159, 2, 3543, 0, 0, 511, 437, 564, 437, 564, 0, 0, 1000, -44, -32, 36, -1896, 1594, 14920, 595, 0, 0, 0, 0, 0
270, 3549137, 2, 3543, 0, 0, 511, 379, 506, 379, 506, 0, 0, 1003, -44, -33, 35, -1878, 1610, 14934, 595, 0, 0, 0, 0, 0
271, 3559113, 2, 3268, 0, 0, 511, 379, 506, 379, 506, 0, 0, 1007, -44, -33, 35, -1872, 1624, 14920, 595, 0, 0, 0, 0, 0
272, 3569096, 2, 3268, 0, 0, 511, 344, 472, 344, 472, 0, 0, 1011, -44, -33, 36, -1876, 1646, 14910, 595, 0, 0, 0, 0, 0
273, 3579077, 2, 3035, 0, 0, 511, 344, 472, 344, 472, 0, 0, 1014, -44, -33, 36, -1874, 1656, 14918, 595, 0, 0, 0, 0, 0
274, 3589058, 2, 3035, 0, 0, 511, 315, 443, 315, 443, 0, 0, 1018, -44, -33, 36, -1890, 1648, 14900, 595, 0, 0, 0, 0, 0
275, 3599039, 2, 2760, 0, 0, 511, 315, 443, 315, 443, 0, 0, 1022, -44, -33, 36, -1914, 1628, 14896, 595, 0, 0, 0, 0, 0
276, 3609016, 2, 2760, 0, 0, 511, 281, 408, 281, 408, 0, 0, 1025, -44, -33, 35, -1922, 1614, 14908, 595, 0, 0, 0, 0, 0
277, 3619001, 2, 2687, 0, 0, 511, 281, 408, 281, 408, 0, 0, 1029, -44, -33, 35, -1894, 1620, 14930, 595, 0, 0, 0, 0, 0
278, 3628973, 2, 2687, 0, 0, 511, 272, 399, 272, 399, 0, 0, 1032, -43, -33, 35, -1896, 1628, 14934, 595, 0, 0, 0, 0, 0
279, 3638966, 2, 2687, 0, 0, 511, 272, 399, 272, 399, 0, 0, 1036, -44, -33, 35, -1874, 1626, 14940, 595, 0, 0, 0, 0, 0
280, 3648946, 2, 2687, 0, 0, 511, 272, 399, 272, 399, 0, 0, 1039, -44, -33, 35, -1856, 1626, 14916, 595, 0, 0, 0, 0, 0
281, 3658944, 2, 2687, 0, 0, 511, 272, 399, 272, 399, 0, 0, 1043, -44, -33, 36, -1860, 1600, 14920, 595, 0, 0, 0, 0, 0
282, 3668909, 2, 2470, 0, 0, 0, 272, 399, 272, 399, 0, 0, 1047, -44, -32, 36, -1870, 1606, 14938, 595, 0, 0, 0, 0, 0
283, 3678941, 2, 2470, 0, 0, 0, 308, 308, 308, 308, 0, 0, 1050, -43, -32, 36, -1888, 1596, 14916, 595, 0, 0, 0, 0, 0
284, 3688859, 2, 2266, 0, 0, -196, 308, 308, 308, 308, 0, 0, 1054, -44, -32, 36, -1890, 1612, 14902, 595, 0, 0, 0, 0, 0
285, 3698972, 2, 2266, 0, 0, -196, 307, 258, 307, 258, 0, 0, 1058, -43, -33, 36, -1908, 1634, 14908, 595, 0, 0, 0, 0, 0
286, 3708829, 2, 0, 0, 0, 0, 307, 258, 307, 258, 0, 0, 1061, -44, -33, 36, -1884, 1624, 14910, 595, 0, 0, 0, 0, 0
287, 3718913, 2, 0, 0, 0, 0, 0, 0, 0, 0, 0, 0, 1065, -44, -32, 35, -1846, 1626, 14922, 595, 0, 0, 0, 0, 0
288, 3728785, 2, 0, 0, 0, 0, 0, 0, 0, 0, 0, 0, 1068, -44, -33, 36, -1872, 1608, 14902, 595, 0, 0, 0, 0, 0
289, 3738761, 2, 0, 0, 0, 0, 0, 0, 0, 0, 0, 0, 1072, -44, -32, 35, -1848, 1638, 14932, 595, 0, 0, 0, 0, 0
290, 3748751, 2, 0, 0, 0, 0, 0, 0, 0, 0, 0, 0, 1076, -44, -33, 35, -1876, 1644, 14912, 595, 0, 0, 0, 0, 0
291, 3758720, 2, 0, 0, 0, 0, 0, 0, 0, 0, 0, 0, 1079, -44, -33, 35, -1884, 1636, 14932, 595, 0, 0, 0, 0, 0
292, 3768708, 2, 0, 0, 0, 0, 0, 0, 0, 0, 0, 0, 1083, -44, -33, 35, -1896, 1630, 14906, 595, 0, 0, 0, 0, 0
293, 3778701, 2, 0, 0, 0, 0, 0, 0, 0, 0, 0, 0, 1086, -43, -33, 35, -1922, 1608, 14938, 595, 0, 0, 0, 0, 0
294, 3788670, 2, 1439, 0, 0, -512, 0, 0, 0, 0, 0, 0, 1090, -44, -33, 35, -1898, 1624, 14928, 595, 0, 0, 0, 0, 0
295, 3798658, 2, 1439, 0, 0, -512, 179, 179, 179, 179, 0, 0, 1093, -44, -34, 36, -1872, 1610, 14968, 595, 0, 0, 0, 0, 0
296, 3808619, 2, 1497, 0, 0, -512, 179, 179, 179, 179, 0, 0, 1097, -44, -33, 35, -1852, 1634, 14916, 595, 0, 0, 0, 0, 0
297, 3818587, 2, 1497, 0, 0, -512, 187, 187, 187, 187, 0, 0, 1101, -44, -33, 36, -1862, 1620, 14908, 595, 0, 0, 0, 0, 0
298, 3828578, 2, 1613, 0, 0, -512, 187, 187, 187, 187, 0, 0, 1104, -45, -33, 36, -1852, 1616, 14944, 595, 0, 0, 0, 0, 0
299, 3838566, 2, 1613, 0, 0, -512, 265, 200, 265, 200, 0, 0, 1108, -44, -33, 36, -1864, 1590, 14942, 595, 0, 0, 0, 0, 0
300, 3848558, 2, 2310, 0, 0, -512, 265, 200, 265, 200, 0, 0, 1112, -44, -33, 36, -1894, 1578, 14940, 595, 0, 0, 0, 0, 0
301, 3858524, 2, 2310, 0, 0, -512, 352, 224, 352, 224, 0, 0, 1115, -44, -33, 35, -1892, 1596, 14958, 595, 0, 0, 0, 0, 0
302, 3868536, 2, 2310, 0, 0, -512, 352, 224, 352, 224, 0, 0, 1119, -43, -33, 35, -1902, 1616, 14946, 595, 0, 0, 0, 0, 0
303, 3878499, 2, 2687, 0, 0, -53, 352, 224, 352, 224, 0, 0, 1122, -44, -33, 36, -1890, 1644, 14952, 595, 0, 0, 0, 0, 0
304, 3888559, 2, 2687, 0, 0, -53, 342, 329, 342, 329, 0, 0, 1126, -44, -34, 36, -1888, 1646, 14940, 595, 0, 0, 0, 0, 0
305, 3898467, 2, 2919, 0, 0, 0, 342, 329, 342, 329, 0, 0, 1130, -44, -34, 36, -1886, 1630, 14940, 595, 0, 0, 0, 0, 0
306, 3908567, 2, 2919, 0, 0, 0, 364, 364, 364, 364, 0, 0, 1133, -44, -33, 36, -1878, 1630, 14936, 595, 0, 0, 0, 0, 0
307, 3918419, 2, 3297, 0, 0, 0, 364, 364, 364, 364, 0, 0, 1137, -44, -33, 36, -1872, 1624, 14934, 595, 0, 0, 0, 0, 0
308, 3928468, 2, 3297, 0, 0, 0, 412, 412, 412, 412, 0, 0, 1141, -44, -33, 36, -1882, 1620, 14916, 595, 0, 0, 0, 0, 0
309, 3938389, 2, 3906, 0, 0, 290, 412, 412, 412, 412, 0, 0, 1144, -44, -33, 36, -1890, 1602, 14926, 595, 0, 0, 0, 0, 0
310, 3948375, 2, 3906, 0, 0, 290, 452, 524, 452, 524, 0, 0, 1148, -44, -33, 36, -1884, 1634, 14936, 595, 0, 0, 0, 0, 0
311, 3958358, 2, 4095, 0, 0, 511, 452, 524, 452, 524, 0, 0, 1152, -43, -34, 35, -1874, 1636, 14920, 595, 0, 0, 0, 0, 0
312, 3968331, 2, 4095, 0, 0, 511, 448, 575, 448, 575, 0, 0, 1155, -43, -33, 36, -1880, 1644, 14932, 595, 0, 0, 0, 0, 0
313, 3978323, 2, 4095, 0, 0, 511, 448, 575, 448, 575, 0, 0, 1159, -43, -33, 36, -1888, 1632, 14880, 595, 0, 0, 0, 0, 0
314, 3988293, 2, 4095, 0, 0, 511, 448, 575, 448, 575, 0, 0, 1163, -44, -33, 36, -1882, 1614, 14912, 595, 0, 0, 0, 0, 0
315, 3998280, 2, 4008, 0, 0, 511, 448, 575, 448, 575, 0, 0, 1166, -44, -32, 36, -1880, 1604, 14906, 595, 0, 0, 0, 0, 0
316, 4008263, 2, 4008, 0, 0, 511, 437, 564, 437, 564, 0, 0, 1170, -43, -33, 35, -1870, 1604, 14924, 595, 0, 0, 0, 0, 0
317, 4018242, 2, 3761, 0, 0, 511, 437, 564, 437, 564, 0, 0, 1173, -44, -33, 36, -1888, 1616, 14956, 595, 0, 0, 0, 0, 0
318, 4028223, 2, 3761, 0, 0, 511, 406, 534, 406, 534, 0, 0, 1177, -44, -34, 35, -1890, 1636, 14940, 595, 0, 0, 0, 0, 0
319, 4038203, 2, 3427, 0, 0, 511, 406, 534, 406, 534, 0, 0, 1180, -44, -34, 35, -1884, 1642, 14940, 595, 0, 0, 0, 0, 0
320, 4048192, 2, 3427, 0, 0, 511, 364, 492, 364, 492, 0, 0, 1184, -44, -34, 35, -1910, 1632, 14916, 595, 0, 0, 0, 0, 0
321, 4058151, 2, 3035, 0, 0, 511, 364, 492, 364, 492, 0, 0, 1188, -45, -34, 35, -1912, 1622, 14914, 595, 0, 0, 0, 0, 0
322, 4068144, 2, 3035, 0, 0, 511, 315, 443, 315, 443, 0, 0, 1191, -44, -34, 35, -1918, 1620, 14904, 595, 0, 0, 0, 0, 0
323, 4078162, 2, 3035, 0, 0, 511, 315, 443, 315, 443, 0, 0, 1195, -44, -33, 36, -1912, 1608, 14926, 595, 0, 0, 0, 0, 0
324, 4088112, 2, 2687, 0, 0, 511, 315, 443, 315, 443, 0, 0, 1198, -44, -33, 36, -1886, 1618, 14922, 595, 0, 0, 0, 0, 0
325, 4098354, 2, 2687, 0, 0, 511, 272, 399, 272, 399, 0, 0, 1202, -44, -34, 36, -1852, 1622, 14918, 595, 0, 0, 0, 0, 0
326, 4108068, 2, 2527, 0, 0, 511, 272, 399, 272, 399, 0, 0, 1206, -44, -33, 35, -1836, 1656, 14872, 595, 0, 0, 0, 0, 0
327, 4118175, 2, 2527, 0, 0, 511, 252, 379, 252, 379, 0, 0, 1209, -44, -33, 35, -1844, 1666, 14912, 595, 0, 0, 0, 0, 0
328, 4128040, 2, 0, 0, 0, 0, 252, 379, 252, 379, 0, 0, 1213, -44, -33, 35, -1864, 1632, 14918, 595, 0, 0, 0, 0, 0
329, 4138037, 2, 0, 0, 0, 0, 0, 0, 0, 0, 0, 0, 1216, -44, -32, 35, -1878, 1628, 14926, 595, 0, 0, 0, 0, 0
330, 4147981, 2, 0, 0, 0, 0, 0, 0, 0, 0, 0, 0, 1220, -44, -32, 35, -1870, 1608, 14944, 595, 0, 0, 0, 0, 0
331, 4157977, 2, 0, 0, 0, 0, 0, 0, 0, 0, 0, 0, 1223, -44, -33, 36, -1920, 1628, 14942, 595, 0, 0, 0, 0, 0
332, 4167955, 2, 0, 0, 0, 0, 0, 0, 0, 0, 0, 0, 1227, -44, -32, 36, -1896, 1650, 14938, 595, 0, 0, 0, 0, 0
333, 4177947, 2, 0, 0, 0, 0, 0, 0, 0, 0, 0, 0, 1231, -44, -33, 35, -1886, 1658, 14930, 595, 0, 0, 0, 0, 0
334, 4187910, 2, 0, 0, 0, 0, 0, 0, 0, 0, 0, 0, 1234, -44, -33, 36, -1884, 1644, 14938, 595, 0, 0, 0, 0, 0
335, 4197897, 2, 0, 0, 0, 0, 0, 0, 0, 0, 0, 0, 1238, -44, -33, 36, -1868, 1620, 14930, 595, 0, 0, 0, 0, 0
336, 4207874, 2, 0, 0, 0, 0, 0, 0, 0, 0, 0, 0, 1241, -44, -33, 36, -1870, 1596, 14940, 595, 0, 0, 0, 0, 0
337, 4217859, 2, 0, 0, 0, 0, 0, 0, 0, 0, 0, 0, 1245, -44, -33, 36, -1886, 1618, 14930, 595, 0, 0, 0, 0, 0
338, 4227840, 2, 0, 0, 0, 0, 0, 0, 0, 0, 0, 0, 1249, -44, -33, 36, -1894, 1634, 14934, 595, 0, 0, 0, 0, 0
339, 4237824, 2, 0, 0, 0, 0, 0, 0, 0, 0, 0, 0, 1252, -44, -33, 36, -1904, 1628, 14912, 595, 0, 0, 0, 0, 0
340, 4247798, 2, 0, 0, 0, 0, 0, 0, 0, 0, 0, 0, 1256, -44, -32, 36, -1894, 1638, 14910, 595, 0, 0, 0, 0, 0
341, 4257799, 2, 0, 0, 0, 0, 0, 0, 0, 0, 0, 0, 1260, -43, -32, 36, -1900, 1630, 14906, 595, 0, 0, 0, 0, 0
342, 4267774, 2, 0, 0, 0, 0, 0, 0, 0, 0, 0, 0, 1263, -44, -33, 36, -1912, 1634, 14904, 595, 0, 0, 0, 0, 0
343, 4277747, 2, 0, 0, 0, 0, 0, 0, 0, 0, 0, 0, 1267, -44, -33, 36, -1898, 1640, 14886, 595, 0, 0, 0, 0, 0
344, 4287787, 2, 0, 0, 0, 0, 0, 0, 0, 0, 0, 0, 1271, -44, -33, 36, -1896, 1632, 14880, 595, 0, 0, 0, 0, 0
345, 4297710, 2, 2368, 0, 0, -512, 0, 0, 0, 0, 0, 0, 1274, -44, -33, 36, -1874, 1630, 14910, 595, 0, 0, 0, 0, 0
346, 4307812, 2, 2368, 0, 0, -512, 360, 232, 360, 232, 0, 0, 1278, -44, -33, 36, -1858, 1608, 14942, 595, 0, 0, 0, 0, 0
347, 4317682, 2, 2687, 0, 0, -512, 360, 232, 360, 232, 0, 0, 1282, -44, -34, 36, -1862, 1630, 14934, 595, 0, 0, 0, 0, 0
348, 4327788, 2, 2687, 0, 0, -512, 399, 271, 399, 271, 0, 0, 1285, -44, -33, 36, -1840, 1638, 14914, 595, 0, 0, 0, 0, 0
349, 4337635, 2, 2992, 0, 0, -354, 399, 271, 399, 271, 0, 0, 1289, -44, -33, 35, -1846, 1652, 14928, 595, 0, 0, 0, 0, 0
350, 4347628, 2, 2992, 0, 0, -354, 418, 329, 418, 329, 0, 0, 1292, -44, -32, 35, -1878, 1656, 14932, 595, 0, 0, 0, 0, 0
351, 4357591, 2, 3341, 0, 0, -254, 418, 329, 418, 329, 0, 0, 1296, -45, -32, 35, -1906, 1644, 14928, 595, 0, 0, 0, 0, 0
352, 4367569, 2, 3341, 0, 0, -254, 449, 385, 449, 385, 0, 0, 1299, -45, -32, 36, -1928, 1634, 14932, 595, 0, 0, 0, 0, 0
353, 4377555, 2, 3805, 0, 0, -111, 449, 385, 449, 385, 0, 0, 1303, -44, -33, 35, -1936, 1638, 14936, 595, 0, 0, 0, 0, 0
354, 4387531, 2, 3805, 0, 0, -111, 489, 461, 489, 461, 0, 0, 1306, -43, -33, 35, -1922, 1636, 14920, 595, 0, 0, 0, 0, 0
355, 4397522, 2, 4095, 0, 0, 0, 489, 461, 489, 461, 0, 0, 1310, -44, -34, 35, -1900, 1644, 14900, 595, 0, 0, 0, 0, 0
356, 4407489, 2, 4095, 0, 0, 0, 511, 511, 511, 511, 0, 0, 1314, -44, -34, 35, -1864, 1634, 14878, 595, 0, 0, 0, 0, 0
357, 4417473, 2, 4095, 0, 0, 0, 511, 511, 511, 511, 0, 0, 1317, -45, -34, 35, -1860, 1612, 14910, 595, 0, 0, 0, 0, 0
358, 4427457, 2, 4095, 0, 0, 0, 511, 511, 511, 511, 0, 0, 1321, -44, -33, 36, -1854, 1596, 14952, 595, 0, 0, 0, 0, 0
359, 4437423, 2, 4095, 0, 0, 263, 511, 511, 511, 511, 0, 0, 1324, -44, -33, 35, -1850, 1606, 14938, 595, 0, 0, 0, 0, 0
360, 4447402, 2, 4095, 0, 0, 263, 479, 544, 479, 544, 0, 0, 1328, -45, -32, 35, -1850, 1626, 14908, 595, 0, 0, 0, 0, 0
361, 4457398, 2, 4095, 0, 0, 511, 479, 544, 479, 544, 0, 0, 1331, -44, -32, 35, -1864, 1624, 14922, 595, 0, 0, 0, 0, 0
362, 4467375, 2, 4095, 0, 0, 511, 448, 575, 448, 575, 0, 0, 1335, -44, -32, 35, -1870, 1648, 14908, 595, 0, 0, 0, 0, 0
363, 4477371, 2, 4095, 0, 0, 511, 448, 575, 448, 575, 0, 0, 1338, -44, -32, 35, -1878, 1660, 14900, 595, 0, 0, 0, 0, 0
364, 4487345, 2, 4095, 0, 0, 511, 448, 575, 448, 575, 0, 0, 1342, -44, -33, 35, -1892, 1646, 14908, 595, 0, 0, 0, 0, 0
365, 4497403, 2, 4095, 0, 0, 511, 448, 575, 448, 575, 0, 0, 1346, -44, -33, 36, -1888, 1632, 14866, 595, 0, 0, 0, 0, 0
366, 4507297, 2, 3543, 0, 0, 511, 448, 575, 448, 575, 0, 0, 1349, -44, -33, 36, -1894, 1612, 14932, 595, 0, 0, 0, 0, 0
367, 4517405, 2, 3543, 0, 0, 511, 379, 506, 379, 506, 0, 0, 1353, -44, -33, 35, -1880, 1592, 14942, 595, 0, 0, 0, 0, 0
368, 4527267, 2, 2687, 0, 0, 511, 379, 506, 379, 506, 0, 0, 1356, -44, -33, 35, -1874, 1588, 14960, 595, 0, 0, 0, 0, 0
369, 4537325, 2, 2687, 0, 0, 511, 272, 399, 272, 399, 0, 0, 1360, -44, -33, 36, -1886, 1604, 14964, 595, 0, 0, 0, 0, 0
370, 4547215, 2, 2325, 0, 0, 511, 272, 399, 272, 399, 0, 0, 1364, -44, -33, 36, -1864, 1610, 14934, 595, 0, 0, 0, 0, 0
371, 4557199, 2, 2325, 0, 0, 511, 226, 354, 226, 354, 0, 0, 1367, -44, -33, 36, -1882, 1616, 14906, 595, 0, 0, 0, 0, 0
372, 4567179, 2, 0, 0, 0, 0, 226, 354, 226, 354, 0, 0, 1371, -44, -33, 36, -1888, 1626, 14920, 595, 0, 0, 0, 0, 0
373, 4577151, 2, 0, 0, 0, 0, 0, 0, 0, 0, 0, 0, 1375, -44, -33, 36, -1908, 1634, 14900, 595, 0, 0, 0, 0, 0
374, 4587148, 2, 0, 0, 0, 0, 0, 0, 0, 0, 0, 0, 1378, -44, -33, 35, -1926, 1632, 14910, 595, 0, 0, 0, 0, 0
375, 4597117, 2, 0, 0, 0, 0, 0, 0, 0, 0, 0, 0, 1382, -44, -33, 35, -1924, 1632, 14944, 595, 0, 0, 0, 0, 0
376, 4607099, 2, 0, 0, 0, 0, 0, 0, 0, 0, 0, 0, 1385, -43, -33, 35, -1892, 1636, 14920, 595, 0, 0, 0, 0, 0
377, 4617090, 2, 0, 0, 0, 0, 0, 0, 0, 0, 0, 0, 1389, -45, -34, 35, -1872, 1624, 14930, 595, 0, 0, 0, 0, 0
378, 4627067, 2, 0, 0, 0, 0, 0, 0, 0, 0, 0, 0, 1392, -44, -34, 36, -1850, 1610, 14938, 595, 0, 0, 0, 0, 0
379, 4637046, 2, 0, 0, 0, 0, 0, 0, 0, 0, 0, 0, 1396, -44, -33, 35, -1850, 1590, 14928, 595, 0, 0, 0, 0, 0
380, 4647036, 2, 0, 0, 0, 0, 0, 0, 0, 0, 0, 0, 1399, -44, -33, 35, -1860, 1608, 14922, 595, 0, 0, 0, 0, 0
381, 4657017, 2, 0, 0, 0, 0, 0, 0, 0, 0, 0, 0, 1403, -44, -33, 35, -1878, 1610, 14956, 595, 0, 0, 0, 0, 0
382, 4666993, 2, 0, 0, 0, 0, 0, 0, 0, 0, 0, 0, 1407, -44, -33, 36, -1890, 1622, 14958, 595, 0, 0, 0, 0, 0
383, 4676979, 2, 0, 0, 0, 0, 0, 0, 0, 0, 0, 0, 1410, -44, -33, 35, -1896, 1628, 14944, 595, 0, 0, 0, 0, 0
384, 4686983, 2, 0, 0, 0, 0, 0, 0, 0, 0, 0, 0, 1414, -44, -33, 35, -1882, 1648, 14936, 595, 0, 0, 0, 0, 0
385, 4696943, 2, 0, 0, 0, 0, 0, 0, 0, 0, 0, 0, 1417, -44, -32, 35, -1882, 1648, 14906, 595, 0, 0, 0, 0, 0
386, 4707163, 2, 0, 0, 0, 0, 0, 0, 0, 0, 0, 0, 1421, -44, -33, 35, -1882, 1626, 14906, 595, 0, 0, 0, 0, 0
387, 4716913, 2, 1570, 0, 0, -512, 0, 0, 0, 0, 0, 0, 1424, -44, -33, 35, -1878, 1628, 14908, 595, 0, 0, 0, 0, 0
388, 4727021, 2, 1570, 0, 0, -512, 196, 196, 196, 196, 0, 0, 1428, -44, -34, 36, -1876, 1598, 14916, 595, 0, 0, 0, 0, 0
389, 4736877, 2, 1715, 0, 0, -512, 196, 196, 196, 196, 0, 0, 1431, -44, -33, 35, -1892, 1622, 14920, 595, 0, 0, 0, 0, 0
390, 4746927, 2, 1715, 0, 0, -512, 278, 200, 278, 200, 0, 0, 1435, -44, -33, 36, -1874, 1596, 14916, 595, 0, 0, 0, 0, 0
391, 4756854, 2, 1816, 0, 0, -512, 278, 200, 278, 200, 0, 0, 1439, -44, -33, 36, -1866, 1614, 14918, 595, 0, 0, 0, 0, 0
392, 4766827, 2, 1816, 0, 0, -512, 291, 200, 291, 200, 0, 0, 1442, -44, -33, 36, -1852, 1616, 14916, 595, 0, 0, 0, 0, 0
393, 4776823, 2, 2005, 0, 0, -512, 291, 200, 291, 200, 0, 0, 1446, -44, -32, 35, -1848, 1618, 14928, 595, 0, 0, 0, 0, 0
394, 4786803, 2, 2005, 0, 0, -512, 314, 200, 314, 200, 0, 0, 1449, -44, -33, 35, -1876, 1616, 14942, 595, 0, 0, 0, 0, 0
395, 4796778, 2, 2049, 0, 0, -512, 314, 200, 314, 200, 0, 0, 1453, -45, -33, 36, -1880, 1614, 14922, 595, 0, 0, 0, 0, 0
396, 4806764, 2, 2049, 0, 0, -512, 320, 200, 320, 200, 0, 0, 1457, -45, -33, 35, -1884, 1616, 14954, 595, 0, 0, 0, 0, 0
397, 4816744, 2, 2034, 0, 0, -512, 320, 200, 320, 200, 0, 0, 1460, -45, -33, 35, -1888, 1624, 14952, 595, 0, 0, 0, 0, 0
398, 4826729, 2, 2034, 0, 0, -512, 318, 200, 318, 200, 0, 0, 1464, -44, -33, 36, -1882, 1638, 14930, 595, 0, 0, 0, 0, 0
399, 4836702, 2, 1787, 0, 0, -512, 318, 200, 318, 200, 0, 0, 1467, -45, -33, 35, -1904, 1642, 14904, 595, 0, 0, 0, 0, 0
400, 4846684, 2, 1787, 0, 0, -512, 287, 200, 287, 200, 0, 0, 1471, -44, -33, 36, -1890, 1650, 14908, 595, 0, 0, 0, 0, 0
401, 4856687, 2, 1584, 0, 0, -512, 287, 200, 287, 200, 0, 0, 1474, -44, -33, 36, -1892, 1628, 14928, 595, 0, 0, 0, 0, 0
402, 4866643, 2, 1584, 0, 0, -512, 198, 198, 198, 198, 0, 0, 1478, -44, -33, 36, -1892, 1622, 14920, 595, 0, 0, 0, 0, 0
403, 4876631, 2, 1425, 0, 0, -512, 198, 198, 198, 198, 0, 0, 1482, -44, -33, 36, -1882, 1614, 14914, 595, 0, 0, 0, 0, 0
404, 4886619, 2, 1425, 0, 0, -512, 178, 178, 178, 178, 0, 0, 1485, -44, -34, 35, -1868, 1614, 14920, 595, 0, 0, 0, 0, 0
405, 4896668, 2, 1425, 0, 0, -512, 178, 178, 178, 178, 0, 0, 1489, -44, -33, 35, -1868, 1614, 14910, 595, 0, 0, 0, 0, 0
406, 4906573, 2, 0, 0, 0, 0, 178, 178, 178, 178, 0, 0, 1493, -44, -33, 36, -1866, 1620, 14876, 595, 0, 0, 0, 0, 0
407, 4916679, 2, 0, 0, 0, 0, 0, 0, 0, 0, 0, 0, 1496, -44, -33, 35, -1870, 1632, 14904, 595, 0, 0, 0, 0, 0
408, 4926539, 2, 0, 0, 0, 0, 0, 0, 0, 0, 0, 0, 1500, -45, -33, 35, -1894, 1638, 14918, 595, 0, 0, 0, 0, 0
409, 4936647, 2, 0, 0, 0, 0, 0, 0, 0, 0, 0, 0, 1503, -45, -33, 35, -1876, 1642, 14932, 595, 0, 0, 0, 0, 0
410, 4946498, 2, 0, 0, 0, 0, 0, 0, 0, 0, 0, 0, 1507, -45, -33, 36, -1890, 1638, 14908, 595, 0, 0, 0, 0, 0
411, 4956529, 2, 0, 0, 0, 0, 0, 0, 0, 0, 0, 0, 1510, -44, -33, 36, -1884, 1636, 14930, 595, 0, 0, 0, 0, 0
412, 4966474, 2, 0, 0, 0, 0, 0, 0, 0, 0, 0, 0, 1514, -45, -33, 36, -1886, 1646, 14946, 595, 0, 0, 0, 0, 0
413, 4976446, 2, 0, 0, 0, 0, 0, 0, 0, 0, 0, 0, 1518, -44, -33, 36, -1864, 1626, 14938, 595, 0, 0, 0, 0, 0
414, 4986434, 2, 1947, 0, 0, 31, 0, 0, 0, 0, 0, 0, 1521, -45, -32, 36, -1880, 1616, 14932, 595, 0, 0, 0, 0, 0
415, 4996429, 2, 1947, 0, 0, 31, 239, 247, 239, 247, 0, 0, 1525, -44, -33, 36, -1872, 1612, 14928, 595, 0, 0, 0, 0, 0
416, 5006401, 2, 2121, 0, 0, 226, 239, 247, 239, 247, 0, 0, 1529, -44, -33, 35, -1892, 1628, 14942, 595, 0, 0, 0, 0, 0
417, 5016394, 2, 2121, 0, 0, 226, 236, 293, 236, 293, 0, 0, 1532, -44, -33, 35, -1892, 1624, 14940, 595, 0, 0, 0, 0, 0
418, 5026366, 2, 2353, 0, 0, 496, 236, 293, 236, 293, 0, 0, 1536, -44, -33, 35, -1894, 1620, 14964, 595, 0, 0, 0, 0, 0
419, 5036344, 2, 2353, 0, 0, 496, 232, 356, 232, 356, 0, 0, 1539, -44, -32, 35, -1892, 1622, 14962, 595, 0, 0, 0, 0, 0
420, 5046344, 2, 2687, 0, 0, 511, 232, 356, 232, 356, 0, 0, 1543, -44, -33, 36, -1900, 1626, 14956, 595, 0, 0, 0, 0, 0
421, 5056323, 2, 2687, 0, 0, 511, 272, 399, 272, 399, 0, 0, 1546, -44, -32, 36, -1890, 1612, 14930, 595, 0, 0, 0, 0, 0
422, 5066276, 2, 2687, 0, 0, 511, 272, 399, 272, 399, 0, 0, 1550, -45, -33, 36, -1876, 1596, 14912, 595, 0, 0, 0, 0, 0
423, 5076261, 2, 2687, 0, 0, 511, 272, 399, 272, 399, 0, 0, 1554, -44, -33, 36, -1858, 1608, 14914, 595, 0, 0, 0, 0, 0
424, 5086278, 2, 2687, 0, 0, 511, 272, 399, 272, 399, 0, 0, 1557, -44, -33, 36, -1866, 1606, 14916, 595, 0, 0, 0, 0, 0
425, 5096222, 2, 2687, 0, 0, 511, 272, 399, 272, 399, 0, 0, 1561, -44, -33, 35, -1868, 1618, 14930, 595, 0, 0, 0, 0, 0
426, 5106266, 2, 2687, 0, 0, 511, 272, 399, 272, 399, 0, 0, 1565, -44, -33, 36, -1858, 1626, 14924, 595, 0, 0, 0, 0, 0
427, 5116187, 2, 3007, 0, 0, 511, 272, 399, 272, 399, 0, 0, 1568, -44, -33, 36, -1874, 1624, 14928, 595, 0, 0, 0, 0, 0
428, 5126307, 2, 3007, 0, 0, 511, 312, 439, 312, 439, 0, 0, 1572, -44, -32, 36, -1866, 1626, 14928, 595, 0, 0, 0, 0, 0
429, 5136146, 2, 3950, 0, 0, 511, 312, 439, 312, 439, 0, 0, 1575, -44, -32, 36, -1870, 1632, 14916, 595, 0, 0, 0, 0, 0
430, 5146244, 2, 3950, 0, 0, 511, 429, 557, 429, 557, 0, 0, 1579, -44, -32, 36, -1886, 1636, 14926, 595, 0, 0, 0, 0, 0
431, 5156155, 2, 4095, 0, 0, 511, 429, 557, 429, 557, 0, 0, 1583, -44, -33, 35, -1878, 1618, 14932, 595, 0, 0, 0, 0, 0
432, 5166096, 2, 4095, 0, 0, 511, 448, 575, 448, 575, 0, 0, 1586, -44, -33, 35, -1874, 1604, 14920, 595, 0, 0, 0, 0, 0
433, 5176080, 2, 4095, 0, 0, 511, 448, 575, 448, 575, 0, 0, 1590, -44, -33, 35, -1882, 1628, 14904, 595, 0, 0, 0, 0, 0
434, 5186065, 2, 4095, 0, 0, 511, 448, 575, 448, 575, 0, 0, 1593, -44, -33, 35, -1884, 1622, 14910, 595, 0, 0, 0, 0, 0
435, 5196035, 2, 4095, 0, 0, 511, 448, 575, 448, 575, 0, 0, 1597, -43, -33, 35, -1874, 1640, 14918, 595, 0, 0, 0, 0, 0
436, 5206023, 2, 4095, 0, 0, 511, 448, 575, 448, 575, 0, 0, 1600, -44, -33, 35, -1878, 1634, 14924, 595, 0, 0, 0, 0, 0
437, 5216014, 2, 4095, 0, 0, 511, 448, 575, 448, 575, 0, 0, 1604, -44, -33, 35, -1864, 1620, 14926, 595, 0, 0, 0, 0, 0
438, 5225992, 2, 4095, 0, 0, 511, 448, 575, 448, 575, 0, 0, 1607, -44, -33, 35, -1856, 1614, 14914, 595, 0, 0, 0, 0, 0
439, 5235964, 2, 3413, 0, 0, 110, 448, 575, 448, 575, 0, 0, 1611, -44, -33, 36, -1882, 1610, 14920, 595, 0, 0, 0, 0, 0
440, 5245942, 2, 3413, 0, 0, 110, 412, 440, 412, 440, 0, 0, 1615, -43, -33, 36, -1884, 1606, 14904, 595, 0, 0, 0, 0, 0
441, 5255973, 2, 2687, 0, 0, 0, 412, 440, 412, 440, 0, 0, 1618, -43, -33, 35, -1880, 1618, 14916, 595, 0, 0, 0, 0, 0
442, 5265900, 2, 2687, 0, 0, 0, 335, 335, 335, 335, 0, 0, 1622, -44, -33, 36, -1892, 1634, 14912, 595, 0, 0, 0, 0, 0
443, 5275895, 2, 2687, 0, 0, 0, 335, 335, 335, 335, 0, 0, 1625, -44, -33, 36, -1896, 1634, 14924, 595, 0, 0, 0, 0, 0
444, 5285868, 2, 2687, 0, 0, 0, 335, 335, 335, 335, 0, 0, 1629, -44, -33, 35, -1902, 1632, 14912, 595, 0, 0, 0, 0, 0
445, 5295843, 2, 2687, 0, 0, 0, 335, 335, 335, 335, 0, 0, 1633, -44, -33, 36, -1904, 1648, 14948, 595, 0, 0, 0, 0, 0
446, 5305836, 2, 2687, 0, 0, 0, 335, 335, 335, 335, 0, 0, 1636, -44, -33, 36, -1892, 1632, 14930, 595, 0, 0, 0, 0, 0
447, 5316054, 2, 2687, 0, 0, 0, 335, 335, 335, 335, 0, 0, 1640, -44, -33, 36, -1898, 1642, 14928, 595, 0, 0, 0, 0, 0
448, 5325789, 2, 2687, 0, 0, 0, 335, 335, 335, 335, 0, 0, 1643, -44, -34, 36, -1882, 1642, 14928, 595, 0, 0, 0, 0, 0
449, 5335901, 2, 2687, 0, 0, 0, 335, 335, 335, 335, 0, 0, 1647, -44, -34, 35, -1870, 1624, 14914, 595, 0, 0, 0, 0, 0
450, 5345759, 2, 2687, 0, 0, 0, 335, 335, 335, 335, 0, 0, 1650, -44, -34, 36, -1870, 1632, 14910, 595, 0, 0, 0, 0, 0
451, 5355903, 2, 2687, 0, 0, 0, 335, 335, 335, 335, 0, 0, 1654, -43, -33, 36, -1858, 1630, 14910, 595, 0, 0, 0, 0, 0
452, 5365727, 2, 2687, 0, 0, 0, 335, 335, 335, 335, 0, 0, 1658, -43, -33, 36, -1874, 1628, 14900, 595, 0, 0, 0, 0, 0
453, 5375708, 2, 2687, 0, 0, 0, 335, 335, 335, 335, 0, 0, 1661, -43, -33, 36, -1870, 1612, 14910, 595, 0, 0, 0, 0, 0
454, 5385692, 2, 2687, 0, 0, 0, 335, 335, 335, 335, 0, 0, 1665, -44, -32, 36, -1864, 1614, 14902, 595, 0, 0, 0, 0, 0
455, 5395675, 2, 2687, 0, 0, 0, 335, 335, 335, 335, 0, 0, 1669, -43, -32, 36, -1888, 1624, 14892, 595, 0, 0, 0, 0, 0
456, 5405658, 2, 2687, 0, 0, 0, 335, 335, 335, 335, 0, 0, 1672, -43, -32, 36, -1898, 1622, 14914, 595, 0, 0, 0, 0, 0
457, 5415631, 2, 2687, 0, 0, 0, 335, 335, 335, 335, 0, 0, 1676, -43, -32, 35, -1888, 1614, 14906, 595, 0, 0, 0, 0, 0
458, 5425621, 2, 2571, 0, 0, 0, 335, 335, 335, 335, 0, 0, 1679, -44, -33, 35, -1894, 1618, 14918, 595, 0, 0, 0, 0, 0
459, 5435603, 2, 2571, 0, 0, 0, 321, 321, 321, 321, 0, 0, 1683, -44, -33, 35, -1894, 1614, 14910, 595, 0, 0, 0, 0, 0
460, 5445581, 2, 2237, 0, 0, 0, 321, 321, 321, 321, 0, 0, 1686, -44, -32, 35, -1896, 1620, 14942, 595, 0, 0, 0, 0, 0
461, 5455657, 2, 2237, 0, 0, 0, 279, 279, 279, 279, 0, 0, 1690, -43, -33, 35, -1890, 1610, 14914, 595, 0, 0, 0, 0, 0
462, 5465545, 2, 2179, 0, 0, 290, 279, 279, 279, 279, 0, 0, 1694, -43, -33, 35, -1894, 1618, 14918, 595, 0, 0, 0, 0, 0
463, 5475533, 2, 2179, 0, 0, 290, 236, 308, 236, 308, 0, 0, 1697, -43, -33, 36, -1876, 1634, 14914, 595, 0, 0, 0, 0, 0
464, 5485509, 2, 2164, 0, 0, 511, 236, 308, 236, 308, 0, 0, 1701, -43, -33, 36, -1876, 1632, 14904, 595, 0, 0, 0, 0, 0
465, 5495496, 2, 2164, 0, 0, 511, 206, 334, 206, 334, 0, 0, 1704, -43, -33, 35, -1860, 1610, 14906, 595, 0, 0, 0, 0, 0
466, 5505515, 2, 2164, 0, 0, 511, 206, 334, 206, 334, 0, 0, 1708, -44, -33, 36, -1860, 1604, 14938, 595, 0, 0, 0, 0, 0
467, 5515452, 2, 2150, 0, 0, 511, 206, 334, 206, 334, 0, 0, 1712, -44, -33, 36, -1894, 1604, 14910, 595, 0, 0, 0, 0, 0
468, 5525557, 2, 2150, 0, 0, 511, 204, 332, 204, 332, 0, 0, 1715, -44, -33, 36, -1912, 1620, 14942, 595, 0, 0, 0, 0, 0
469, 5535430, 2, 2121, 0, 0, 511, 204, 332, 204, 332, 0, 0, 1719, -43, -33, 35, -1912, 1634, 14912, 595, 0, 0, 0, 0, 0
470, 5545545, 2, 2121, 0, 0, 511, 201, 329, 201, 329, 0, 0, 1722, -44, -33, 35, -1902, 1644, 14920, 595, 0, 0, 0, 0, 0
471, 5555471, 2, 2107, 0, 0, 511, 201, 329, 201, 329, 0, 0, 1726, -44, -33, 35, -1880, 1642, 14940, 595, 0, 0, 0, 0, 0
472, 5565418, 2, 2107, 0, 0, 511, 200, 327, 200, 327, 0, 0, 1729, -44, -33, 35, -1886, 1638, 14938, 595, 0, 0, 0, 0, 0
473, 5575359, 2, 2368, 0, 0, 511, 200, 327, 200, 327, 0, 0, 1733, -44, -33, 35, -1876, 1628, 14942, 595, 0, 0, 0, 0, 0
474, 5585334, 2, 2368, 0, 0, 511, 232, 359, 232, 359, 0, 0, 1737, -45, -33, 36, -1880, 1612, 14950, 595, 0, 0, 0, 0, 0
475, 5595322, 2, 2687, 0, 0, 511, 232, 359, 232, 359, 0, 0, 1740, -44, -33, 35, -1872, 1628, 14932, 595, 0, 0, 0, 0, 0
476, 5605305, 2, 2687, 0, 0, 511, 272, 399, 272, 399, 0, 0, 1744, -44, -33, 36, -1874, 1636, 14908, 595, 0, 0, 0, 0, 0
477, 5615279, 2, 2992, 0, 0, 511, 272, 399, 272, 399, 0, 0, 1747, -44, -33, 35, -1894, 1656, 14928, 595, 0, 0, 0, 0, 0
478, 5625266, 2, 2992, 0, 0, 511, 310, 437, 310, 437, 0, 0, 1751, -44, -33, 35, -1898, 1642, 14924, 595, 0, 0, 0, 0, 0
479, 5635246, 2, 3906, 0, 0, 511, 310, 437, 310, 437, 0, 0, 1754, -44, -33, 35, -1884, 1622, 14908, 595, 0, 0, 0, 0, 0
480, 5645229, 2, 3906, 0, 0, 511, 424, 552, 424, 552, 0, 0, 1758, -44, -33, 35, -1900, 1624, 14922, 595, 0, 0, 0, 0, 0
481, 5655328, 2, 3906, 0, 0, 511, 424, 552, 424, 552, 0, 0, 1761, -44, -33, 35, -1908, 1614, 14926, 595, 0, 0, 0, 0, 0
482, 5665196, 2, 3906, 0, 0, 511, 424, 552, 424, 552, 0, 0, 1765, -44, -33, 35, -1890, 1616, 14946, 595, 0, 0, 0, 0, 0
483, 5675172, 2, 4037, 0, 0, 295, 424, 552, 424, 552, 0, 0, 1768, -44, -33, 35, -1880, 1620, 14944, 595, 0, 0, 0, 0, 0
484, 5685161, 2, 4037, 0, 0, 295, 467, 541, 467, 541, 0, 0, 1772, -44, -33, 35, -1882, 1640, 14936, 595, 0, 0, 0, 0, 0
485, 5695151, 2, 4037, 0, 0, 295, 467, 541, 467, 541, 0, 0, 1776, -44, -32, 36, -1870, 1634, 14948, 595, 0, 0, 0, 0, 0
486, 5705120, 2, 2687, 0, 0, 0, 467, 541, 467, 541, 0, 0, 1779, -44, -33, 35, -1876, 1630, 14944, 595, 0, 0, 0, 0, 0
487, 5715134, 2, 2687, 0, 0, 0, 335, 335, 335, 335, 0, 0, 1783, -44, -33, 36, -1884, 1628, 14912, 595, 0, 0, 0, 0, 0
488, 5725081, 2, 2687, 0, 0, 0, 335, 335, 335, 335, 0, 0, 1786, -44, -33, 36, -1896, 1612, 14916, 595, 0, 0, 0, 0, 0
489, 5735198, 2, 2687, 0, 0, 0, 335, 335, 335, 335, 0, 0, 1790, -43, -32, 36, -1892, 1618, 14910, 595, 0, 0, 0, 0, 0
490, 5745046, 2, 2687, 0, 0, 0, 335, 335, 335, 335, 0, 0, 1794, -43, -32, 36, -1888, 1642, 14926, 595, 0, 0, 0, 0, 0
491, 5755279, 2, 2687, 0, 0, 0, 335, 335, 335, 335, 0, 0, 1797, -44, -32, 36, -1874, 1632, 14924, 595, 0, 0, 0, 0, 0
492, 5765012, 2, 2687, 0, 0, 0, 335, 335, 335, 335, 0, 0, 1801, -44, -32, 36, -1876, 1632, 14918, 595, 0, 0, 0, 0, 0
493, 5775002, 2, 2687, 0, 0, 0, 335, 335, 335, 335, 0, 0, 1805, -44, -32, 36, -1892, 1640, 14890, 595, 0, 0, 0, 0, 0
494, 5784970, 2, 2687, 0, 0, 0, 335, 335, 335, 335, 0, 0, 1808, -44, -32, 36, -1882, 1632, 14888, 595, 0, 0, 0, 0, 0
495, 5794947, 2, 2687, 0, 0, 0, 335, 335, 335, 335, 0, 0, 1812, -44, -33, 36, -1904, 1632, 14886, 595, 0, 0, 0, 0, 0
496, 5804939, 2, 2586, 0, 0, 0, 335, 335, 335, 335, 0, 0, 1815, -45, -33, 35, -1930, 1642, 14908, 595, 0, 0, 0, 0, 0
497, 5814910, 2, 2586, 0, 0, 0, 323, 323, 323, 323, 0, 0, 1819, -45, -34, 35, -1924, 1638, 14908, 595, 0, 0, 0, 0, 0
498, 5824889, 2, 1772, 0, 0, 0, 323, 323, 323, 323, 0, 0, 1822, -45, -34, 35, -1894, 1646, 14906, 595, 0, 0, 0, 0, 0
499, 5834878, 2, 1772, 0, 0, 0, 221, 221, 221, 221, 0, 0, 1826, -45, -34, 35, -1856, 1638, 14924, 595, 0, 0, 0, 0, 0
500, 5844846, 2, 0, 0, 0, 0, 221, 221, 221, 221, 0, 0, 1829, -45, -34, 35, -1834, 1614, 14910, 595, 0, 0, 0, 0, 0
501, 5854979, 2, 0, 0, 0, 0, 0, 0, 0, 0, 0, 0, 1833, -44, -33, 35, -1858, 1580, 14900, 595, 0, 0, 0, 0, 0
502, 5864815, 2, 0, 0, 0, 0, 0, 0, 0, 0, 0, 0, 1836, -44, -33, 36, -1848, 1564, 14922, 595, 0, 0, 0, 0, 0
503, 5874792, 2, 0, 0, 0, 0, 0, 0, 0, 0, 0, 0, 1840, -44, -33, 36, -1864, 1584, 14928, 595, 0, 0, 0, 0, 0
504, 5884768, 2, 0, 0, 0, 0, 0, 0, 0, 0, 0, 0, 1844, -44, -32, 35, -1884, 1612, 14948, 595, 0, 0, 0, 0, 0
505, 5894746, 2, 0, 0, 0, 0, 0, 0, 0, 0, 0, 0, 1847, -43, -32, 35, -1912, 1636, 14942, 595, 0, 0, 0, 0, 0
506, 5904740, 2, 0, 0, 0, 0, 0, 0, 0, 0, 0, 0, 1851, -43, -32, 36, -1910, 1678, 14900, 595, 0, 0, 0, 0, 0
507, 5914712, 2, 0, 0, 0, 0, 0, 0, 0, 0, 0, 0, 1854, -43, -33, 36, -1926, 1662, 14922, 595, 0, 0, 0, 0, 0
508, 5924928, 2, 0, 0, 0, 0, 0, 0, 0, 0, 0, 0, 1858, -43, -33, 36, -1932, 1648, 14932, 595, 0, 0, 0, 0, 0
509, 5934681, 2, 0, 0, 0, 0, 0, 0, 0, 0, 0, 0, 1862, -44, -34, 36, -1914, 1618, 14944, 595, 0, 0, 0, 0, 0
510, 5944786, 2, 0, 0, 0, 0, 0, 0, 0, 0, 0, 0, 1865, -44, -34, 35, -1872, 1584, 14952, 595, 0, 0, 0, 0, 0
511, 5954809, 2, 0, 0, 0, 0, 0, 0, 0, 0, 0, 0, 1869, -44, -33, 35, -1838, 1582, 14946, 595, 0, 0, 0, 0, 0
512, 5964739, 2, 0, 0, 0, 0, 0, 0, 0, 0, 0, 0, 1872, -44, -33, 35, -1814, 1594, 14962, 595, 0, 0, 0, 0, 0
513, 5974599, 2, 2135, 0, 0, 511, 0, 0, 0, 0, 0, 0, 1876, -44, -33, 35, -1814, 1616, 14958, 595, 0, 0, 0, 0, 0
514, 5984604, 2, 2135, 0, 0, 511, 203, 330, 203, 330, 0, 0, 1879, -44, -33, 36, -1832, 1632, 14950, 595, 0, 0, 0, 0, 0
515, 5994581, 2, 2687, 0, 0, 511, 203, 330, 203, 330, 0, 0, 1883, -44, -32, 36, -1880, 1632, 14930, 595, 0, 0, 0, 0, 0
516, 6004555, 2, 2687, 0, 0, 511, 272, 399, 272, 399, 0, 0, 1887, -44, -33, 36, -1916, 1632, 14958, 595, 0, 0, 0, 0, 0
517, 6014534, 2, 3718, 0, 0, 511, 272, 399, 272, 399, 0, 0, 1890, -44, -33, 36, -1918, 1612, 14932, 595, 0, 0, 0, 0, 0
518, 6024523, 2, 3718, 0, 0, 511, 400, 528, 400, 528, 0, 0, 1894, -44, -33, 35, -1910, 1636, 14908, 595, 0, 0, 0, 0, 0
519, 6034495, 2, 4095, 0, 0, 511, 400, 528, 400, 528, 0, 0, 1898, -44, -33, 36, -1900, 1652, 14896, 595, 0, 0, 0, 0, 0
520, 6044494, 2, 4095, 0, 0, 511, 448, 575, 448, 575, 0, 0, 1901, -44, -34, 36, -1886, 1670, 14908, 595, 0, 0, 0, 0, 0
521, 6054677, 2, 4095, 0, 0, 511, 448, 575, 448, 575, 0, 0, 1905, -45, -34, 36, -1888, 1656, 14924, 595, 0, 0, 0, 0, 0
522, 6064448, 2, 4095, 0, 0, 511, 448, 575, 448, 575, 0, 0, 1908, -45, -34, 36, -1880, 1636, 14940, 595, 0, 0, 0, 0, 0
523, 6074432, 2, 4095, 0, 0, 496, 448, 575, 448, 575, 0, 0, 1912, -44, -34, 35, -1880, 1602, 14958, 595, 0, 0, 0, 0, 0
524, 6084427, 2, 4095, 0, 0, 496, 449, 573, 449, 573, 0, 0, 1915, -44, -34, 35, -1880, 1594, 14922, 595, 0, 0, 0, 0, 0
525, 6094403, 2, 4095, 0, 0, 411, 449, 573, 449, 573, 0, 0, 1919, -44, -34, 35, -1882, 1604, 14934, 595, 0, 0, 0, 0, 0
526, 6104382, 2, 4095, 0, 0, 411, 460, 563, 460, 563, 0, 0, 1923, -43, -34, 35, -1864, 1616, 14914, 595, 0, 0, 0, 0, 0
527, 6114404, 2, 4095, 0, 0, 411, 460, 563, 460, 563, 0, 0, 1926, -43, -33, 35, -1880, 1640, 14912, 595, 0, 0, 0, 0, 0
528, 6124336, 2, 4095, 0, 0, 58, 460, 563, 460, 563, 0, 0, 1930, -43, -33, 35, -1898, 1650, 14888, 595, 0, 0, 0, 0, 0
529, 6134394, 2, 4095, 0, 0, 58, 504, 519, 504, 519, 0, 0, 1933, -44, -32, 36, -1900, 1628, 14902, 595, 0, 0, 0, 0, 0
530, 6144313, 2, 2687, 0, 0, 0, 504, 519, 504, 519, 0, 0, 1937, -44, -33, 35, -1910, 1626, 14930, 595, 0, 0, 0, 0, 0
531, 6154637, 2, 2687, 0, 0, 0, 335, 335, 335, 335, 0, 0, 1940, -44, -33, 36, -1902, 1630, 14944, 595, 0, 0, 0, 0, 0
532, 6164262, 2, 2687, 0, 0, 0, 335, 335, 335, 335, 0, 0, 1944, -44, -34, 35, -1894, 1618, 14930, 595, 0, 0, 0, 0, 0
