index_log, time_stamp, mode, thrust, roll, pitch, yaw, ae[0], ae[1], ae[2], ae[3], phi, theta, psi, sp, sq, sr, sax, say, saz, bat_volt, P, P1, P2, temperature, pressure
0, 7813571, 0, 2687, 0, 0, 0, 0, 0, 0, 0, -139, -795, 2164, -43, 31, -32, -1840, 864, 14922, 602, 0, 0, 0, 0, 0
1, 7823702, 0, 2687, 0, 0, 0, 0, 0, 0, 0, -139, -795, 2167, -43, 31, -32, -1836, 830, 14962, 602, 0, 0, 0, 0, 0
2, 7833549, 0, 2687, 0, 0, 0, 0, 0, 0, 0, -139, -795, 2170, -44, 31, -32, -1824, 838, 14968, 602, 0, 0, 0, 0, 0
3, 7843672, 0, 2687, 0, 0, 0, 0, 0, 0, 0, -139, -795, 2174, -45, 31, -32, -1798, 816, 15012, 602, 0, 0, 0, 0, 0
4, 7853759, 0, 2687, 0, 0, 0, 0, 0, 0, 0, -140, -795, 2176, -44, 31, -31, -1788, 820, 14966, 595, 0, 0, 0, 0, 0
5, 7863513, 0, 2687, 0, 0, 0, 0, 0, 0, 0, -140, -795, 2179, -44, 31, -31, -1780, 810, 14972, 595, 0, 0, 0, 0, 0
6, 7873456, 0, 2687, 0, 0, 0, 0, 0, 0, 0, -140, -795, 2182, -45, 31, -31, -1790, 802, 14948, 595, 0, 0, 0, 0, 0
7, 7883436, 0, 2687, 0, 0, 0, 0, 0, 0, 0, -140, -795, 2185, -44, 31, -31, -1804, 828, 14944, 595, 0, 0, 0, 0, 0
8, 7893407, 0, 2687, 0, 0, 0, 0, 0, 0, 0, -140, -795, 2188, -45, 31, -31, -1810, 834, 14954, 595, 0, 0, 0, 0, 0
9, 7903671, 0, 2687, 0, 0, 0, 0, 0, 0, 0, -140, -795, 2191, -43, 31, -32, -1838, 846, 14928, 602, 0, 0, 0, 0, 0
10, 7913349, 0, 2687, 0, 0, 0, 0, 0, 0, 0, -140, -795, 2194, -43, 31, -31, -1876, 860, 14952, 602, 0, 0, 0, 0, 0
11, 7923326, 0, 2687, 0, 0, 0, 0, 0, 0, 0, -140, -795, 2197, -44, 31, -31, -1852, 870, 14938, 602, 0, 0, 0, 0, 0
12, 7933313, 0, 2687, 0, 0, 0, 0, 0, 0, 0, -140, -795, 2200, -44, 30, -31, -1844, 890, 14962, 602, 0, 0, 0, 0, 0
13, 7943287, 0, 2687, 0, 0, 0, 0, 0, 0, 0, -140, -796, 2203, -44, 31, -31, -1862, 872, 14930, 602, 0, 0, 0, 0, 0
14, 7953672, 0, 2687, 0, 0, 0, 0, 0, 0, 0, -139, -796, 2206, -44, 31, -32, -1862, 860, 14926, 595, 0, 0, 0, 0, 0
15, 7963231, 0, 2687, 0, 0, 0, 0, 0, 0, 0, -139, -796, 2209, -44, 31, -32, -1838, 866, 14918, 595, 0, 0, 0, 0, 0
16, 7973205, 0, 2687, 0, 0, 0, 0, 0, 0, 0, -139, -796, 2212, -44, 31, -31, -1816, 852, 14948, 595, 0, 0, 0, 0, 0
17, 7983207, 0, 2687, 0, 0, 0, 0, 0, 0, 0, -139, -796, 2215, -44, 31, -31, -1792, 840, 14960, 595, 0, 0, 0, 0, 0
18, 7993190, 0, 2687, 0, 0, 0, 0, 0, 0, 0, -139, -796, 2218, -44, 30, -32, -1788, 816, 14972, 595, 0, 0, 0, 0, 0
19, 8003645, 0, 2687, 0, 0, 0, 0, 0, 0, 0, -139, -796, 2221, -44, 30, -32, -1792, 830, 14972, 602, 0, 0, 0, 0, 0
20, 8013214, 0, 2687, 0, 0, 0, 0, 0, 0, 0, -139, -796, 2224, -44, 31, -32, -1804, 832, 14958, 602, 0, 0, 0, 0, 0
21, 8023101, 0, 2687, 0, 0, 0, 0, 0, 0, 0, -139, -796, 2227, -44, 31, -32, -1812, 832, 14954, 602, 0, 0, 0, 0, 0
22, 8033231, 0, 2687, 0, 0, 0, 0, 0, 0, 0, -140, -796, 2230, -44, 31, -32, -1824, 822, 14944, 602, 0, 0, 0, 0, 0
23, 8043075, 0, 2687, 0, 0, 0, 0, 0, 0, 0, -140, -796, 2233, -44, 31, -32, -1826, 826, 14958, 602, 0, 0, 0, 0, 0
24, 8053784, 0, 2687, 0, 0, 0, 0, 0, 0, 0, -140, -796, 2236, -44, 31, -32, -1824, 834, 14958, 595, 0, 0, 0, 0, 0
25, 8063023, 0, 2687, 0, 0, 0, 0, 0, 0, 0, -140, -796, 2239, -44, 31, -31, -1834, 852, 14950, 595, 0, 0, 0, 0, 0
26, 8073015, 0, 2687, 0, 0, 0, 0, 0, 0, 0, -140, -796, 2242, -44, 31, -32, -1832, 824, 14962, 595, 0, 0, 0, 0, 0
27, 8082971, 0, 2687, 0, 0, 0, 0, 0, 0, 0, -140, -796, 2245, -44, 31, -31, -1832, 830, 14972, 595, 0, 0, 0, 0, 0
28, 8092968, 0, 2687, 0, 0, 0, 0, 0, 0, 0, -140, -796, 2248, -44, 31, -32, -1828, 840, 14960, 595, 0, 0, 0, 0, 0
29, 8102938, 0, 2687, 0, 0, 0, 0, 0, 0, 0, -140, -796, 2251, -44, 31, -32, -1824, 854, 14958, 595, 0, 0, 0, 0, 0
30, 8112908, 0, 2687, 0, 0, 0, 0, 0, 0, 0, -140, -796, 2254, -44, 30, -32, -1838, 848, 14960, 595, 0, 0, 0, 0, 0
31, 8122903, 0, 2687, 0, 0, 0, 0, 0, 0, 0, -140, -796, 2257, -44, 30, -32, -1834, 854, 14948, 595, 0, 0, 0, 0, 0
32, 8132876, 0, 2687, 0, 0, 0, 0, 0, 0, 0, -140, -796, 2260, -44, 31, -32, -1842, 850, 14934, 595, 0, 0, 0, 0, 0
33, 8142848, 0, 2687, 0, 0, 0, 0, 0, 0, 0, -140, -796, 2263, -44, 30, -32, -1838, 852, 14964, 595, 0, 0, 0, 0, 0
34, 8152826, 0, 2687, 0, 0, 0, 0, 0, 0, 0, -140, -797, 2266, -44, 30, -32, -1832, 870, 14942, 595, 0, 0, 0, 0, 0
35, 8162813, 0, 2687, 0, 0, 0, 0, 0, 0, 0, -140, -797, 2269, -45, 30, -31, -1840, 860, 14922, 602, 0, 0, 0, 0, 0
36, 8172777, 0, 2687, 0, 0, 0, 0, 0, 0, 0, -139, -797, 2272, -44, 31, -32, -1858, 872, 14952, 602, 0, 0, 0, 0, 0
37, 8182766, 0, 2687, 0, 0, 0, 0, 0, 0, 0, -139, -797, 2275, -44, 31, -32, -1844, 860, 14950, 602, 0, 0, 0, 0, 0
38, 8192745, 0, 2687, 0, 0, 0, 0, 0, 0, 0, -139, -797, 2278, -45, 31, -32, -1850, 878, 14948, 602, 0, 0, 0, 0, 0
39, 8202753, 0, 2687, 0, 0, 0, 0, 0, 0, 0, -139, -797, 2281, -45, 31, -32, -1850, 846, 14960, 602, 0, 0, 0, 0, 0
40, 8212699, 0, 2687, 0, 0, 0, 0, 0, 0, 0, -139, -797, 2284, -44, 31, -32, -1828, 834, 14930, 595, 0, 0, 0, 0, 0
41, 8222793, 0, 2687, 0, 0, 0, 0, 0, 0, 0, -139, -797, 2287, -44, 31, -32, -1808, 820, 14948, 595, 0, 0, 0, 0, 0
42, 8232652, 0, 2687, 0, 0, 0, 0, 0, 0, 0, -139, -797, 2290, -44, 31, -32, -1790, 816, 14966, 595, 0, 0, 0, 0, 0
43, 8242804, 0, 2687, 0, 0, 0, 0, 0, 0, 0, -140, -797, 2293, -44, 31, -32, -1782, 824, 14980, 595, 0, 0, 0, 0, 0
44, 8252612, 0, 2687, 0, 0, 0, 0, 0, 0, 0, -140, -797, 2296, -44, 31, -31, -1776, 814, 14986, 595, 0, 0, 0, 0, 0
45, 8262695, 0, 2687, 0, 0, 0, 0, 0, 0, 0, -140, -797, 2299, -44, 31, -31, -1788, 828, 14962, 602, 0, 0, 0, 0, 0
46, 8272563, 0, 2687, 0, 0, 0, 0, 0, 0, 0, -140, -796, 2302, -44, 30, -32, -1784, 840, 14968, 602, 0, 0, 0, 0, 0
47, 8282538, 0, 2687, 0, 0, 0, 0, 0, 0, 0, -140, -796, 2305, -44, 30, -32, -1802, 850, 14958, 602, 0, 0, 0, 0, 0
48, 8292519, 0, 2687, 0, 0, 0, 0, 0, 0, 0, -140, -796, 2308, -43, 31, -32, -1812, 856, 14980, 602, 0, 0, 0, 0, 0
49, 8302506, 0, 2687, 0, 0, 0, 0, 0, 0, 0, -140, -796, 2311, -44, 31, -31, -1826, 838, 14952, 602, 0, 0, 0, 0, 0
50, 8312473, 0, 2687, 0, 0, 0, 0, 0, 0, 0, -140, -796, 2314, -44, 31, -32, -1854, 852, 14956, 595, 0, 0, 0, 0, 0
51, 8322456, 0, 2687, 0, 0, 0, 0, 0, 0, 0, -140, -796, 2317, -44, 31, -31, -1858, 862, 14930, 595, 0, 0, 0, 0, 0
52, 8332428, 0, 2687, 0, 0, 0, 0, 0, 0, 0, -139, -797, 2320, -44, 31, -32, -1840, 866, 14942, 595, 0, 0, 0, 0, 0
53, 8342421, 0, 2687, 0, 0, 0, 0, 0, 0, 0, -139, -797, 2323, -44, 31, -31, -1846, 838, 14942, 595, 0, 0, 0, 0, 0
54, 8352400, 0, 2687, 0, 0, 0, 0, 0, 0, 0, -139, -797, 2325, -44, 31, -31, -1858, 824, 14948, 595, 0, 0, 0, 0, 0
55, 8362366, 0, 2687, 0, 0, 0, 0, 0, 0, 0, -139, -797, 2328, -44, 31, -32, -1846, 816, 14962, 595, 0, 0, 0, 0, 0
56, 8372332, 0, 2687, 0, 0, 0, 0, 0, 0, 0, -140, -797, 2331, -44, 31, -32, -1828, 824, 14958, 595, 0, 0, 0, 0, 0
57, 8382307, 0, 2687, 0, 0, 0, 0, 0, 0, 0, -140, -797, 2334, -44, 31, -31, -1822, 806, 14968, 595, 0, 0, 0, 0, 0
58, 8392305, 0, 2687, 0, 0, 0, 0, 0, 0, 0, -140, -797, 2337, -44, 31, -31, -1832, 808, 14950, 595, 0, 0, 0, 0, 0
59, 8402282, 0, 2687, 0, 0, 0, 0, 0, 0, 0, -140, -797, 2340, -44, 31, -31, -1830, 822, 14958, 595, 0, 0, 0, 0, 0
60, 8412457, 0, 2687, 0, 0, 0, 0, 0, 0, 0, -140, -797, 2343, -44, 31, -32, -1818, 818, 14950, 595, 0, 0, 0, 0, 0
61, 8422219, 0, 2687, 0, 0, 0, 0, 0, 0, 0, -140, -797, 2346, -44, 30, -31, -1802, 834, 14936, 595, 0, 0, 0, 0, 0
62, 8432322, 0, 2687, 0, 0, 0, 0, 0, 0, 0, -140, -797, 2349, -44, 31, -32, -1786, 832, 14956, 595, 0, 0, 0, 0, 0
63, 8442193, 0, 2687, 0, 0, 0, 0, 0, 0, 0, -140, -797, 2352, -44, 31, -31, -1804, 836, 14970, 595, 0, 0, 0, 0, 0
64, 8452334, 0, 2687, 0, 0, 0, 0, 0, 0, 0, -140, -797, 2355, -44, 31, -31, -1818, 836, 14990, 595, 0, 0, 0, 0, 0
65, 8462143, 0, 2687, 0, 0, 0, 0, 0, 0, 0, -140, -797, 2358, -44, 31, -31, -1832, 822, 14980, 595, 0, 0, 0, 0, 0
66, 8472192, 0, 2687, 0, 0, 0, 0, 0, 0, 0, -140, -797, 2361, -44, 30, -31, -1820, 814, 14970, 595, 0, 0, 0, 0, 0
67, 8482093, 0, 2687, 0, 0, 0, 0, 0, 0, 0, -140, -797, 2364, -44, 31, -32, -1822, 808, 14950, 595, 0, 0, 0, 0, 0
68, 8492074, 0, 2687, 0, 0, 0, 0, 0, 0, 0, -141, -797, 2367, -44, 31, -32, -1814, 822, 14938, 595, 0, 0, 0, 0, 0
69, 8502060, 0, 2687, 0, 0, 0, 0, 0, 0, 0, -141, -797, 2370, -44, 30, -31, -1834, 814, 14928, 595, 0, 0, 0, 0, 0
70, 8512025, 0, 2687, 0, 0, 0, 0, 0, 0, 0, -141, -797, 2373, -44, 30, -31, -1832, 836, 14960, 595, 0, 0, 0, 0, 0
71, 8522006, 0, 2687, 0, 0, 0, 0, 0, 0, 0, -141, -797, 2376, -45, 31, -31, -1830, 846, 14976, 595, 0, 0, 0, 0, 0
72, 8531980, 0, 2687, 0, 0, 0, 0, 0, 0, 0, -141, -797, 2379, -44, 30, -32, -1834, 830, 14920, 595, 0, 0, 0, 0, 0
73, 8541959, 0, 2687, 0, 0, 0, 0, 0, 0, 0, -141, -797, 2382, -44, 30, -32, -1842, 840, 14938, 595, 0, 0, 0, 0, 0
74, 8551943, 0, 2687, 0, 0, 0, 0, 0, 0, 0, -141, -798, 2385, -44, 30, -32, -1856, 844, 14956, 595, 0, 0, 0, 0, 0
75, 8561926, 0, 2687, 0, 0, 0, 0, 0, 0, 0, -141, -798, 2388, -44, 31, -32, -1854, 832, 14952, 595, 0, 0, 0, 0, 0
76, 8571902, 0, 2687, 0, 0, 0, 0, 0, 0, 0, -141, -798, 2391, -44, 31, -32, -1846, 820, 14972, 595, 0, 0, 0, 0, 0
77, 8581890, 0, 2687, 0, 0, 0, 0, 0, 0, 0, -141, -798, 2394, -44, 30, -32, -1848, 826, 14972, 595, 0, 0, 0, 0, 0
78, 8591869, 0, 2687, 0, 0, 0, 0, 0, 0, 0, -141, -798, 2397, -44, 30, -32, -1832, 816, 14984, 595, 0, 0, 0, 0, 0
79, 8601851, 0, 2687, 0, 0, 0, 0, 0, 0, 0, -141, -798, 2400, -44, 30, -32, -1826, 822, 14952, 595, 0, 0, 0, 0, 0
80, 8611813, 0, 2687, 0, 0, 0, 0, 0, 0, 0, -141, -798, 2403, -44, 30, -31, -1816, 826, 14948, 595, 0, 0, 0, 0, 0
81, 8621855, 0, 2687, 0, 0, 0, 0, 0, 0, 0, -141, -799, 2406, -44, 30, -32, -1812, 818, 14940, 595, 0, 0, 0, 0, 0
82, 8631773, 0, 2687, 0, 0, 0, 0, 0, 0, 0, -141, -798, 2409, -44, 31, -32, -1810, 820, 14956, 595, 0, 0, 0, 0, 0
83, 8641881, 0, 2687, 0, 0, 0, 0, 0, 0, 0, -142, -798, 2412, -44, 31, -32, -1820, 818, 14966, 595, 0, 0, 0, 0, 0
84, 8651745, 0, 2687, 0, 0, 0, 0, 0, 0, 0, -142, -798, 2415, -44, 30, -32, -1826, 816, 14966, 595, 0, 0, 0, 0, 0
85, 8661873, 0, 2687, 0, 0, 0, 0, 0, 0, 0, -142, -799, 2418, -44, 30, -32, -1832, 818, 14968, 595, 0, 0, 0, 0, 0
86, 8671689, 0, 2687, 0, 0, 0, 0, 0, 0, 0, -142, -799, 2421, -44, 30, -32, -1836, 820, 14974, 595, 0, 0, 0, 0, 0
87, 8681708, 0, 2687, 0, 0, 0, 0, 0, 0, 0, -142, -799, 2424, -44, 31, -32, -1840, 830, 14952, 595, 0, 0, 0, 0, 0
88, 8691651, 0, 2687, 0, 0, 0, 0, 0, 0, 0, -142, -799, 2427, -44, 31, -31, -1848, 828, 14942, 595, 0, 0, 0, 0, 0
89, 8701625, 0, 2687, 0, 0, 0, 0, 0, 0, 0, -142, -799, 2430, -44, 31, -32, -1856, 842, 14962, 595, 0, 0, 0, 0, 0
90, 8711603, 0, 2687, 0, 0, 0, 0, 0, 0, 0, -142, -799, 2433, -44, 31, -32, -1848, 818, 14960, 595, 0, 0, 0, 0, 0
91, 8721579, 0, 2687, 0, 0, 0, 0, 0, 0, 0, -142, -799, 2436, -44, 31, -32, -1846, 826, 14974, 595, 0, 0, 0, 0, 0
92, 8731559, 0, 2687, 0, 0, 0, 0, 0, 0, 0, -142, -799, 2439, -44, 31, -32, -1848, 826, 14974, 595, 0, 0, 0, 0, 0
93, 8741543, 0, 2687, 0, 0, 0, 0, 0, 0, 0, -142, -799, 2442, -44, 31, -32, -1824, 816, 14960, 595, 0, 0, 0, 0, 0
94, 8751527, 0, 2687, 0, 0, 0, 0, 0, 0, 0, -142, -799, 2445, -44, 31, -32, -1824, 830, 14956, 595, 0, 0, 0, 0, 0
95, 8761498, 0, 2687, 0, 0, 0, 0, 0, 0, 0, -142, -799, 2448, -44, 31, -32, -1806, 836, 14940, 595, 0, 0, 0, 0, 0
96, 8771469, 0, 2687, 0, 0, 0, 0, 0, 0, 0, -142, -799, 2451, -44, 31, -31, -1810, 846, 14918, 595, 0, 0, 0, 0, 0
97, 8781460, 0, 2687, 0, 0, 0, 0, 0, 0, 0, -142, -799, 2454, -44, 31, -31, -1804, 832, 14948, 595, 0, 0, 0, 0, 0
98, 8791425, 0, 2687, 0, 0, 0, 0, 0, 0, 0, -142, -799, 2457, -44, 30, -31, -1798, 816, 14930, 595, 0, 0, 0, 0, 0
99, 8801407, 0, 2687, 0, 0, 0, 0, 0, 0, 0, -142, -799, 2460, -44, 31, -31, -1814, 814, 14980, 595, 0, 0, 0, 0, 0
100, 8811415, 0, 2687, 0, 0, 0, 0, 0, 0, 0, -143, -799, 2463, -44, 31, -31, -1838, 814, 14964, 602, 0, 0, 0, 0, 0
101, 8821374, 0, 2687, 0, 0, 0, 0, 0, 0, 0, -143, -799, 2466, -44, 31, -32, -1842, 816, 14976, 602, 0, 0, 0, 0, 0
102, 8831432, 0, 2687, 0, 0, 0, 0, 0, 0, 0, -143, -799, 2469, -44, 31, -32, -1856, 832, 14968, 602, 0, 0, 0, 0, 0
103, 8841320, 0, 2687, 0, 0, 0, 0, 0, 0, 0, -143, -799, 2472, -44, 31, -32, -1844, 846, 14972, 602, 0, 0, 0, 0, 0
104, 8851450, 0, 2687, 0, 0, 0, 0, 0, 0, 0, -143, -799, 2475, -44, 31, -32, -1826, 838, 14962, 602, 0, 0, 0, 0, 0
105, 8861276, 0, 2687, 0, 0, 0, 0, 0, 0, 0, -143, -799, 2478, -44, 31, -32, -1812, 818, 14950, 595, 0, 0, 0, 0, 0
106, 8871383, 0, 2687, 0, 0, 0, 0, 0, 0, 0, -143, -799, 2481, -44, 31, -32, -1818, 824, 14940, 595, 0, 0, 0, 0, 0
107, 8881231, 0, 2687, 0, 0, 0, 0, 0, 0, 0, -143, -799, 2484, -44, 31, -32, -1820, 828, 14928, 595, 0, 0, 0, 0, 0
108, 8891239, 0, 2687, 0, 0, 0, 0, 0, 0, 0, -143, -799, 2487, -44, 31, -32, -1814, 844, 14928, 595, 0, 0, 0, 0, 0
109, 8901198, 0, 2687, 0, 0, 0, 0, 0, 0, 0, -143, -799, 2490, -44, 31, -32, -1822, 846, 14932, 595, 0, 0, 0, 0, 0
110, 8911170, 0, 2687, 0, 0, 0, 0, 0, 0, 0, -143, -799, 2493, -44, 31, -31, -1820, 838, 14930, 602, 0, 0, 0, 0, 0
111, 8921143, 0, 2687, 0, 0, 0, 0, 0, 0, 0, -143, -799, 2496, -44, 31, -32, -1828, 838, 14936, 602, 0, 0, 0, 0, 0
112, 8931125, 0, 2687, 0, 0, 0, 0, 0, 0, 0, -143, -799, 2499, -44, 31, -32, -1854, 850, 14956, 602, 0, 0, 0, 0, 0
113, 8941109, 0, 2687, 0, 0, 0, 0, 0, 0, 0, -143, -799, 2502, -44, 31, -32, -1868, 856, 14940, 602, 0, 0, 0, 0, 0
114, 8951090, 0, 2687, 0, 0, 0, 0, 0, 0, 0, -143, -799, 2505, -44, 31, -32, -1852, 836, 14922, 602, 0, 0, 0, 0, 0
115, 8961066, 0, 2687, 0, 0, 0, 0, 0, 0, 0, -143, -799, 2508, -44, 31, -32, -1840, 838, 14942, 595, 0, 0, 0, 0, 0
116, 8971038, 0, 2687, 0, 0, 0, 0, 0, 0, 0, -143, -799, 2511, -44, 31, -32, -1840, 832, 14954, 595, 0, 0, 0, 0, 0
117, 8981013, 0, 2687, 0, 0, 0, 0, 0, 0, 0, -143, -800, 2514, -44, 31, -32, -1830, 834, 14936, 595, 0, 0, 0, 0, 0
118, 8991002, 0, 2687, 0, 0, 0, 0, 0, 0, 0, -143, -800, 2517, -44, 31, -32, -1816, 834, 14944, 595, 0, 0, 0, 0, 0
119, 9000980, 0, 2687, 0, 0, 0, 0, 0, 0, 0, -143, -799, 2520, -44, 31, -32, -1828, 834, 14964, 595, 0, 0, 0, 0, 0
120, 9010955, 0, 2687, 0, 0, 0, 0, 0, 0, 0, -143, -799, 2523, -44, 31, -32, -1802, 826, 14976, 602, 0, 0, 0, 0, 0
121, 9021146, 0, 2687, 0, 0, 0, 0, 0, 0, 0, -143, -799, 2526, -44, 31, -32, -1810, 836, 15000, 602, 0, 0, 0, 0, 0
122, 9030916, 0, 2687, 0, 0, 0, 0, 0, 0, 0, -143, -799, 2529, -44, 31, -32, -1808, 804, 14990, 602, 0, 0, 0, 0, 0
123, 9041000, 0, 2687, 0, 0, 0, 0, 0, 0, 0, -143, -799, 2532, -44, 31, -31, -1812, 806, 14972, 602, 0, 0, 0, 0, 0
124, 9050857, 0, 2687, 0, 0, 0, 0, 0, 0, 0, -143, -799, 2535, -44, 31, -31, -1816, 826, 14942, 602, 0, 0, 0, 0, 0
125, 9061006, 0, 2687, 0, 0, 0, 0, 0, 0, 0, -143, -799, 2538, -43, 31, -31, -1834, 824, 14968, 595, 0, 0, 0, 0, 0
126, 9070809, 0, 2687, 0, 0, 0, 0, 0, 0, 0, -143, -799, 2541, -43, 31, -31, -1842, 840, 14954, 595, 0, 0, 0, 0, 0
127, 9080913, 0, 2687, 0, 0, 0, 0, 0, 0, 0, -143, -799, 2544, -44, 31, -32, -1846, 836, 14942, 595, 0, 0, 0, 0, 0
128, 9090761, 0, 2687, 0, 0, 0, 0, 0, 0, 0, -143, -799, 2547, -44, 31, -32, -1854, 862, 14946, 595, 0, 0, 0, 0, 0
129, 9100755, 0, 2687, 0, 0, 0, 0, 0, 0, 0, -143, -799, 2550, -44, 31, -32, -1852, 866, 14974, 595, 0, 0, 0, 0, 0
130, 9110730, 0, 2687, 0, 0, 0, 0, 0, 0, 0, -143, -799, 2553, -44, 31, -32, -1834, 870, 14952, 602, 0, 0, 0, 0, 0
131, 9120693, 0, 2687, 0, 0, 0, 0, 0, 0, 0, -143, -799, 2556, -44, 31, -32, -1830, 856, 14930, 602, 0, 0, 0, 0, 0
132, 9130669, 0, 2687, 0, 0, 0, 0, 0, 0, 0, -142, -799, 2559, -44, 31, -32, -1828, 856, 14952, 602, 0, 0, 0, 0, 0
133, 9140658, 0, 2687, 0, 0, 0, 0, 0, 0, 0, -142, -799, 2562, -44, 31, -32, -1834, 860, 14948, 602, 0, 0, 0, 0, 0
134, 9150643, 0, 2687, 0, 0, 0, 0, 0, 0, 0, -142, -799, 2565, -44, 31, -32, -1810, 862, 14970, 602, 0, 0, 0, 0, 0
135, 9160614, 0, 2687, 0, 0, 0, 0, 0, 0, 0, -142, -799, 2568, -44, 31, -32, -1800, 848, 14962, 595, 0, 0, 0, 0, 0
136, 9170584, 0, 2687, 0, 0, 0, 0, 0, 0, 0, -142, -799, 2571, -44, 31, -32, -1800, 820, 14972, 595, 0, 0, 0, 0, 0
137, 9180557, 0, 2687, 0, 0, 0, 0, 0, 0, 0, -142, -799, 2574, -44, 31, -32, -1786, 814, 14934, 595, 0, 0, 0, 0, 0
138, 9190538, 0, 2687, 0, 0, 0, 0, 0, 0, 0, -142, -799, 2577, -44, 31, -32, -1804, 814, 14954, 595, 0, 0, 0, 0, 0
139, 9200531, 0, 2687, 0, 0, 0, 0, 0, 0, 0, -142, -799, 2580, -44, 31, -31, -1800, 820, 14954, 595, 0, 0, 0, 0, 0
140, 9210503, 0, 2687, 0, 0, 0, 0, 0, 0, 0, -142, -799, 2583, -44, 31, -31, -1814, 822, 14944, 602, 0, 0, 0, 0, 0
141, 9220472, 0, 2687, 0, 0, 0, 0, 0, 0, 0, -143, -799, 2586, -44, 31, -31, -1814, 824, 14938, 602, 0, 0, 0, 0, 0
142, 9230505, 0, 2687, 0, 0, 0, 0, 0, 0, 0, -143, -799, 2589, -44, 31, -31, -1820, 820, 14952, 602, 0, 0, 0, 0, 0
143, 9240454, 0, 2687, 0, 0, 0, 0, 0, 0, 0, -143, -799, 2592, -44, 31, -31, -1830, 832, 14972, 602, 0, 0, 0, 0, 0
144, 9250547, 0, 2687, 0, 0, 0, 0, 0, 0, 0, -143, -799, 2595, -44, 31, -31, -1858, 832, 14974, 602, 0, 0, 0, 0, 0
145, 9260392, 0, 2687, 0, 0, 0, 0, 0, 0, 0, -143, -799, 2598, -44, 31, -31, -1876, 856, 14960, 595, 0, 0, 0, 0, 0
146, 9270550, 0, 2687, 0, 0, 0, 0, 0, 0, 0, -143, -799, 2601, -44, 31, -31, -1872, 850, 14978, 595, 0, 0, 0, 0, 0
147, 9280367, 0, 2687, 0, 0, 0, 0, 0, 0, 0, -142, -799, 2604, -44, 31, -31, -1866, 850, 14966, 595, 0, 0, 0, 0, 0
148, 9290404, 0, 2687, 0, 0, 0, 0, 0, 0, 0, -142, -799, 2606, -44, 31, -32, -1862, 866, 14954, 595, 0, 0, 0, 0, 0
149, 9300309, 0, 2687, 0, 0, 0, 0, 0, 0, 0, -142, -800, 2609, -44, 31, -31, -1842, 878, 14956, 595, 0, 0, 0, 0, 0
150, 9310286, 0, 2687, 0, 0, 0, 0, 0, 0, 0, -142, -800, 2612, -44, 32, -32, -1820, 868, 14942, 602, 0, 0, 0, 0, 0
151, 9320267, 0, 2687, 0, 0, 0, 0, 0, 0, 0, -142, -799, 2615, -44, 31, -32, -1810, 866, 14954, 602, 0, 0, 0, 0, 0
152, 9330242, 0, 2687, 0, 0, 0, 0, 0, 0, 0, -142, -799, 2618, -44, 31, -32, -1802, 862, 14924, 602, 0, 0, 0, 0, 0
153, 9340236, 0, 2687, 0, 0, 0, 0, 0, 0, 0, -142, -799, 2621, -44, 31, -32, -1806, 858, 14952, 602, 0, 0, 0, 0, 0
154, 9350209, 0, 2687, 0, 0, 0, 0, 0, 0, 0, -142, -799, 2624, -45, 31, -32, -1824, 842, 14946, 602, 0, 0, 0, 0, 0
155, 9360185, 0, 2687, 0, 0, 0, 0, 0, 0, 0, -142, -799, 2627, -44, 31, -32, -1806, 828, 14962, 595, 0, 0, 0, 0, 0
156, 9370152, 0, 2687, 0, 0, 0, 0, 0, 0, 0, -142, -799, 2630, -44, 31, -32, -1812, 816, 14964, 595, 0, 0, 0, 0, 0
157, 9380138, 0, 2687, 0, 0, 0, 0, 0, 0, 0, -142, -799, 2634, -44, 31, -32, -1826, 784, 14962, 595, 0, 0, 0, 0, 0
158, 9390110, 0, 2687, 0, 0, 0, 0, 0, 0, 0, -142, -799, 2637, -44, 31, -32, -1820, 806, 14948, 595, 0, 0, 0, 0, 0
159, 9400101, 0, 2687, 0, 0, 0, 0, 0, 0, 0, -142, -799, 2640, -44, 31, -32, -1826, 812, 14978, 595, 0, 0, 0, 0, 0
160, 9410068, 0, 2687, 0, 0, 0, 0, 0, 0, 0, -142, -799, 2643, -44, 31, -32, -1812, 826, 14970, 602, 0, 0, 0, 0, 0
161, 9420068, 0, 2687, 0, 0, 0, 0, 0, 0, 0, -142, -799, 2646, -44, 31, -31, -1816, 830, 14948, 602, 0, 0, 0, 0, 0
162, 9430019, 0, 2687, 0, 0, 0, 0, 0, 0, 0, -142, -799, 2649, -44, 31, -31, -1802, 840, 14958, 602, 0, 0, 0, 0, 0
163, 9440065, 0, 2687, 0, 0, 0, 0, 0, 0, 0, -142, -799, 2651, -44, 31, -31, -1820, 848, 14968, 602, 0, 0, 0, 0, 0
164, 9449989, 0, 2687, 0, 0, 0, 0, 0, 0, 0, -142, -799, 2654, -44, 31, -31, -1816, 858, 14956, 602, 0, 0, 0, 0, 0
165, 9460094, 0, 2687, 0, 0, 0, 0, 0, 0, 0, -142, -799, 2657, -44, 30, -31, -1830, 864, 14960, 595, 0, 0, 0, 0, 0
166, 9469931, 0, 2687, 0, 0, 0, 0, 0, 0, 0, -142, -799, 2660, -44, 30, -32, -1844, 856, 14950, 595, 0, 0, 0, 0, 0
167, 9480090, 0, 2687, 0, 0, 0, 0, 0, 0, 0, -142, -799, 2663, -44, 31, -32, -1864, 868, 14958, 595, 0, 0, 0, 0, 0
168, 9489909, 0, 2687, 0, 0, 0, 0, 0, 0, 0, -142, -799, 2666, -44, 31, -31, -1860, 852, 14968, 595, 0, 0, 0, 0, 0
169, 9499926, 0, 2687, 0, 0, 0, 0, 0, 0, 0, -142, -799, 2669, -44, 30, -32, -1874, 838, 14962, 595, 0, 0, 0, 0, 0
170, 9509846, 0, 2687, 0, 0, 0, 0, 0, 0, 0, -142, -800, 2672, -44, 31, -32, -1848, 824, 14952, 602, 0, 0, 0, 0, 0
171, 9519834, 0, 2687, 0, 0, 0, 0, 0, 0, 0, -142, -800, 2675, -44, 31, -32, -1828, 798, 14976, 602, 0, 0, 0, 0, 0
172, 9529814, 0, 2687, 0, 0, 0, 0, 0, 0, 0, -142, -800, 2678, -44, 31, -32, -1810, 790, 14934, 602, 0, 0, 0, 0, 0
173, 9539783, 0, 2687, 0, 0, 0, 0, 0, 0, 0, -142, -800, 2681, -44, 30, -32, -1798, 804, 14938, 602, 0, 0, 0, 0, 0
174, 9549763, 0, 2687, 0, 0, 0, 0, 0, 0, 0, -143, -799, 2684, -44, 31, -32, -1820, 826, 14954, 602, 0, 0, 0, 0, 0
175, 9559739, 0, 2687, 0, 0, 0, 0, 0, 0, 0, -143, -799, 2687, -44, 30, -31, -1812, 842, 14922, 595, 0, 0, 0, 0, 0
176, 9569733, 0, 2687, 0, 0, 0, 0, 0, 0, 0, -143, -800, 2690, -44, 30, -31, -1836, 830, 14948, 595, 0, 0, 0, 0, 0
177, 9579702, 0, 2687, 0, 0, 0, 0, 0, 0, 0, -143, -800, 2693, -44, 30, -31, -1872, 858, 14922, 595, 0, 0, 0, 0, 0
178, 9589681, 0, 2687, 0, 0, 0, 0, 0, 0, 0, -142, -800, 2696, -44, 30, -32, -1876, 868, 14930, 595, 0, 0, 0, 0, 0
179, 9599655, 0, 2687, 0, 0, 0, 0, 0, 0, 0, -142, -800, 2699, -44, 30, -32, -1884, 880, 14912, 595, 0, 0, 0, 0, 0
180, 9609635, 0, 2687, 0, 0, 0, 0, 0, 0, 0, -142, -801, 2702, -44, 31, -33, -1898, 870, 14930, 602, 0, 0, 0, 0, 0
181, 9619616, 0, 2687, 0, 0, 0, 0, 0, 0, 0, -142, -801, 2705, -44, 31, -33, -1856, 868, 14964, 602, 0, 0, 0, 0, 0
182, 9629782, 0, 2687, 0, 0, 0, 0, 0, 0, 0, -142, -801, 2708, -44, 31, -33, -1838, 844, 14956, 602, 0, 0, 0, 0, 0
183, 9639572, 0, 2687, 0, 0, 0, 0, 0, 0, 0, -142, -801, 2711, -44, 31, -33, -1808, 810, 14972, 602, 0, 0, 0, 0, 0
184, 9649630, 0, 2687, 0, 0, 0, 0, 0, 0, 0, -142, -801, 2715, -44, 31, -32, -1788, 812, 14948, 602, 0, 0, 0, 0, 0
185, 9659535, 0, 2687, 0, 0, 0, 0, 0, 0, 0, -142, -801, 2718, -44, 31, -32, -1764, 798, 14948, 595, 0, 0, 0, 0, 0
186, 9669675, 0, 2687, 0, 0, 0, 0, 0, 0, 0, -142, -800, 2721, -44, 31, -32, -1758, 784, 14954, 595, 0, 0, 0, 0, 0
187, 9679484, 0, 2687, 0, 0, 0, 0, 0, 0, 0, -143, -800, 2724, -44, 31, -32, -1768, 786, 14948, 595, 0, 0, 0, 0, 0
188, 9689594, 0, 2687, 0, 0, 0, 0, 0, 0, 0, -143, -800, 2727, -44, 31, -32, -1780, 800, 14970, 595, 0, 0, 0, 0, 0
189, 9699445, 0, 2687, 0, 0, 0, 0, 0, 0, 0, -143, -799, 2730, -44, 31, -31, -1814, 828, 14972, 595, 0, 0, 0, 0, 0
190, 9709450, 0, 2687, 0, 0, 0, 0, 0, 0, 0, -143, -799, 2733, -45, 31, -32, -1832, 842, 14966, 602, 0, 0, 0, 0, 0
191, 9719406, 0, 2687, 0, 0, 0, 0, 0, 0, 0, -143, -799, 2736, -44, 31, -32, -1858, 854, 14954, 602, 0, 0, 0, 0, 0
192, 9729379, 0, 2687, 0, 0, 0, 0, 0, 0, 0, -143, -800, 2739, -44, 31, -32, -1876, 862, 14946, 602, 0, 0, 0, 0, 0
193, 9739362, 0, 2687, 0, 0, 0, 0, 0, 0, 0, -143, -800, 2742, -44, 31, -31, -1876, 880, 14952, 602, 0, 0, 0, 0, 0
194, 9749350, 0, 2687, 0, 0, 0, 0, 0, 0, 0, -143, -800, 2745, -44, 31, -32, -1860, 886, 14950, 602, 0, 0, 0, 0, 0
195, 9759328, 0, 2687, 0, 0, 0, 0, 0, 0, 0, -142, -800, 2748, -44, 31, -32, -1840, 874, 14962, 595, 0, 0, 0, 0, 0
196, 9769302, 0, 2687, 0, 0, 0, 0, 0, 0, 0, -142, -800, 2751, -44, 31, -32, -1820, 884, 14960, 595, 0, 0, 0, 0, 0
197, 9779276, 0, 2687, 0, 0, 0, 0, 0, 0, 0, -142, -800, 2754, -44, 31, -32, -1808, 866, 14950, 595, 0, 0, 0, 0, 0
198, 9789263, 0, 2687, 0, 0, 0, 0, 0, 0, 0, -142, -800, 2757, -45, 31, -32, -1806, 874, 14952, 595, 0, 0, 0, 0, 0
199, 9799248, 0, 2687, 0, 0, 0, 0, 0, 0, 0, -142, -800, 2760, -44, 31, -32, -1800, 858, 14978, 595, 0, 0, 0, 0, 0
200, 9809219, 0, 2687, 0, 0, 0, 0, 0, 0, 0, -142, -800, 2763, -44, 31, -32, -1792, 810, 14952, 602, 0, 0, 0, 0, 0
201, 9819196, 0, 2687, 0, 0, 0, 0, 0, 0, 0, -142, -800, 2766, -44, 32, -33, -1800, 780, 14944, 602, 0, 0, 0, 0, 0
202, 9829178, 0, 2687, 0, 0, 0, 0, 0, 0, 0, -142, -799, 2769, -44, 31, -32, -1820, 792, 14952, 602, 0, 0, 0, 0, 0
203, 9839199, 0, 2687, 0, 0, 0, 0, 0, 0, 0, -142, -800, 2772, -44, 30, -32, -1834, 784, 14968, 602, 0, 0, 0, 0, 0
204, 9849137, 0, 2687, 0, 0, 0, 0, 0, 0, 0, -143, -800, 2775, -45, 31, -32, -1858, 784, 14948, 602, 0, 0, 0, 0, 0
205, 9859222, 0, 2687, 0, 0, 0, 0, 0, 0, 0, -143, -800, 2778, -44, 30, -31, -1872, 778, 14942, 595, 0, 0, 0, 0, 0
206, 9869098, 0, 2687, 0, 0, 0, 0, 0, 0, 0, -143, -800, 2781, -44, 31, -31, -1872, 798, 14952, 595, 0, 0, 0, 0, 0
207, 9879230, 0, 2687, 0, 0, 0, 0, 0, 0, 0, -144, -800, 2784, -44, 31, -31, -1882, 808, 14962, 595, 0, 0, 0, 0, 0
208, 9889044, 0, 2687, 0, 0, 0, 0, 0, 0, 0, -144, -800, 2787, -44, 31, -32, -1862, 828, 14962, 595, 0, 0, 0, 0, 0
209, 9899133, 0, 2687, 0, 0, 0, 0, 0, 0, 0, -144, -801, 2790, -44, 31, -32, -1840, 848, 14958, 595, 0, 0, 0, 0, 0
210, 9909011, 0, 2687, 0, 0, 0, 0, 0, 0, 0, -144, -801, 2793, -44, 30, -31, -1836, 862, 14974, 602, 0, 0, 0, 0, 0
211, 9918978, 0, 2687, 0, 0, 0, 0, 0, 0, 0, -144, -801, 2796, -44, 31, -32, -1824, 878, 14956, 602, 0, 0, 0, 0, 0
212, 9928960, 0, 2687, 0, 0, 0, 0, 0, 0, 0, -143, -801, 2798, -44, 31, -31, -1794, 898, 14950, 602, 0, 0, 0, 0, 0
213, 9938940, 0, 2687, 0, 0, 0, 0, 0, 0, 0, -143, -801, 2801, -44, 31, -31, -1774, 896, 14960, 602, 0, 0, 0, 0, 0
214, 9948917, 0, 2687, 0, 0, 0, 0, 0, 0, 0, -143, -800, 2804, -45, 31, -31, -1764, 896, 14974, 602, 0, 0, 0, 0, 0
215, 9958897, 0, 2687, 0, 0, 0, 0, 0, 0, 0, -143, -800, 2807, -44, 31, -31, -1770, 866, 14988, 595, 0, 0, 0, 0, 0
216, 9968888, 0, 2687, 0, 0, 0, 0, 0, 0, 0, -142, -800, 2810, -44, 31, -31, -1790, 848, 14970, 595, 0, 0, 0, 0, 0
217, 9978856, 0, 2687, 0, 0, 0, 0, 0, 0, 0, -142, -799, 2813, -44, 31, -31, -1798, 838, 14978, 595, 0, 0, 0, 0, 0
218, 9988829, 0, 2687, 0, 0, 0, 0, 0, 0, 0, -142, -799, 2816, -44, 31, -31, -1808, 836, 14966, 595, 0, 0, 0, 0, 0
219, 9998812, 0, 2687, 0, 0, 0, 0, 0, 0, 0, -142, -799, 2819, -45, 31, -32, -1790, 814, 14970, 595, 0, 0, 0, 0, 0
220, 10008787, 0, 2687, 0, 0, 0, 0, 0, 0, 0, -143, -799, 2822, -44, 31, -32, -1816, 806, 14978, 602, 0, 0, 0, 0, 0
221, 10018763, 0, 2687, 0, 0, 0, 0, 0, 0, 0, -143, -799, 2825, -44, 31, -32, -1818, 798, 14972, 602, 0, 0, 0, 0, 0
222, 10028749, 0, 2687, 0, 0, 0, 0, 0, 0, 0, -143, -799, 2828, -44, 31, -31, -1814, 792, 14968, 602, 0, 0, 0, 0, 0
223, 10038732, 0, 2687, 0, 0, 0, 0, 0, 0, 0, -143, -799, 2831, -44, 31, -31, -1804, 796, 14980, 602, 0, 0, 0, 0, 0
224, 10048733, 0, 2687, 0, 0, 0, 0, 0, 0, 0, -143, -799, 2834, -44, 31, -31, -1814, 788, 14960, 602, 0, 0, 0, 0, 0
225, 10058680, 0, 2687, 0, 0, 0, 0, 0, 0, 0, -143, -799, 2837, -44, 30, -31, -1802, 812, 14998, 595, 0, 0, 0, 0, 0
226, 10068782, 0, 2687, 0, 0, 0, 0, 0, 0, 0, -144, -799, 2840, -44, 30, -31, -1802, 844, 14948, 595, 0, 0, 0, 0, 0
227, 10078650, 0, 2687, 0, 0, 0, 0, 0, 0, 0, -144, -799, 2843, -44, 30, -31, -1824, 844, 14994, 595, 0, 0, 0, 0, 0
228, 10088787, 0, 2687, 0, 0, 0, 0, 0, 0, 0, -144, -799, 2845, -45, 30, -31, -1848, 850, 14970, 595, 0, 0, 0, 0, 0
229, 10098600, 0, 2687, 0, 0, 0, 0, 0, 0, 0, -144, -799, 2848, -44, 30, -31, -1834, 876, 14974, 595, 0, 0, 0, 0, 0
230, 10108650, 0, 2687, 0, 0, 0, 0, 0, 0, 0, -143, -799, 2851, -44, 30, -32, -1852, 892, 14966, 602, 0, 0, 0, 0, 0
231, 10118565, 0, 2687, 0, 0, 0, 0, 0, 0, 0, -143, -799, 2854, -44, 31, -32, -1862, 876, 14950, 602, 0, 0, 0, 0, 0
232, 10128538, 0, 2687, 0, 0, 0, 0, 0, 0, 0, -143, -800, 2857, -44, 30, -32, -1860, 866, 14962, 602, 0, 0, 0, 0, 0
233, 10138512, 0, 2687, 0, 0, 0, 0, 0, 0, 0, -143, -800, 2860, -45, 30, -32, -1856, 858, 14968, 602, 0, 0, 0, 0, 0
234, 10148488, 0, 2687, 0, 0, 0, 0, 0, 0, 0, -143, -800, 2863, -45, 30, -32, -1856, 864, 14962, 602, 0, 0, 0, 0, 0
235, 10158470, 0, 2687, 0, 0, 0, 0, 0, 0, 0, -143, -800, 2866, -45, 30, -32, -1834, 852, 14954, 595, 0, 0, 0, 0, 0
236, 10168458, 0, 2687, 0, 0, 0, 0, 0, 0, 0, -143, -800, 2869, -44, 31, -32, -1820, 852, 14936, 595, 0, 0, 0, 0, 0
237, 10178427, 0, 2687, 0, 0, 0, 0, 0, 0, 0, -143, -800, 2872, -45, 31, -32, -1806, 842, 14960, 595, 0, 0, 0, 0, 0
238, 10188402, 0, 2687, 0, 0, 0, 0, 0, 0, 0, -143, -800, 2875, -45, 30, -32, -1796, 834, 14942, 595, 0, 0, 0, 0, 0
239, 10198369, 0, 2687, 0, 0, 0, 0, 0, 0, 0, -143, -800, 2878, -44, 31, -32, -1790, 844, 14932, 595, 0, 0, 0, 0, 0
240, 10208343, 0, 2687, 0, 0, 0, 0, 0, 0, 0, -143, -800, 2882, -44, 31, -32, -1792, 852, 14920, 602, 0, 0, 0, 0, 0
241, 10218334, 0, 2687, 0, 0, 0, 0, 0, 0, 0, -143, -800, 2885, -44, 31, -32, -1800, 860, 14920, 602, 0, 0, 0, 0, 0
242, 10228313, 0, 2687, 0, 0, 0, 0, 0, 0, 0, -143, -800, 2888, -45, 30, -32, -1808, 850, 14956, 602, 0, 0, 0, 0, 0
243, 10238464, 0, 2687, 0, 0, 0, 0, 0, 0, 0, -143, -800, 2891, -45, 31, -32, -1800, 842, 14968, 602, 0, 0, 0, 0, 0
244, 10248259, 0, 2687, 0, 0, 0, 0, 0, 0, 0, -143, -800, 2894, -45, 30, -32, -1796, 844, 14950, 602, 0, 0, 0, 0, 0
245, 10258285, 0, 2687, 0, 0, 0, 0, 0, 0, 0, -143, -799, 2897, -45, 31, -32, -1800, 848, 14950, 595, 0, 0, 0, 0, 0
246, 10268205, 0, 2687, 0, 0, 0, 0, 0, 0, 0, -143, -799, 2900, -44, 31, -32, -1824, 858, 14956, 595, 0, 0, 0, 0, 0
247, 10278335, 0, 2687, 0, 0, 0, 0, 0, 0, 0, -143, -799, 2903, -44, 31, -32, -1842, 878, 14950, 595, 0, 0, 0, 0, 0
248, 10288176, 0, 2687, 0, 0, 0, 0, 0, 0, 0, -143, -799, 2906, -45, 31, -32, -1852, 864, 14944, 595, 0, 0, 0, 0, 0
249, 10298315, 0, 2687, 0, 0, 0, 0, 0, 0, 0, -143, -799, 2909, -45, 31, -31, -1860, 848, 14938, 595, 0, 0, 0, 0, 0
250, 10308129, 0, 2687, 0, 0, 0, 0, 0, 0, 0, -143, -800, 2912, -44, 31, -32, -1866, 832, 14922, 602, 0, 0, 0, 0, 0
251, 10318159, 0, 2687, 0, 0, 0, 0, 0, 0, 0, -143, -800, 2915, -44, 31, -32, -1864, 830, 14914, 602, 0, 0, 0, 0, 0
252, 10328094, 0, 2687, 0, 0, 0, 0, 0, 0, 0, -143, -800, 2918, -44, 31, -32, -1838, 830, 14910, 602, 0, 0, 0, 0, 0
253, 10338064, 0, 2687, 0, 0, 0, 0, 0, 0, 0, -143, -800, 2921, -44, 30, -33, -1830, 850, 14904, 602, 0, 0, 0, 0, 0
254, 10348040, 0, 2687, 0, 0, 0, 0, 0, 0, 0, -143, -800, 2924, -44, 30, -32, -1818, 842, 14926, 602, 0, 0, 0, 0, 0
255, 10358014, 0, 2687, 0, 0, 0, 0, 0, 0, 0, -143, -800, 2927, -44, 30, -32, -1800, 832, 14922, 595, 0, 0, 0, 0, 0
256, 10368008, 0, 2687, 0, 0, 0, 0, 0, 0, 0, -143, -800, 2930, -44, 31, -32, -1788, 824, 14938, 595, 0, 0, 0, 0, 0
257, 10377994, 0, 2687, 0, 0, 0, 0, 0, 0, 0, -143, -800, 2933, -44, 31, -32, -1776, 814, 14950, 595, 0, 0, 0, 0, 0
258, 10387955, 0, 2687, 0, 0, 0, 0, 0, 0, 0, -143, -800, 2936, -43, 31, -31, -1780, 814, 14966, 595, 0, 0, 0, 0, 0
259, 10397938, 0, 2687, 0, 0, 0, 0, 0, 0, 0, -143, -799, 2939, -44, 31, -31, -1790, 814, 14950, 595, 0, 0, 0, 0, 0
260, 10407930, 0, 2687, 0, 0, 0, 0, 0, 0, 0, -143, -799, 2942, -44, 31, -31, -1804, 804, 14950, 602, 0, 0, 0, 0, 0
261, 10417898, 0, 2687, 0, 0, 0, 0, 0, 0, 0, -143, -799, 2945, -44, 31, -31, -1822, 828, 14950, 602, 0, 0, 0, 0, 0
262, 10427877, 0, 2687, 0, 0, 0, 0, 0, 0, 0, -143, -799, 2947, -44, 31, -31, -1824, 834, 14954, 602, 0, 0, 0, 0, 0
263, 10437859, 0, 2687, 0, 0, 0, 0, 0, 0, 0, -143, -799, 2950, -44, 31, -31, -1818, 842, 14970, 602, 0, 0, 0, 0, 0
264, 10447857, 0, 2687, 0, 0, 0, 0, 0, 0, 0, -143, -799, 2953, -44, 31, -31, -1826, 844, 14958, 602, 0, 0, 0, 0, 0
265, 10457810, 0, 2687, 0, 0, 0, 0, 0, 0, 0, -143, -799, 2956, -44, 31, -31, -1844, 838, 14962, 595, 0, 0, 0, 0, 0
266, 10467869, 0, 2687, 0, 0, 0, 0, 0, 0, 0, -143, -799, 2959, -44, 31, -31, -1862, 854, 14960, 595, 0, 0, 0, 0, 0
267, 10477778, 0, 2687, 0, 0, 0, 0, 0, 0, 0, -143, -799, 2962, -44, 31, -31, -1864, 848, 14948, 595, 0, 0, 0, 0, 0
268, 10487899, 0, 2687, 0, 0, 0, 0, 0, 0, 0, -143, -800, 2965, -44, 31, -32, -1862, 864, 14944, 595, 0, 0, 0, 0, 0
269, 10497720, 0, 2687, 0, 0, 0, 0, 0, 0, 0, -143, -800, 2968, -44, 31, -32, -1872, 862, 14936, 595, 0, 0, 0, 0, 0
270, 10507852, 0, 2687, 0, 0, 0, 0, 0, 0, 0, -143, -800, 2971, -44, 31, -32, -1858, 852, 14926, 602, 0, 0, 0, 0, 0
271, 10517693, 0, 2687, 0, 0, 0, 0, 0, 0, 0, -143, -800, 2974, -44, 31, -32, -1856, 844, 14936, 602, 0, 0, 0, 0, 0
272, 10527687, 0, 2687, 0, 0, 0, 0, 0, 0, 0, -143, -800, 2977, -44, 31, -32, -1838, 840, 14962, 602, 0, 0, 0, 0, 0
273, 10537655, 0, 2687, 0, 0, 0, 0, 0, 0, 0, -143, -800, 2980, -45, 31, -32, -1826, 832, 14964, 602, 0, 0, 0, 0, 0
274, 10547634, 0, 2687, 0, 0, 0, 0, 0, 0, 0, -143, -800, 2983, -45, 31, -31, -1810, 818, 14934, 602, 0, 0, 0, 0, 0
275, 10557609, 0, 2687, 0, 0, 0, 0, 0, 0, 0, -143, -800, 2986, -44, 31, -32, -1808, 824, 14948, 595, 0, 0, 0, 0, 0
276, 10567593, 0, 2687, 0, 0, 0, 0, 0, 0, 0, -143, -800, 2989, -45, 31, -32, -1802, 830, 14972, 595, 0, 0, 0, 0, 0
277, 10577562, 0, 2687, 0, 0, 0, 0, 0, 0, 0, -143, -800, 2992, -45, 32, -32, -1812, 816, 14954, 595, 0, 0, 0, 0, 0
278, 10587554, 0, 2687, 0, 0, 0, 0, 0, 0, 0, -144, -800, 2995, -44, 32, -31, -1830, 828, 14946, 595, 0, 0, 0, 0, 0
279, 10597529, 0, 2687, 0, 0, 0, 0, 0, 0, 0, -144, -800, 2998, -45, 31, -31, -1832, 830, 14952, 595, 0, 0, 0, 0, 0
280, 10607502, 0, 2687, 0, 0, 0, 0, 0, 0, 0, -144, -800, 3001, -44, 31, -31, -1814, 832, 14946, 602, 0, 0, 0, 0, 0
281, 10617486, 0, 2687, 0, 0, 0, 0, 0, 0, 0, -144, -799, 3004, -44, 31, -31, -1818, 832, 14952, 602, 0, 0, 0, 0, 0
282, 10627468, 0, 2687, 0, 0, 0, 0, 0, 0, 0, -144, -799, 3007, -44, 31, -31, -1830, 840, 14972, 602, 0, 0, 0, 0, 0
283, 10637442, 0, 2687, 0, 0, 0, 0, 0, 0, 0, -144, -799, 3010, -44, 31, -31, -1804, 838, 14934, 602, 0, 0, 0, 0, 0
284, 10647416, 0, 2687, 0, 0, 0, 0, 0, 0, 0, -144, -799, 3013, -44, 31, -31, -1806, 866, 14938, 602, 0, 0, 0, 0, 0
285, 10657437, 0, 2687, 0, 0, 0, 0, 0, 0, 0, -143, -799, 3015, -44, 31, -31, -1794, 864, 14950, 595, 0, 0, 0, 0, 0
286, 10667371, 0, 2687, 0, 0, 0, 0, 0, 0, 0, -143, -799, 3018, -44, 31, -31, -1820, 860, 14964, 595, 0, 0, 0, 0, 0
287, 10677450, 0, 2687, 0, 0, 0, 0, 0, 0, 0, -143, -799, 3021, -44, 31, -31, -1842, 864, 14974, 595, 0, 0, 0, 0, 0
288, 10687326, 0, 2687, 0, 0, 0, 0, 0, 0, 0, -143, -799, 3024, -44, 31, -32, -1866, 856, 14974, 595, 0, 0, 0, 0, 0
289, 10697469, 0, 2687, 0, 0, 0, 0, 0, 0, 0, -143, -799, 3027, -45, 30, -32, -1862, 850, 14976, 595, 0, 0, 0, 0, 0
290, 10707270, 0, 2687, 0, 0, 0, 0, 0, 0, 0, -143, -799, 3030, -44, 31, -31, -1862, 854, 14936, 602, 0, 0, 0, 0, 0
291, 10717368, 0, 2687, 0, 0, 0, 0, 0, 0, 0, -143, -800, 3033, -44, 31, -31, -1848, 836, 14956, 602, 0, 0, 0, 0, 0
292, 10727243, 0, 2687, 0, 0, 0, 0, 0, 0, 0, -143, -800, 3036, -44, 31, -31, -1854, 806, 14996, 602, 0, 0, 0, 0, 0
293, 10737215, 0, 2687, 0, 0, 0, 0, 0, 0, 0, -143, -800, 3039, -44, 30, -32, -1852, 820, 14962, 602, 0, 0, 0, 0, 0
294, 10747190, 0, 2687, 0, 0, 0, 0, 0, 0, 0, -143, -800, 3042, -44, 30, -32, -1844, 822, 14980, 602, 0, 0, 0, 0, 0
295, 10757170, 0, 2687, 0, 0, 0, 0, 0, 0, 0, -143, -800, 3045, -44, 30, -31, -1820, 830, 14980, 595, 0, 0, 0, 0, 0
296, 10767143, 0, 2687, 0, 0, 0, 0, 0, 0, 0, -143, -800, 3048, -44, 30, -31, -1814, 820, 14988, 595, 0, 0, 0, 0, 0
297, 10777129, 0, 2687, 0, 0, 0, 0, 0, 0, 0, -143, -800, 3051, -44, 31, -31, -1804, 818, 14946, 595, 0, 0, 0, 0, 0
298, 10787108, 0, 2687, 0, 0, 0, 0, 0, 0, 0, -143, -800, 3054, -44, 30, -32, -1808, 820, 14962, 595, 0, 0, 0, 0, 0
299, 10797081, 0, 2687, 0, 0, 0, 0, 0, 0, 0, -143, -800, 3057, -44, 30, -31, -1828, 840, 14948, 595, 0, 0, 0, 0, 0
300, 10807069, 0, 2687, 0, 0, 0, 0, 0, 0, 0, -143, -800, 3060, -44, 30, -32, -1820, 846, 14948, 602, 0, 0, 0, 0, 0
301, 10817019, 0, 2687, 0, 0, 0, 0, 0, 0, 0, -143, -800, 3063, -44, 30, -32, -1822, 844, 14942, 602, 0, 0, 0, 0, 0
302, 10827019, 0, 2687, 0, 0, 0, 0, 0, 0, 0, -143, -800, 3066, -44, 31, -32, -1816, 850, 14964, 602, 0, 0, 0, 0, 0
303, 10836999, 0, 2687, 0, 0, 0, 0, 0, 0, 0, -143, -800, 3069, -45, 31, -31, -1810, 858, 14998, 602, 0, 0, 0, 0, 0
304, 10847129, 0, 2687, 0, 0, 0, 0, 0, 0, 0, -143, -800, 3072, -45, 31, -32, -1814, 842, 14970, 602, 0, 0, 0, 0, 0
305, 10856966, 0, 2687, 0, 0, 0, 0, 0, 0, 0, -143, -800, 3075, -44, 31, -32, -1838, 846, 14962, 595, 0, 0, 0, 0, 0
306, 10866964, 0, 2687, 0, 0, 0, 0, 0, 0, 0, -143, -800, 3078, -44, 31, -32, -1844, 850, 14990, 595, 0, 0, 0, 0, 0
307, 10876918, 0, 2687, 0, 0, 0, 0, 0, 0, 0, -143, -800, 3081, -44, 31, -32, -1838, 846, 15004, 595, 0, 0, 0, 0, 0
308, 10887010, 0, 2687, 0, 0, 0, 0, 0, 0, 0, -143, -800, 3084, -44, 31, -32, -1850, 846, 15010, 595, 0, 0, 0, 0, 0
309, 10896861, 0, 2687, 0, 0, 0, 0, 0, 0, 0, -143, -800, 3087, -45, 30, -32, -1834, 832, 15004, 595, 0, 0, 0, 0, 0
310, 10907017, 0, 2687, 0, 0, 0, 0, 0, 0, 0, -143, -801, 3090, -45, 30, -32, -1844, 838, 14978, 602, 0, 0, 0, 0, 0
311, 10916832, 0, 2687, 0, 0, 0, 0, 0, 0, 0, -143, -801, 3093, -45, 30, -32, -1846, 850, 14984, 602, 0, 0, 0, 0, 0
312, 10926884, 0, 2687, 0, 0, 0, 0, 0, 0, 0, -143, -801, 3096, -44, 31, -32, -1826, 848, 14974, 602, 0, 0, 0, 0, 0
313, 10936790, 0, 2687, 0, 0, 0, 0, 0, 0, 0, -143, -801, 3099, -44, 30, -32, -1812, 854, 14972, 602, 0, 0, 0, 0, 0
314, 10946770, 0, 2687, 0, 0, 0, 0, 0, 0, 0, -143, -801, 3102, -44, 31, -32, -1814, 842, 14978, 602, 0, 0, 0, 0, 0
315, 10956751, 0, 2687, 0, 0, 0, 0, 0, 0, 0, -143, -801, 3105, -44, 31, -32, -1812, 846, 14954, 595, 0, 0, 0, 0, 0
316, 10966728, 0, 2687, 0, 0, 0, 0, 0, 0, 0, -143, -801, 3108, -44, 31, -31, -1814, 858, 14968, 595, 0, 0, 0, 0, 0
317, 10976710, 0, 2687, 0, 0, 0, 0, 0, 0, 0, -143, -801, 3111, -44, 31, -31, -1848, 864, 14970, 595, 0, 0, 0, 0, 0
318, 10986683, 0, 2687, 0, 0, 0, 0, 0, 0, 0, -143, -801, 3114, -44, 31, -32, -1846, 854, 14970, 595, 0, 0, 0, 0, 0
319, 10996663, 0, 2687, 0, 0, 0, 0, 0, 0, 0, -143, -801, 3117, -44, 31, -32, -1832, 846, 14954, 595, 0, 0, 0, 0, 0
320, 11006653, 0, 2687, 0, 0, 0, 0, 0, 0, 0, -143, -801, 3120, -44, 31, -32, -1838, 862, 14946, 602, 0, 0, 0, 0, 0
321, 11016616, 0, 2687, 0, 0, 0, 0, 0, 0, 0, -143, -801, 3123, -44, 31, -32, -1836, 860, 14932, 602, 0, 0, 0, 0, 0
322, 11026595, 0, 2687, 0, 0, 0, 0, 0, 0, 0, -143, -801, 3126, -44, 31, -31, -1838, 848, 14938, 602, 0, 0, 0, 0, 0
323, 11036581, 0, 2687, 0, 0, 0, 0, 0, 0, 0, -143, -801, 3129, -44, 30, -31, -1824, 842, 14934, 602, 0, 0, 0, 0, 0
324, 11046552, 0, 2687, 0, 0, 0, 0, 0, 0, 0, -143, -801, 3132, -45, 31, -32, -1818, 830, 14942, 602, 0, 0, 0, 0, 0
325, 11056586, 0, 2687, 0, 0, 0, 0, 0, 0, 0, -143, -801, 3135, -45, 31, -32, -1808, 830, 14954, 595, 0, 0, 0, 0, 0
326, 11066507, 0, 2687, 0, 0, 0, 0, 0, 0, 0, -143, -801, 3138, -45, 31, -32, -1812, 816, 15002, 595, 0, 0, 0, 0, 0
327, 11076548, 0, 2687, 0, 0, 0, 0, 0, 0, 0, -143, -801, 3141, -44, 31, -32, -1818, 840, 14966, 595, 0, 0, 0, 0, 0
328, 11086462, 0, 2687, 0, 0, 0, 0, 0, 0, 0, -143, -801, 3144, -44, 31, -31, -1836, 834, 14960, 595, 0, 0, 0, 0, 0
329, 11096571, 0, 2687, 0, 0, 0, 0, 0, 0, 0, -143, -801, 3147, -44, 31, -31, -1832, 846, 14964, 595, 0, 0, 0, 0, 0
330, 11106458, 0, 2687, 0, 0, 0, 0, 0, 0, 0, -143, -801, 3149, -44, 31, -31, -1830, 846, 14948, 602, 0, 0, 0, 0, 0
331, 11116570, 0, 2687, 0, 0, 0, 0, 0, 0, 0, -143, -801, 3152, -44, 30, -31, -1824, 828, 14976, 602, 0, 0, 0, 0, 0
332, 11126370, 0, 2687, 0, 0, 0, 0, 0, 0, 0, -143, -801, 3155, -44, 31, -31, -1826, 834, 14958, 602, 0, 0, 0, 0, 0
333, 11136417, 0, 2687, 0, 0, 0, 0, 0, 0, 0, -143, -801, 3158, -44, 30, -32, -1804, 850, 14932, 602, 0, 0, 0, 0, 0
334, 11146343, 0, 2687, 0, 0, 0, 0, 0, 0, 0, -143, -801, 3161, -44, 30, -32, -1806, 856, 14944, 602, 0, 0, 0, 0, 0
335, 11156350, 0, 2687, 0, 0, 0, 0, 0, 0, 0, -143, -801, 3164, -44, 30, -32, -1806, 840, 14942, 595, 0, 0, 0, 0, 0
336, 11166283, 0, 2687, 0, 0, 0, 0, 0, 0, 0, -143, -801, 3167, -44, 30, -32, -1820, 856, 14960, 595, 0, 0, 0, 0, 0
337, 11176266, 0, 2687, 0, 0, 0, 0, 0, 0, 0, -143, -801, 3170, -44, 31, -31, -1836, 860, 14946, 595, 0, 0, 0, 0, 0
338, 11186248, 0, 2687, 0, 0, 0, 0, 0, 0, 0, -143, -801, 3173, -44, 31, -31, -1832, 858, 14958, 595, 0, 0, 0, 0, 0
339, 11196224, 0, 2687, 0, 0, 0, 0, 0, 0, 0, -143, -801, 3176, -44, 31, -31, -1836, 858, 14942, 595, 0, 0, 0, 0, 0
340, 11206239, 0, 2687, 0, 0, 0, 0, 0, 0, 0, -143, -801, 3179, -45, 31, -31, -1860, 846, 14932, 602, 0, 0, 0, 0, 0
341, 11216194, 0, 2687, 0, 0, 0, 0, 0, 0, 0, -142, -801, 3182, -44, 31, -31, -1844, 846, 14940, 602, 0, 0, 0, 0, 0
342, 11226161, 0, 2687, 0, 0, 0, 0, 0, 0, 0, -143, -801, 3185, -45, 31, -31, -1850, 820, 14922, 602, 0, 0, 0, 0, 0
343, 11236131, 0, 2687, 0, 0, 0, 0, 0, 0, 0, -143, -801, 3188, -45, 31, -31, -1844, 838, 14918, 602, 0, 0, 0, 0, 0
344, 11246124, 0, 2687, 0, 0, 0, 0, 0, 0, 0, -143, -802, 3191, -44, 30, -32, -1832, 840, 14938, 602, 0, 0, 0, 0, 0
345, 11256117, 0, 2687, 0, 0, 0, 0, 0, 0, 0, -143, -802, 3194, -44, 30, -32, -1814, 838, 14906, 595, 0, 0, 0, 0, 0
346, 11266098, 0, 2687, 0, 0, 0, 0, 0, 0, 0, -143, -802, 3197, -44, 30, -32, -1808, 818, 14952, 595, 0, 0, 0, 0, 0
347, 11276054, 0, 2687, 0, 0, 0, 0, 0, 0, 0, -143, -802, 3200, -44, 31, -32, -1796, 824, 14958, 595, 0, 0, 0, 0, 0
348, 11286101, 0, 2687, 0, 0, 0, 0, 0, 0, 0, -143, -801, 3203, -44, 31, -31, -1800, 822, 14980, 595, 0, 0, 0, 0, 0
349, 11296017, 0, 2687, 0, 0, 0, 0, 0, 0, 0, -143, -801, 3206, -44, 31, -32, -1808, 830, 14972, 595, 0, 0, 0, 0, 0
350, 11306184, 0, 2687, 0, 0, 0, 0, 0, 0, 0, -143, -801, 3209, -45, 31, -31, -1828, 824, 14964, 602, 0, 0, 0, 0, 0
351, 11315971, 0, 2687, 0, 0, 0, 0, 0, 0, 0, -143, -801, 3212, -44, 30, -31, -1830, 846, 14970, 602, 0, 0, 0, 0, 0
352, 11326081, 0, 2687, 0, 0, 0, 0, 0, 0, 0, -143, -801, 3215, -44, 31, -31, -1832, 846, 14946, 602, 0, 0, 0, 0, 0
353, 11335936, 0, 2687, 0, 0, 0, 0, 0, 0, 0, -143, -801, 3218, -44, 31, -31, -1836, 854, 14962, 602, 0, 0, 0, 0, 0
354, 11345944, 0, 2687, 0, 0, 0, 0, 0, 0, 0, -143, -801, 3221, -44, 31, -31, -1832, 864, 14958, 602, 0, 0, 0, 0, 0
355, 11355920, 0, 2687, 0, 0, 0, 0, 0, 0, 0, -143, -801, 3223, -44, 31, -31, -1826, 842, 14972, 595, 0, 0, 0, 0, 0
356, 11365858, 0, 2687, 0, 0, 0, 0, 0, 0, 0, -143, -801, 3226, -45, 31, -31, -1816, 824, 14968, 595, 0, 0, 0, 0, 0
357, 11375830, 0, 2687, 0, 0, 0, 0, 0, 0, 0, -143, -801, 3229, -45, 31, -32, -1832, 822, 14980, 595, 0, 0, 0, 0, 0
358, 11385820, 0, 2687, 0, 0, 0, 0, 0, 0, 0, -143, -801, 3232, -45, 31, -32, -1840, 846, 14960, 595, 0, 0, 0, 0, 0
359, 11395798, 0, 2687, 0, 0, 0, 0, 0, 0, 0, -143, -801, 3235, -44, 31, -32, -1844, 844, 14958, 595, 0, 0, 0, 0, 0
360, 11405847, 0, 2687, 0, 0, 0, 0, 0, 0, 0, -143, -801, 3238, -44, 31, -32, -1838, 838, 14946, 602, 0, 0, 0, 0, 0
361, 11415741, 0, 2687, 0, 0, 0, 0, 0, 0, 0, -143, -801, 3241, -44, 31, -32, -1840, 828, 14938, 602, 0, 0, 0, 0, 0
362, 11425735, 0, 2687, 0, 0, 0, 0, 0, 0, 0, -143, -801, 3244, -44, 31, -32, -1832, 836, 14954, 602, 0, 0, 0, 0, 0
363, 11435690, 0, 2687, 0, 0, 0, 0, 0, 0, 0, -143, -801, 3248, -44, 31, -32, -1846, 834, 14960, 602, 0, 0, 0, 0, 0
364, 11445679, 0, 2687, 0, 0, 0, 0, 0, 0, 0, -143, -801, 3251, -44, 31, -32, -1838, 828, 14950, 602, 0, 0, 0, 0, 0
365, 11455871, 0, 2687, 0, 0, 0, 0, 0, 0, 0, -143, -801, 3254, -44, 31, -32, -1826, 828, 14946, 595, 0, 0, 0, 0, 0
366, 11465629, 0, 2687, 0, 0, 0, 0, 0, 0, 0, -143, -801, 3257, -44, 30, -32, -1806, 836, 14960, 595, 0, 0, 0, 0, 0
367, 11475630, 0, 2687, 0, 0, 0, 0, 0, 0, 0, -143, -801, 3260, -44, 30, -31, -1786, 840, 14958, 595, 0, 0, 0, 0, 0
368, 11485593, 0, 2687, 0, 0, 0, 0, 0, 0, 0, -143, -801, 3262, -44, 31, -31, -1788, 832, 14930, 595, 0, 0, 0, 0, 0
369, 11495669, 0, 2687, 0, 0, 0, 0, 0, 0, 0, -143, -801, 3265, -44, 31, -31, -1804, 842, 14940, 595, 0, 0, 0, 0, 0
370, 11505615, 0, 2687, 0, 0, 0, 0, 0, 0, 0, -143, -801, 3268, -44, 31, -31, -1812, 840, 14978, 602, 0, 0, 0, 0, 0
371, 11515684, 0, 2687, 0, 0, 0, 0, 0, 0, 0, -143, -801, 3271, -44, 30, -31, -1824, 858, 14952, 602, 0, 0, 0, 0, 0
372, 11525501, 0, 2687, 0, 0, 0, 0, 0, 0, 0, -143, -801, 3274, -44, 31, -31, -1838, 852, 14928, 602, 0, 0, 0, 0, 0
373, 11535599, 0, 2687, 0, 0, 0, 0, 0, 0, 0, -143, -801, 3277, -44, 30, -31, -1850, 856, 14920, 602, 0, 0, 0, 0, 0
374, 11545465, 0, 2687, 0, 0, 0, 0, 0, 0, 0, -143, -801, 3280, -44, 31, -31, -1854, 840, 14932, 602, 0, 0, 0, 0, 0
375, 11555516, 0, 2687, 0, 0, 0, 0, 0, 0, 0, -143, -801, 3283, -44, 31, -32, -1860, 846, 14934, 595, 0, 0, 0, 0, 0
376, 11565410, 0, 2687, 0, 0, 0, 0, 0, 0, 0, -143, -801, 3286, -44, 31, -32, -1846, 830, 14954, 595, 0, 0, 0, 0, 0
377, 11575407, 0, 2687, 0, 0, 0, 0, 0, 0, 0, -143, -802, 3289, -45, 31, -32, -1844, 824, 14954, 595, 0, 0, 0, 0, 0
378, 11585363, 0, 2687, 0, 0, 0, 0, 0, 0, 0, -143, -802, 3292, -45, 31, -32, -1840, 818, 14982, 595, 0, 0, 0, 0, 0
379, 11595357, 0, 2687, 0, 0, 0, 0, 0, 0, 0, -144, -802, 3295, -45, 31, -32, -1816, 812, 14988, 595, 0, 0, 0, 0, 0
380, 11605426, 0, 2687, 0, 0, 0, 0, 0, 0, 0, -144, -802, 3298, -44, 31, -32, -1806, 816, 14978, 602, 0, 0, 0, 0, 0
381, 11615318, 0, 2687, 0, 0, 0, 0, 0, 0, 0, -144, -801, 3301, -44, 31, -32, -1814, 828, 14952, 602, 0, 0, 0, 0, 0
382, 11625279, 0, 2687, 0, 0, 0, 0, 0, 0, 0, -144, -801, 3304, -45, 31, -31, -1800, 824, 14958, 602, 0, 0, 0, 0, 0
383, 11635260, 0, 2687, 0, 0, 0, 0, 0, 0, 0, -144, -801, 3307, -44, 31, -32, -1802, 810, 14964, 602, 0, 0, 0, 0, 0
384, 11645241, 0, 2687, 0, 0, 0, 0, 0, 0, 0, -144, -801, 3310, -44, 31, -31, -1796, 812, 14956, 602, 0, 0, 0, 0, 0
385, 11655326, 0, 2687, 0, 0, 0, 0, 0, 0, 0, -144, -801, 3313, -44, 31, -32, -1818, 840, 14960, 595, 0, 0, 0, 0, 0
386, 11665200, 0, 2687, 0, 0, 0, 0, 0, 0, 0, -144, -801, 3316, -44, 31, -32, -1818, 868, 14988, 595, 0, 0, 0, 0, 0
387, 11675170, 0, 2687, 0, 0, 0, 0, 0, 0, 0, -144, -801, 3319, -44, 31, -32, -1812, 866, 14966, 595, 0, 0, 0, 0, 0
388, 11685207, 0, 2687, 0, 0, 0, 0, 0, 0, 0, -144, -801, 3322, -45, 31, -31, -1820, 866, 14952, 595, 0, 0, 0, 0, 0
389, 11695139, 0, 2687, 0, 0, 0, 0, 0, 0, 0, -144, -801, 3325, -44, 31, -32, -1822, 868, 14976, 595, 0, 0, 0, 0, 0
390, 11705329, 0, 2687, 0, 0, 0, 0, 0, 0, 0, -144, -801, 3328, -44, 30, -31, -1828, 854, 14940, 602, 0, 0, 0, 0, 0
391, 11715091, 0, 2687, 0, 0, 0, 0, 0, 0, 0, -144, -801, 3331, -44, 30, -32, -1848, 830, 14954, 602, 0, 0, 0, 0, 0
392, 11725233, 0, 2687, 0, 0, 0, 0, 0, 0, 0, -144, -801, 3334, -44, 31, -32, -1846, 812, 14956, 602, 0, 0, 0, 0, 0
393, 11735048, 0, 2687, 0, 0, 0, 0, 0, 0, 0, -144, -801, 3337, -44, 31, -32, -1830, 812, 14952, 602, 0, 0, 0, 0, 0
394, 11745097, 0, 2687, 0, 0, 0, 0, 0, 0, 0, -144, -801, 3340, -44, 31, -32, -1814, 818, 14934, 602, 0, 0, 0, 0, 0
395, 11755124, 0, 2687, 0, 0, 0, 0, 0, 0, 0, -144, -801, 3343, -44, 31, -32, -1796, 834, 14934, 595, 0, 0, 0, 0, 0
396, 11764984, 0, 2687, 0, 0, 0, 0, 0, 0, 0, -144, -801, 3346, -45, 31, -32, -1796, 820, 14960, 595, 0, 0, 0, 0, 0
397, 11774964, 0, 2687, 0, 0, 0, 0, 0, 0, 0, -144, -801, 3349, -44, 31, -31, -1794, 810, 14950, 595, 0, 0, 0, 0, 0
398, 11784951, 0, 2687, 0, 0, 0, 0, 0, 0, 0, -144, -800, 3352, -45, 31, -31, -1808, 832, 14944, 595, 0, 0, 0, 0, 0
399, 11794930, 0, 2687, 0, 0, 0, 0, 0, 0, 0, -144, -800, 3355, -44, 31, -32, -1818, 828, 14932, 595, 0, 0, 0, 0, 0
400, 11805033, 0, 2687, 0, 0, 0, 0, 0, 0, 0, -144, -800, 3358, -44, 31, -31, -1820, 832, 14938, 602, 0, 0, 0, 0, 0
401, 11814879, 0, 2687, 0, 0, 0, 0, 0, 0, 0, -144, -800, 3361, -44, 31, -32, -1832, 814, 14934, 602, 0, 0, 0, 0, 0
402, 11824852, 0, 2687, 0, 0, 0, 0, 0, 0, 0, -144, -800, 3364, -45, 31, -32, -1842, 822, 14954, 602, 0, 0, 0, 0, 0
403, 11834847, 0, 2687, 0, 0, 0, 0, 0, 0, 0, -145, -800, 3367, -45, 31, -32, -1826, 812, 14974, 602, 0, 0, 0, 0, 0
404, 11844812, 0, 2687, 0, 0, 0, 0, 0, 0, 0, -145, -800, 3370, -44, 31, -32, -1816, 826, 14964, 602, 0, 0, 0, 0, 0
405, 11854967, 0, 2687, 0, 0, 0, 0, 0, 0, 0, -145, -800, 3373, -44, 31, -32, -1820, 830, 14958, 595, 0, 0, 0, 0, 0
406, 11864764, 0, 2687, 0, 0, 0, 0, 0, 0, 0, -145, -800, 3376, -44, 31, -31, -1818, 804, 14962, 595, 0, 0, 0, 0, 0
407, 11874731, 0, 2687, 0, 0, 0, 0, 0, 0, 0, -145, -800, 3379, -44, 31, -32, -1820, 824, 14950, 595, 0, 0, 0, 0, 0
408, 11884730, 0, 2687, 0, 0, 0, 0, 0, 0, 0, -145, -800, 3382, -44, 31, -32, -1812, 838, 14932, 595, 0, 0, 0, 0, 0
409, 11894776, 0, 2687, 0, 0, 0, 0, 0, 0, 0, -145, -800, 3385, -44, 31, -31, -1818, 850, 14942, 595, 0, 0, 0, 0, 0
410, 11904885, 0, 2687, 0, 0, 0, 0, 0, 0, 0, -145, -800, 3388, -44, 32, -31, -1814, 854, 14924, 602, 0, 0, 0, 0, 0
411, 11914786, 0, 2687, 0, 0, 0, 0, 0, 0, 0, -145, -800, 3391, -44, 31, -32, -1814, 860, 14928, 602, 0, 0, 0, 0, 0
412, 11924647, 0, 2687, 0, 0, 0, 0, 0, 0, 0, -145, -800, 3394, -45, 31, -31, -1826, 868, 14948, 602, 0, 0, 0, 0, 0
413, 11934786, 0, 2687, 0, 0, 0, 0, 0, 0, 0, -145, -800, 3397, -44, 31, -31, -1826, 852, 14938, 602, 0, 0, 0, 0, 0
414, 11944596, 0, 2687, 0, 0, 0, 0, 0, 0, 0, -145, -800, 3400, -44, 31, -32, -1844, 848, 14940, 602, 0, 0, 0, 0, 0
415, 11954815, 0, 2687, 0, 0, 0, 0, 0, 0, 0, -145, -800, 3403, -44, 31, -32, -1804, 824, 14966, 595, 0, 0, 0, 0, 0
416, 11964562, 0, 2687, 0, 0, 0, 0, 0, 0, 0, -145, -800, 3406, -44, 31, -32, -1800, 840, 14972, 595, 0, 0, 0, 0, 0
417, 11974540, 0, 2687, 0, 0, 0, 0, 0, 0, 0, -145, -799, 3409, -45, 31, -32, -1832, 842, 14966, 595, 0, 0, 0, 0, 0
418, 11984514, 0, 2687, 0, 0, 0, 0, 0, 0, 0, -145, -799, 3412, -44, 31, -32, -1842, 840, 14942, 595, 0, 0, 0, 0, 0
419, 11994492, 0, 2687, 0, 0, 0, 0, 0, 0, 0, -145, -799, 3415, -45, 32, -32, -1836, 838, 14950, 595, 0, 0, 0, 0, 0
420, 12004646, 0, 2687, 0, 0, 0, 0, 0, 0, 0, -145, -799, 3418, -44, 31, -32, -1836, 858, 14992, 602, 0, 0, 0, 0, 0
421, 12014451, 0, 2687, 0, 0, 0, 0, 0, 0, 0, -145, -799, 3421, -44, 31, -31, -1844, 854, 14988, 602, 0, 0, 0, 0, 0
422, 12024429, 0, 2687, 0, 0, 0, 0, 0, 0, 0, -144, -800, 3423, -44, 31, -31, -1836, 850, 14954, 602, 0, 0, 0, 0, 0
423, 12034398, 0, 2687, 0, 0, 0, 0, 0, 0, 0, -144, -800, 3426, -44, 31, -32, -1838, 834, 14958, 602, 0, 0, 0, 0, 0
424, 12044385, 0, 2687, 0, 0, 0, 0, 0, 0, 0, -145, -800, 3429, -45, 31, -32, -1834, 830, 14952, 602, 0, 0, 0, 0, 0
425, 12054557, 0, 2687, 0, 0, 0, 0, 0, 0, 0, -145, -800, 3432, -45, 31, -32, -1830, 848, 14948, 595, 0, 0, 0, 0, 0
426, 12064508, 0, 2687, 0, 0, 0, 0, 0, 0, 0, -145, -800, 3435, -44, 31, -32, -1816, 852, 14954, 595, 0, 0, 0, 0, 0
427, 12074320, 0, 2687, 0, 0, 0, 0, 0, 0, 0, -145, -800, 3438, -44, 31, -32, -1824, 822, 14932, 595, 0, 0, 0, 0, 0
428, 12084329, 0, 2687, 0, 0, 0, 0, 0, 0, 0, -145, -800, 3441, -44, 31, -32, -1818, 804, 14954, 595, 0, 0, 0, 0, 0
429, 12094281, 0, 2687, 0, 0, 0, 0, 0, 0, 0, -145, -799, 3444, -44, 31, -32, -1846, 804, 14958, 595, 0, 0, 0, 0, 0
430, 12104563, 0, 2687, 0, 0, 0, 0, 0, 0, 0, -145, -800, 3447, -44, 31, -32, -1850, 820, 14952, 602, 0, 0, 0, 0, 0
431, 12114242, 0, 2687, 0, 0, 0, 0, 0, 0, 0, -145, -800, 3451, -44, 31, -32, -1870, 816, 14956, 602, 0, 0, 0, 0, 0
432, 12124360, 0, 2687, 0, 0, 0, 0, 0, 0, 0, -145, -800, 3454, -44, 31, -32, -1880, 836, 14940, 602, 0, 0, 0, 0, 0
433, 12134191, 0, 2687, 0, 0, 0, 0, 0, 0, 0, -145, -800, 3457, -44, 31, -32, -1854, 842, 14940, 602, 0, 0, 0, 0, 0
434, 12144322, 0, 2687, 0, 0, 0, 0, 0, 0, 0, -145, -800, 3460, -44, 31, -32, -1824, 840, 14950, 602, 0, 0, 0, 0, 0
435, 12154386, 0, 2687, 0, 0, 0, 0, 0, 0, 0, -145, -800, 3463, -44, 31, -32, -1826, 834, 14922, 595, 0, 0, 0, 0, 0
436, 12164164, 0, 2687, 0, 0, 0, 0, 0, 0, 0, -145, -800, 3466, -44, 31, -32, -1814, 840, 14934, 595, 0, 0, 0, 0, 0
437, 12174112, 0, 2687, 0, 0, 0, 0, 0, 0, 0, -145, -800, 3469, -44, 31, -32, -1806, 846, 14962, 595, 0, 0, 0, 0, 0
438, 12184092, 0, 2687, 0, 0, 0, 0, 0, 0, 0, -145, -800, 3472, -44, 31, -32, -1802, 842, 14986, 595, 0, 0, 0, 0, 0
439, 12194071, 0, 2687, 0, 0, 0, 0, 0, 0, 0, -145, -800, 3475, -44, 30, -32, -1816, 826, 15002, 595, 0, 0, 0, 0, 0
440, 12204279, 0, 2687, 0, 0, 0, 0, 0, 0, 0, -145, -800, 3478, -44, 31, -32, -1822, 832, 14966, 602, 0, 0, 0, 0, 0
441, 12214018, 0, 2687, 0, 0, 0, 0, 0, 0, 0, -145, -800, 3481, -43, 31, -32, -1824, 826, 14960, 602, 0, 0, 0, 0, 0
442, 12224012, 0, 2687, 0, 0, 0, 0, 0, 0, 0, -145, -800, 3484, -44, 31, -32, -1836, 834, 14954, 602, 0, 0, 0, 0, 0
443, 12233990, 0, 2687, 0, 0, 0, 0, 0, 0, 0, -145, -800, 3487, -44, 31, -32, -1838, 828, 14940, 602, 0, 0, 0, 0, 0
444, 12243972, 0, 2687, 0, 0, 0, 0, 0, 0, 0, -145, -800, 3490, -44, 31, -32, -1838, 806, 14944, 602, 0, 0, 0, 0, 0
445, 12254183, 0, 2687, 0, 0, 0, 0, 0, 0, 0, -145, -800, 3493, -44, 31, -32, -1810, 816, 14958, 595, 0, 0, 0, 0, 0
446, 12263926, 0, 2687, 0, 0, 0, 0, 0, 0, 0, -145, -800, 3496, -44, 31, -32, -1814, 822, 14964, 595, 0, 0, 0, 0, 0
447, 12273909, 0, 2687, 0, 0, 0, 0, 0, 0, 0, -145, -800, 3499, -45, 30, -31, -1812, 820, 14988, 595, 0, 0, 0, 0, 0
448, 12283876, 0, 2687, 0, 0, 0, 0, 0, 0, 0, -145, -800, 3502, -45, 31, -31, -1842, 842, 14982, 595, 0, 0, 0, 0, 0
449, 12293878, 0, 2687, 0, 0, 0, 0, 0, 0, 0, -145, -800, 3505, -44, 31, -31, -1834, 852, 14992, 595, 0, 0, 0, 0, 0
450, 12304089, 0, 2687, 0, 0, 0, 0, 0, 0, 0, -145, -800, 3508, -45, 31, -31, -1826, 846, 14966, 602, 0, 0, 0, 0, 0
451, 12313928, 0, 2687, 0, 0, 0, 0, 0, 0, 0, -145, -800, 3510, -45, 31, -31, -1846, 852, 14964, 602, 0, 0, 0, 0, 0
452, 12323789, 0, 2687, 0, 0, 0, 0, 0, 0, 0, -145, -800, 3513, -44, 31, -32, -1854, 854, 14958, 602, 0, 0, 0, 0, 0
453, 12333929, 0, 2687, 0, 0, 0, 0, 0, 0, 0, -145, -800, 3516, -44, 31, -32, -1854, 864, 14974, 602, 0, 0, 0, 0, 0
454, 12343750, 0, 2687, 0, 0, 0, 0, 0, 0, 0, -145, -800, 3519, -44, 31, -32, -1848, 876, 14972, 602, 0, 0, 0, 0, 0
455, 12354133, 0, 2687, 0, 0, 0, 0, 0, 0, 0, -145, -800, 3522, -44, 31, -32, -1816, 866, 14930, 595, 0, 0, 0, 0, 0
456, 12363705, 0, 2687, 0, 0, 0, 0, 0, 0, 0, -145, -800, 3525, -44, 31, -32, -1802, 850, 14910, 595, 0, 0, 0, 0, 0
457, 12373678, 0, 2687, 0, 0, 0, 0, 0, 0, 0, -145, -800, 3528, -44, 31, -31, -1822, 850, 14928, 595, 0, 0, 0, 0, 0
458, 12383669, 0, 2687, 0, 0, 0, 0, 0, 0, 0, -144, -800, 3531, -44, 30, -31, -1840, 848, 14932, 595, 0, 0, 0, 0, 0
459, 12393640, 0, 2687, 0, 0, 0, 0, 0, 0, 0, -144, -800, 3534, -44, 30, -32, -1838, 842, 14938, 595, 0, 0, 0, 0, 0
460, 12403878, 0, 2687, 0, 0, 0, 0, 0, 0, 0, -144, -800, 3537, -44, 31, -32, -1852, 842, 14932, 602, 0, 0, 0, 0, 0
461, 12413601, 0, 2687, 0, 0, 0, 0, 0, 0, 0, -144, -800, 3540, -44, 31, -31, -1848, 840, 14940, 602, 0, 0, 0, 0, 0
462, 12423567, 0, 2687, 0, 0, 0, 0, 0, 0, 0, -144, -800, 3543, -44, 31, -31, -1842, 834, 14920, 602, 0, 0, 0, 0, 0
463, 12433548, 0, 2687, 0, 0, 0, 0, 0, 0, 0, -144, -801, 3546, -44, 31, -32, -1838, 846, 14938, 602, 0, 0, 0, 0, 0
464, 12443529, 0, 2687, 0, 0, 0, 0, 0, 0, 0, -144, -801, 3549, -44, 31, -32, -1826, 842, 14936, 602, 0, 0, 0, 0, 0
465, 12453791, 0, 2687, 0, 0, 0, 0, 0, 0, 0, -144, -801, 3552, -44, 31, -31, -1826, 842, 14966, 595, 0, 0, 0, 0, 0
466, 12463480, 0, 2687, 0, 0, 0, 0, 0, 0, 0, -144, -801, 3555, -45, 31, -31, -1814, 828, 14964, 595, 0, 0, 0, 0, 0
467, 12473472, 0, 2687, 0, 0, 0, 0, 0, 0, 0, -144, -800, 3558, -44, 31, -31, -1808, 824, 14968, 595, 0, 0, 0, 0, 0
468, 12483449, 0, 2687, 0, 0, 0, 0, 0, 0, 0, -144, -800, 3561, -44, 31, -31, -1798, 836, 14978, 595, 0, 0, 0, 0, 0
469, 12493417, 0, 2687, 0, 0, 0, 0, 0, 0, 0, -144, -800, 3564, -44, 31, -31, -1810, 826, 14956, 595, 0, 0, 0, 0, 0
470, 12503681, 0, 2687, 0, 0, 0, 0, 0, 0, 0, -144, -800, 3567, -44, 31, -31, -1820, 850, 14970, 602, 0, 0, 0, 0, 0
471, 12513377, 0, 2687, 0, 0, 0, 0, 0, 0, 0, -144, -800, 3570, -45, 31, -31, -1816, 842, 14970, 602, 0, 0, 0, 0, 0
472, 12523476, 0, 2687, 0, 0, 0, 0, 0, 0, 0, -145, -800, 3572, -45, 31, -31, -1816, 836, 14960, 602, 0, 0, 0, 0, 0
473, 12533327, 0, 2687, 0, 0, 0, 0, 0, 0, 0, -145, -800, 3575, -44, 31, -31, -1818, 830, 14966, 602, 0, 0, 0, 0, 0
474, 12543469, 0, 2687, 0, 0, 0, 0, 0, 0, 0, -145, -800, 3578, -44, 31, -31, -1830, 836, 14956, 602, 0, 0, 0, 0, 0
475, 12553571, 0, 2687, 0, 0, 0, 0, 0, 0, 0, -145, -800, 3581, -44, 31, -31, -1834, 852, 14978, 595, 0, 0, 0, 0, 0
476, 12563356, 0, 2687, 0, 0, 0, 0, 0, 0, 0, -144, -800, 3584, -44, 30, -31, -1820, 840, 14958, 595, 0, 0, 0, 0, 0
477, 12573226, 0, 2687, 0, 0, 0, 0, 0, 0, 0, -145, -800, 3587, -45, 30, -32, -1828, 826, 14952, 595, 0, 0, 0, 0, 0
478, 12583225, 0, 2687, 0, 0, 0, 0, 0, 0, 0, -145, -800, 3590, -44, 30, -31, -1824, 828, 14928, 595, 0, 0, 0, 0, 0
479, 12593195, 0, 2687, 0, 0, 0, 0, 0, 0, 0, -145, -800, 3593, -44, 30, -31, -1832, 836, 14930, 595, 0, 0, 0, 0, 0
480, 12603607, 0, 2687, 0, 0, 0, 0, 0, 0, 0, -145, -800, 3596, -44, 31, -31, -1826, 832, 14940, 602, 0, 0, 0, 0, 0
481, 12613139, 0, 2687, 0, 0, 0, 0, 0, 0, 0, -145, -800, 3599, -44, 31, -31, -1854, 844, 14920, 602, 0, 0, 0, 0, 0
482, 12623131, 0, 2687, 0, 0, 0, 0, 0, 0, 0, -145, -800, 3602, -45, 31, -32, -1844, 850, 14926, 602, 0, 0, 0, 0, 0
483, 12633112, 0, 2687, 0, 0, 0, 0, 0, 0, 0, -145, -800, 3605, -44, 31, -32, -1848, 852, 14920, 602, 0, 0, 0, 0, 0
484, 12643088, 0, 2687, 0, 0, 0, 0, 0, 0, 0, -145, -800, 3608, -44, 31, -32, -1848, 844, 14942, 602, 0, 0, 0, 0, 0
485, 12653604, 0, 2687, 0, 0, 0, 0, 0, 0, 0, -145, -800, 3611, -44, 31, -32, -1832, 828, 14944, 595, 0, 0, 0, 0, 0
486, 12663030, 0, 2687, 0, 0, 0, 0, 0, 0, 0, -145, -801, 3614, -44, 31, -32, -1842, 828, 14952, 595, 0, 0, 0, 0, 0
487, 12673171, 0, 2687, 0, 0, 0, 0, 0, 0, 0, -145, -801, 3617, -45, 31, -32, -1866, 826, 14970, 595, 0, 0, 0, 0, 0
488, 12682993, 0, 2687, 0, 0, 0, 0, 0, 0, 0, -145, -801, 3620, -45, 31, -32, -1858, 832, 14956, 595, 0, 0, 0, 0, 0
489, 12692972, 0, 2687, 0, 0, 0, 0, 0, 0, 0, -145, -801, 3623, -44, 31, -32, -1830, 838, 14952, 595, 0, 0, 0, 0, 0
490, 12703566, 0, 2687, 0, 0, 0, 0, 0, 0, 0, -145, -801, 3626, -44, 30, -32, -1816, 844, 14948, 602, 0, 0, 0, 0, 0
491, 12712993, 0, 2687, 0, 0, 0, 0, 0, 0, 0, -145, -801, 3629, -44, 31, -31, -1806, 828, 14944, 602, 0, 0, 0, 0, 0
492, 12722911, 0, 2687, 0, 0, 0, 0, 0, 0, 0, -145, -801, 3632, -44, 31, -32, -1826, 840, 14974, 602, 0, 0, 0, 0, 0
493, 12733024, 0, 2687, 0, 0, 0, 0, 0, 0, 0, -145, -801, 3635, -44, 31, -32, -1818, 830, 14936, 602, 0, 0, 0, 0, 0
494, 12742867, 0, 2687, 0, 0, 0, 0, 0, 0, 0, -145, -801, 3638, -44, 31, -32, -1810, 838, 14956, 602, 0, 0, 0, 0, 0
495, 12752996, 0, 2687, 0, 0, 0, 0, 0, 0, 0, -145, -801, 3641, -44, 31, -32, -1836, 820, 14956, 602, 0, 0, 0, 0, 0
496, 12762834, 0, 2687, 0, 0, 0, 0, 0, 0, 0, -145, -801, 3644, -44, 31, -32, -1822, 810, 14948, 602, 0, 0, 0, 0, 0
497, 12772861, 0, 2687, 0, 0, 0, 0, 0, 0, 0, -145, -801, 3647, -44, 31, -32, -1834, 822, 14974, 602, 0, 0, 0, 0, 0
498, 12782779, 0, 2687, 0, 0, 0, 0, 0, 0, 0, -145, -801, 3650, -44, 31, -32, -1842, 836, 14960, 602, 0, 0, 0, 0, 0
499, 12792761, 0, 2687, 0, 0, 0, 0, 0, 0, 0, -145, -801, 3653, -44, 31, -32, -1842, 850, 14960, 602, 0, 0, 0, 0, 0
500, 12802747, 0, 2687, 0, 0, 0, 0, 0, 0, 0, -145, -801, 3656, -44, 31, -32, -1842, 854, 14950, 602, 0, 0, 0, 0, 0
501, 12812720, 0, 2687, 0, 0, 0, 0, 0, 0, 0, -145, -801, 3659, -44, 31, -32, -1844, 846, 14938, 595, 0, 0, 0, 0, 0
502, 12822697, 0, 2687, 0, 0, 0, 0, 0, 0, 0, -145, -801, 3662, -44, 31, -31, -1830, 832, 14892, 595, 0, 0, 0, 0, 0
503, 12832684, 0, 2687, 0, 0, 0, 0, 0, 0, 0, -145, -801, 3665, -44, 31, -31, -1832, 848, 14932, 595, 0, 0, 0, 0, 0
504, 12842661, 0, 2687, 0, 0, 0, 0, 0, 0, 0, -145, -801, 3668, -44, 31, -31, -1808, 832, 14966, 595, 0, 0, 0, 0, 0
505, 12852636, 0, 2687, 0, 0, 0, 0, 0, 0, 0, -145, -801, 3671, -43, 31, -31, -1804, 830, 14982, 595, 0, 0, 0, 0, 0
506, 12862606, 0, 2687, 0, 0, 0, 0, 0, 0, 0, -145, -801, 3674, -44, 31, -31, -1828, 828, 14966, 602, 0, 0, 0, 0, 0
507, 12872600, 0, 2687, 0, 0, 0, 0, 0, 0, 0, -145, -801, 3677, -44, 30, -32, -1838, 810, 14962, 602, 0, 0, 0, 0, 0
508, 12882565, 0, 2687, 0, 0, 0, 0, 0, 0, 0, -145, -801, 3680, -44, 30, -31, -1834, 810, 14980, 602, 0, 0, 0, 0, 0
509, 12892548, 0, 2687, 0, 0, 0, 0, 0, 0, 0, -145, -801, 3683, -44, 31, -31, -1830, 810, 14964, 602, 0, 0, 0, 0, 0
510, 12902545, 0, 2687, 0, 0, 0, 0, 0, 0, 0, -145, -801, 3686, -44, 31, -32, -1832, 828, 14968, 602, 0, 0, 0, 0, 0
511, 12912510, 0, 2687, 0, 0, 0, 0, 0, 0, 0, -145, -801, 3689, -43, 31, -32, -1834, 842, 14980, 595, 0, 0, 0, 0, 0
512, 12922580, 0, 2687, 0, 0, 0, 0, 0, 0, 0, -145, -801, 3692, -44, 30, -32, -1822, 848, 14956, 595, 0, 0, 0, 0, 0
513, 12932465, 0, 2687, 0, 0, 0, 0, 0, 0, 0, -145, -801, 3695, -44, 30, -31, -1838, 838, 14970, 595, 0, 0, 0, 0, 0
514, 12942594, 0, 2687, 0, 0, 0, 0, 0, 0, 0, -145, -801, 3698, -44, 31, -31, -1836, 846, 14954, 595, 0, 0, 0, 0, 0
515, 12952433, 0, 2687, 0, 0, 0, 0, 0, 0, 0, -145, -801, 3701, -44, 31, -31, -1824, 826, 14968, 595, 0, 0, 0, 0, 0
516, 12962548, 0, 2687, 0, 0, 0, 0, 0, 0, 0, -145, -801, 3704, -45, 31, -32, -1810, 828, 14952, 602, 0, 0, 0, 0, 0
517, 12972377, 0, 2687, 0, 0, 0, 0, 0, 0, 0, -145, -801, 3706, -44, 31, -31, -1826, 834, 14956, 602, 0, 0, 0, 0, 0
518, 12982381, 0, 2687, 0, 0, 0, 0, 0, 0, 0, -145, -801, 3709, -44, 31, -31, -1822, 840, 14956, 602, 0, 0, 0, 0, 0
519, 12992327, 0, 2687, 0, 0, 0, 0, 0, 0, 0, -145, -801, 3712, -44, 31, -32, -1832, 840, 14930, 602, 0, 0, 0, 0, 0
520, 13002328, 0, 2687, 0, 0, 0, 0, 0, 0, 0, -145, -801, 3715, -44, 31, -32, -1828, 840, 14980, 602, 0, 0, 0, 0, 0
521, 13012285, 0, 2687, 0, 0, 0, 0, 0, 0, 0, -145, -801, 3718, -44, 31, -32, -1826, 824, 14962, 595, 0, 0, 0, 0, 0
522, 13022256, 0, 2687, 0, 0, 0, 0, 0, 0, 0, -145, -801, 3721, -44, 31, -32, -1824, 810, 14972, 595, 0, 0, 0, 0, 0
