index_log, time_stamp, mode, thrust, roll, pitch, yaw, ae[0], ae[1], ae[2], ae[3], phi, theta, psi, sp, sq, sr, sax, say, saz, bat_volt, P, P1, P2, temperature, pressure
0, 13114974, 5, 2687, 0, 0, 0, 335, 335, 335, 335, 0, 0, 4799, -44, -33, 35, 472, 526, 15058, 595, 0, 0, 0, 0, 0
1, 13124957, 5, 2687, 0, 0, 0, 335, 335, 335, 335, 0, 0, 4803, -44, -33, 34, 474, 512, 15056, 595, 0, 0, 0, 0, 0
2, 13134939, 5, 2687, 0, 0, 0, 335, 335, 335, 335, 0, 0, 4807, -44, -33, 35, 452, 480, 15042, 595, 0, 0, 0, 0, 0
3, 13144919, 5, 2687, 0, 0, 0, 335, 335, 335, 335, 0, 0, 4810, -44, -33, 34, 470, 496, 15056, 595, 0, 0, 0, 0, 0
4, 13155112, 5, 2687, 0, 0, 0, 335, 335, 335, 335, 0, 0, 4814, -44, -34, 34, 446, 484, 15114, 602, 0, 0, 0, 0, 0
5, 13164899, 5, 2687, 0, 0, 0, 335, 335, 335, 335, 0, 0, 4818, -44, -33, 33, 432, 488, 15096, 602, 0, 0, 0, 0, 0
6, 13174870, 5, 2687, 0, 0, 0, 335, 335, 335, 335, 0, 0, 4822, -45, -33, 33, 438, 506, 15114, 602, 0, 0, 0, 0, 0
7, 13184847, 5, 2687, 0, 0, 0, 335, 335, 335, 335, 0, 0, 4826, -44, -32, 33, 448, 552, 15098, 602, 0, 0, 0, 0, 0
8, 13194812, 5, 2687, 0, 0, 0, 335, 335, 335, 335, 0, 0, 4830, -44, -32, 34, 466, 560, 15076, 602, 0, 0, 0, 0, 0
9, 13205023, 5, 2687, 0, 0, 0, 335, 335, 335, 335, 0, 0, 4834, -44, -32, 34, 468, 546, 15092, 595, 0, 0, 0, 0, 0
10, 13214776, 5, 2687, 0, 0, 0, 335, 335, 335, 335, 0, 0, 4838, -44, -33, 34, 464, 528, 15080, 595, 0, 0, 0, 0, 0
11, 13224746, 5, 2687, 0, 0, 0, 335, 335, 335, 335, 0, 0, 4842, -44, -33, 34, 460, 506, 15084, 595, 0, 0, 0, 0, 0
12, 13234723, 5, 2687, 0, 0, 0, 335, 335, 335, 335, 0, 0, 4846, -44, -33, 34, 462, 484, 15080, 595, 0, 0, 0, 0, 0
13, 13244722, 5, 2687, 0, 0, 0, 335, 335, 335, 335, 0, 0, 4850, -44, -33, 34, 456, 488, 15096, 595, 0, 0, 0, 0, 0
14, 13254929, 5, 2687, 0, 0, 0, 335, 335, 335, 335, 0, 0, 4853, -44, -33, 34, 470, 496, 15078, 602, 0, 0, 0, 0, 0
15, 13264674, 5, 2687, 0, 0, 0, 335, 335, 335, 335, 0, 0, 4857, -44, -33, 34, 486, 508, 15074, 602, 0, 0, 0, 0, 0
16, 13274653, 5, 2687, 0, 0, 0, 335, 335, 335, 335, 0, 0, 4861, -44, -33, 34, 468, 510, 15074, 602, 0, 0, 0, 0, 0
17, 13284808, 5, 2687, 0, 0, 0, 335, 335, 335, 335, 0, 0, 4865, -44, -32, 34, 466, 504, 15098, 602, 0, 0, 0, 0, 0
18, 13294606, 5, 2687, 0, 0, 0, 335, 335, 335, 335, 0, 0, 4869, -44, -33, 34, 466, 510, 15094, 602, 0, 0, 0, 0, 0
19, 13304847, 5, 2687, 0, 0, 0, 335, 335, 335, 335, 0, 0, 4873, -45, -33, 33, 470, 496, 15094, 595, 0, 0, 0, 0, 0
20, 13314584, 5, 2687, 0, 0, 0, 335, 335, 335, 335, 0, 0, 4877, -44, -33, 33, 472, 508, 15092, 595, 0, 0, 0, 0, 0
21, 13324550, 5, 2687, 0, 0, 0, 335, 335, 335, 335, 0, 0, 4881, -44, -33, 34, 474, 524, 15080, 595, 0, 0, 0, 0, 0
22, 13334529, 5, 2687, 0, 0, 0, 335, 335, 335, 335, 0, 0, 4885, -44, -33, 34, 488, 542, 15068, 595, 0, 0, 0, 0, 0
23, 13344505, 5, 2687, 0, 0, 0, 335, 335, 335, 335, 0, 0, 4889, -44, -33, 34, 486, 536, 15076, 595, 0, 0, 0, 0, 0
24, 13354713, 5, 2687, 0, 0, 0, 335, 335, 335, 335, 0, 0, 4893, -44, -33, 34, 478, 540, 15078, 602, 0, 0, 0, 0, 0
25, 13364468, 5, 2687, 0, 0, 0, 335, 335, 335, 335, 0, 0, 4897, -45, -33, 34, 466, 538, 15082, 602, 0, 0, 0, 0, 0
26, 13374458, 5, 2687, 0, 0, 0, 335, 335, 335, 335, 0, 0, 4901, -44, -33, 34, 468, 526, 15096, 602, 0, 0, 0, 0, 0
27, 13384451, 5, 2687, 0, 0, 0, 335, 335, 335, 335, 0, 0, 4904, -44, -33, 34, 470, 524, 15124, 602, 0, 0, 0, 0, 0
28, 13394436, 5, 2687, 0, 0, 0, 335, 335, 335, 335, 0, 0, 4908, -44, -32, 34, 458, 516, 15092, 602, 0, 0, 0, 0, 0
29, 13404658, 5, 2687, 0, 0, 0, 335, 335, 335, 335, 0, 0, 4912, -44, -33, 34, 460, 534, 15082, 595, 0, 0, 0, 0, 0
30, 13414378, 5, 2687, 0, 0, 0, 335, 335, 335, 335, 0, 0, 4916, -44, -33, 34, 458, 508, 15074, 595, 0, 0, 0, 0, 0
31, 13424372, 5, 2687, 0, 0, 0, 335, 335, 335, 335, 0, 0, 4920, -45, -33, 33, 458, 520, 15048, 595, 0, 0, 0, 0, 0
32, 13434337, 5, 2687, 0, 0, 0, 335, 335, 335, 335, 0, 0, 4924, -44, -33, 33, 472, 526, 15074, 595, 0, 0, 0, 0, 0
33, 13444322, 5, 2687, 0, 0, 0, 335, 335, 335, 335, 0, 0, 4928, -44, -33, 33, 458, 516, 15068, 595, 0, 0, 0, 0, 0
34, 13454592, 5, 2687, 0, 0, 0, 335, 335, 335, 335, 0, 0, 4932, -44, -33, 33, 464, 502, 15088, 602, 0, 0, 0, 0, 0
35, 13464287, 5, 2687, 0, 0, 0, 335, 335, 335, 335, 0, 0, 4935, -44, -33, 33, 454, 502, 15098, 602, 0, 0, 0, 0, 0
36, 13474256, 5, 2687, 0, 0, 0, 335, 335, 335, 335, 0, 0, 4939, -44, -32, 34, 444, 510, 15114, 602, 0, 0, 0, 0, 0
37, 13484247, 5, 2687, 0, 0, 0, 335, 335, 335, 335, 0, 0, 4943, -44, -32, 34, 442, 514, 15094, 602, 0, 0, 0, 0, 0
38, 13494222, 5, 2687, 0, 0, 0, 335, 335, 335, 335, 0, 0, 4947, -44, -32, 34, 470, 508, 15096, 602, 0, 0, 0, 0, 0
39, 13504477, 5, 2687, 0, 0, 0, 335, 335, 335, 335, 0, 0, 4951, -44, -32, 34, 480, 510, 15080, 595, 0, 0, 0, 0, 0
40, 13514176, 5, 2687, 0, 0, 0, 335, 335, 335, 335, 0, 0, 4955, -44, -33, 34, 466, 522, 15092, 595, 0, 0, 0, 0, 0
41, 13524165, 5, 2687, 0, 0, 0, 335, 335, 335, 335, 0, 0, 4959, -44, -33, 34, 462, 540, 15066, 595, 0, 0, 0, 0, 0
42, 13534130, 5, 2687, 0, 0, 0, 335, 335, 335, 335, 0, 0, 4963, -45, -33, 34, 462, 530, 15054, 595, 0, 0, 0, 0, 0
43, 13544114, 5, 2687, 0, 0, 0, 335, 335, 335, 335, 0, 0, 4967, -44, -33, 34, 444, 520, 15064, 595, 0, 0, 0, 0, 0
44, 13554385, 5, 2687, 0, 0, 0, 335, 335, 335, 335, 0, 0, 4971, -44, -33, 34, 430, 516, 15088, 602, 0, 0, 0, 0, 0
45, 13564075, 5, 2687, 0, 0, 0, 335, 335, 335, 335, 0, 0, 4975, -44, -33, 33, 440, 518, 15088, 602, 0, 0, 0, 0, 0
46, 13574064, 5, 2687, 0, 0, 0, 335, 335, 335, 335, 0, 0, 4979, -44, -33, 34, 448, 538, 15062, 602, 0, 0, 0, 0, 0
47, 13584051, 5, 2687, 0, 0, 0, 335, 335, 335, 335, 0, 0, 4983, -44, -34, 34, 460, 544, 15084, 602, 0, 0, 0, 0, 0
48, 13594030, 5, 2687, 0, 0, 0, 335, 335, 335, 335, 0, 0, 4987, -44, -34, 34, 460, 536, 15098, 602, 0, 0, 0, 0, 0
49, 13604346, 5, 2687, 0, 0, 0, 335, 335, 335, 335, 0, 0, 4991, -44, -33, 34, 458, 516, 15082, 595, 0, 0, 0, 0, 0
50, 13613987, 5, 2687, 0, 0, 0, 335, 335, 335, 335, 0, 0, 4994, -44, -33, 34, 468, 504, 15082, 595, 0, 0, 0, 0, 0
51, 13623961, 5, 2687, 0, 0, 0, 335, 335, 335, 335, 0, 0, 4998, -44, -33, 34, 444, 514, 15060, 595, 0, 0, 0, 0, 0
52, 13633944, 5, 2687, 0, 0, 0, 335, 335, 335, 335, 0, 0, 5002, -44, -33, 34, 468, 518, 15092, 595, 0, 0, 0, 0, 0
53, 13643909, 5, 2687, 0, 0, 0, 335, 335, 335, 335, 0, 0, 5006, -44, -33, 33, 466, 536, 15096, 595, 0, 0, 0, 0, 0
54, 13654231, 5, 2687, 0, 0, 0, 335, 335, 335, 335, 0, 0, 5010, -44, -33, 34, 468, 542, 15076, 602, 0, 0, 0, 0, 0
55, 13663885, 5, 2687, 0, 0, 0, 335, 335, 335, 335, 0, 0, 5014, -44, -33, 34, 476, 558, 15058, 602, 0, 0, 0, 0, 0
56, 13673863, 5, 2687, 0, 0, 0, 335, 335, 335, 335, 0, 0, 5018, -44, -33, 34, 476, 546, 15082, 602, 0, 0, 0, 0, 0
57, 13683841, 5, 2687, 0, 0, 0, 335, 335, 335, 335, 0, 0, 5022, -44, -33, 34, 458, 524, 15080, 602, 0, 0, 0, 0, 0
58, 13693828, 5, 2687, 0, 0, 0, 335, 335, 335, 335, 0, 0, 5026, -44, -33, 34, 454, 506, 15082, 602, 0, 0, 0, 0, 0
59, 13704112, 5, 2687, 0, 0, 0, 335, 335, 335, 335, 0, 0, 5030, -44, -33, 34, 470, 504, 15050, 595, 0, 0, 0, 0, 0
60, 13713780, 5, 2687, 0, 0, 0, 335, 335, 335, 335, 0, 0, 5034, -44, -33, 34, 454, 502, 15064, 595, 0, 0, 0, 0, 0
61, 13723761, 5, 2687, 0, 0, 0, 335, 335, 335, 335, 0, 0, 5038, -44, -33, 34, 442, 524, 15074, 595, 0, 0, 0, 0, 0
62, 13733745, 5, 2687, 0, 0, 0, 335, 335, 335, 335, 0, 0, 5042, -44, -33, 34, 454, 522, 15062, 595, 0, 0, 0, 0, 0
63, 13743725, 5, 2687, 0, 0, 0, 335, 335, 335, 335, 0, 0, 5046, -44, -33, 34, 458, 510, 15088, 595, 0, 0, 0, 0, 0
64, 13754105, 5, 2687, 0, 0, 0, 335, 335, 335, 335, 0, 0, 5050, -44, -33, 34, 458, 528, 15098, 602, 0, 0, 0, 0, 0
65, 13763699, 5, 2687, 0, 0, 0, 335, 335, 335, 335, 0, 0, 5053, -44, -32, 34, 464, 532, 15080, 602, 0, 0, 0, 0, 0
66, 13773668, 5, 2687, 0, 0, 0, 335, 335, 335, 335, 0, 0, 5057, -44, -32, 34, 448, 540, 15082, 602, 0, 0, 0, 0, 0
67, 13783630, 5, 2687, 0, 0, 0, 335, 335, 335, 335, 0, 0, 5061, -44, -32, 34, 428, 546, 15080, 602, 0, 0, 0, 0, 0
68, 13793606, 5, 2687, 0, 0, 0, 335, 335, 335, 335, 0, 0, 5065, -44, -32, 34, 438, 538, 15078, 602, 0, 0, 0, 0, 0
69, 13804018, 5, 2687, 0, 0, 0, 335, 335, 335, 335, 0, 0, 5069, -44, -32, 34, 438, 526, 15072, 595, 0, 0, 0, 0, 0
70, 13813580, 5, 2687, 0, 0, 0, 335, 335, 335, 335, 0, 0, 5073, -44, -32, 34, 454, 524, 15092, 595, 0, 0, 0, 0, 0
71, 13823560, 5, 2687, 0, 0, 0, 335, 335, 335, 335, 0, 0, 5077, -44, -33, 34, 452, 526, 15082, 595, 0, 0, 0, 0, 0
72, 13833539, 5, 2687, 0, 0, 0, 335, 335, 335, 335, 0, 0, 5081, -45, -32, 34, 444, 504, 15090, 595, 0, 0, 0, 0, 0
73, 13843513, 5, 2687, 0, 0, 0, 335, 335, 335, 335, 0, 0, 5085, -45, -32, 34, 444, 524, 15088, 595, 0, 0, 0, 0, 0
74, 13853937, 5, 2687, 0, 0, 0, 335, 335, 335, 335, 0, 0, 5089, -44, -32, 34, 444, 502, 15086, 602, 0, 0, 0, 0, 0
75, 13863483, 5, 2687, 0, 0, 0, 335, 335, 335, 335, 0, 0, 5093, -44, -33, 34, 440, 514, 15102, 602, 0, 0, 0, 0, 0
76, 13873463, 5, 2687, 0, 0, 0, 335, 335, 335, 335, 0, 0, 5097, -44, -33, 34, 434, 502, 15098, 602, 0, 0, 0, 0, 0
77, 13883445, 5, 2687, 0, 0, 0, 335, 335, 335, 335, 0, 0, 5101, -45, -33, 34, 438, 512, 15090, 602, 0, 0, 0, 0, 0
78, 13893586, 5, 2687, 0, 0, 0, 335, 335, 335, 335, 0, 0, 5105, -45, -33, 34, 448, 514, 15088, 602, 0, 0, 0, 0, 0
79, 13903840, 5, 2687, 0, 0, 0, 335, 335, 335, 335, 0, 0, 5109, -45, -33, 34, 452, 520, 15066, 595, 0, 0, 0, 0, 0
80, 13913384, 5, 2687, 0, 0, 0, 335, 335, 335, 335, 0, 0, 5113, -45, -33, 34, 472, 508, 15086, 595, 0, 0, 0, 0, 0
81, 13923351, 5, 2687, 0, 0, 0, 335, 335, 335, 335, 0, 0, 5116, -45, -33, 34, 476, 518, 15090, 595, 0, 0, 0, 0, 0
82, 13933337, 5, 2687, 0, 0, 0, 335, 335, 335, 335, 0, 0, 5120, -45, -32, 34, 476, 514, 15064, 595, 0, 0, 0, 0, 0
83, 13943316, 5, 2687, 0, 0, 0, 335, 335, 335, 335, 0, 0, 5124, -44, -33, 34, 474, 512, 15086, 595, 0, 0, 0, 0, 0
84, 13953837, 5, 2687, 0, 0, 0, 335, 335, 335, 335, 0, 0, 5128, -44, -33, 34, 472, 508, 15042, 602, 0, 0, 0, 0, 0
85, 13963289, 5, 2687, 0, 0, 0, 335, 335, 335, 335, 0, 0, 5132, -45, -32, 34, 464, 522, 15068, 602, 0, 0, 0, 0, 0
86, 13973270, 5, 2687, 0, 0, 0, 335, 335, 335, 335, 0, 0, 5136, -44, -32, 34, 456, 536, 15062, 602, 0, 0, 0, 0, 0
87, 13983250, 5, 2687, 0, 0, 0, 335, 335, 335, 335, 0, 0, 5140, -44, -33, 34, 454, 518, 15080, 602, 0, 0, 0, 0, 0
88, 13993231, 5, 2687, 0, 0, 0, 335, 335, 335, 335, 0, 0, 5144, -43, -33, 33, 458, 536, 15074, 602, 0, 0, 0, 0, 0
89, 14003838, 5, 2687, 0, 0, 0, 335, 335, 335, 335, 0, 0, 5148, -44, -33, 34, 456, 536, 15072, 595, 0, 0, 0, 0, 0
90, 14013183, 5, 2687, 0, 0, 0, 335, 335, 335, 335, 0, 0, 5152, -44, -33, 34, 470, 542, 15070, 595, 0, 0, 0, 0, 0
91, 14023174, 5, 2687, 0, 0, 0, 335, 335, 335, 335, 0, 0, 5156, -44, -33, 34, 454, 536, 15118, 595, 0, 0, 0, 0, 0
92, 14033140, 5, 2687, 0, 0, 0, 335, 335, 335, 335, 0, 0, 5160, -44, -33, 34, 444, 540, 15094, 595, 0, 0, 0, 0, 0
93, 14043130, 5, 2687, 0, 0, 0, 335, 335, 335, 335, 0, 0, 5164, -44, -33, 35, 450, 534, 15084, 595, 0, 0, 0, 0, 0
94, 14053832, 5, 2687, 0, 0, 0, 335, 335, 335, 335, 0, 0, 5168, -45, -33, 34, 452, 530, 15058, 602, 0, 0, 0, 0, 0
95, 14063096, 5, 2687, 0, 0, 0, 335, 335, 335, 335, 0, 0, 5172, -45, -33, 34, 466, 526, 15082, 602, 0, 0, 0, 0, 0
96, 14073065, 5, 2687, 0, 0, 0, 335, 335, 335, 335, 0, 0, 5176, -44, -33, 34, 458, 524, 15096, 602, 0, 0, 0, 0, 0
97, 14083041, 5, 2687, 0, 0, 0, 335, 335, 335, 335, 0, 0, 5179, -44, -33, 34, 476, 516, 15078, 602, 0, 0, 0, 0, 0
98, 14093023, 5, 2687, 0, 0, 0, 335, 335, 335, 335, 0, 0, 5183, -44, -33, 34, 458, 526, 15098, 602, 0, 0, 0, 0, 0
99, 14103001, 5, 2687, 0, 0, 0, 335, 335, 335, 335, 0, 0, 5187, -44, -33, 34, 446, 534, 15088, 602, 0, 0, 0, 0, 0
100, 14112983, 5, 2687, 0, 0, 0, 335, 335, 335, 335, 0, 0, 5191, -44, -32, 34, 444, 538, 15078, 602, 0, 0, 0, 0, 0
101, 14122967, 5, 2687, 0, 0, 0, 335, 335, 335, 335, 0, 0, 5195, -44, -33, 33, 450, 542, 15114, 602, 0, 0, 0, 0, 0
102, 14132947, 5, 2687, 0, 0, 0, 335, 335, 335, 335, 0, 0, 5199, -44, -33, 34, 460, 540, 15120, 602, 0, 0, 0, 0, 0
103, 14142931, 5, 2687, 0, 0, 0, 335, 335, 335, 335, 0, 0, 5203, -44, -33, 34, 458, 530, 15102, 602, 0, 0, 0, 0, 0
104, 14152898, 5, 2687, 0, 0, 0, 335, 335, 335, 335, 0, 0, 5207, -44, -33, 34, 458, 520, 15096, 602, 0, 0, 0, 0, 0
105, 14162890, 5, 2687, 0, 0, 0, 335, 335, 335, 335, 0, 0, 5211, -44, -33, 34, 446, 512, 15094, 595, 0, 0, 0, 0, 0
106, 14172872, 5, 2687, 0, 0, 0, 335, 335, 335, 335, 0, 0, 5215, -44, -33, 34, 444, 532, 15078, 595, 0, 0, 0, 0, 0
107, 14182856, 5, 2687, 0, 0, 0, 335, 335, 335, 335, 0, 0, 5219, -44, -33, 34, 456, 518, 15058, 595, 0, 0, 0, 0, 0
108, 14192818, 5, 2687, 0, 0, 0, 335, 335, 335, 335, 0, 0, 5223, -43, -33, 34, 482, 496, 15064, 595, 0, 0, 0, 0, 0
109, 14202814, 5, 2687, 0, 0, 0, 335, 335, 335, 335, 0, 0, 5227, -44, -33, 34, 474, 482, 15104, 595, 0, 0, 0, 0, 0
110, 14212791, 5, 2687, 0, 0, 0, 335, 335, 335, 335, 0, 0, 5231, -44, -33, 33, 460, 500, 15098, 602, 0, 0, 0, 0, 0
111, 14222798, 5, 2687, 0, 0, 0, 335, 335, 335, 335, 0, 0, 5234, -44, -33, 34, 462, 526, 15110, 602, 0, 0, 0, 0, 0
112, 14232760, 5, 2687, 0, 0, 0, 335, 335, 335, 335, 0, 0, 5238, -44, -32, 34, 472, 528, 15136, 602, 0, 0, 0, 0, 0
113, 14242736, 5, 2687, 0, 0, 0, 335, 335, 335, 335, 0, 0, 5242, -45, -33, 34, 474, 528, 15114, 602, 0, 0, 0, 0, 0
114, 14252714, 5, 2687, 0, 0, 0, 335, 335, 335, 335, 0, 0, 5246, -45, -33, 34, 468, 512, 15124, 602, 0, 0, 0, 0, 0
115, 14262701, 5, 2687, 0, 0, 0, 335, 335, 335, 335, 0, 0, 5250, -44, -33, 34, 448, 512, 15104, 595, 0, 0, 0, 0, 0
116, 14272679, 5, 2687, 0, 0, 0, 335, 335, 335, 335, 0, 0, 5254, -44, -33, 34, 458, 504, 15082, 595, 0, 0, 0, 0, 0
117, 14282661, 5, 2687, 0, 0, 0, 335, 335, 335, 335, 0, 0, 5258, -44, -33, 34, 452, 500, 15070, 595, 0, 0, 0, 0, 0
118, 14292650, 5, 2687, 0, 0, 0, 335, 335, 335, 335, 0, 0, 5262, -44, -32, 34, 446, 496, 15092, 595, 0, 0, 0, 0, 0
119, 14302624, 5, 2687, 0, 0, 0, 335, 335, 335, 335, 0, 0, 5266, -44, -32, 35, 450, 494, 15098, 595, 0, 0, 0, 0, 0
120, 14312599, 5, 2687, 0, 0, 0, 335, 335, 335, 335, 0, 0, 5270, -44, -33, 34, 466, 526, 15010, 602, 0, 0, 0, 0, 0
121, 14322590, 5, 2687, 0, 0, 0, 335, 335, 335, 335, 0, 0, 5274, -44, -32, 34, 438, 504, 15108, 602, 0, 0, 0, 0, 0
122, 14332573, 5, 2687, 0, 0, 0, 335, 335, 335, 335, 0, 0, 5278, -44, -32, 34, 468, 510, 15086, 602, 0, 0, 0, 0, 0
123, 14342561, 5, 2687, 0, 0, 0, 335, 335, 335, 335, 0, 0, 5282, -45, -32, 34, 466, 494, 15134, 602, 0, 0, 0, 0, 0
124, 14352536, 5, 2687, 0, 0, 0, 335, 335, 335, 335, 0, 0, 5286, -44, -33, 34, 446, 494, 15116, 602, 0, 0, 0, 0, 0
125, 14362516, 5, 2687, 0, 0, 0, 335, 335, 335, 335, 0, 0, 5290, -44, -33, 34, 434, 508, 15094, 595, 0, 0, 0, 0, 0
126, 14372488, 5, 2687, 0, 0, 0, 335, 335, 335, 335, 0, 0, 5293, -44, -33, 33, 422, 522, 15134, 595, 0, 0, 0, 0, 0
127, 14382471, 5, 2687, 0, 0, 0, 335, 335, 335, 335, 0, 0, 5297, -44, -33, 34, 430, 528, 15082, 595, 0, 0, 0, 0, 0
128, 14392454, 5, 2687, 0, 0, 0, 335, 335, 335, 335, 0, 0, 5301, -44, -33, 34, 442, 546, 15076, 595, 0, 0, 0, 0, 0
129, 14402422, 5, 2687, 0, 0, 0, 335, 335, 335, 335, 0, 0, 5305, -44, -33, 34, 432, 536, 15050, 595, 0, 0, 0, 0, 0
130, 27254477, 5, 2687, 0, 0, 0, 335, 335, 335, 335, 0, 0, 5523, -42, 32, 35, 416, 440, 15040, 595, 0, 0, 0, 0, 0
131, 27258339, 5, 2687, 0, 0, 0, 335, 335, 335, 335, 0, 0, 5523, -41, 30, 32, 408, 456, 15032, 595, 0, 0, 0, 0, 0
132, 27262211, 5, 2687, 0, 0, 0, 335, 335, 335, 335, 0, 0, 5523, -43, 32, 31, 448, 544, 15148, 595, 0, 0, 0, 0, 0
133, 27266088, 5, 2687, 0, 0, 0, 335, 335, 335, 335, 0, 0, 5523, -43, 32, 32, 404, 480, 15152, 595, 0, 0, 0, 0, 0
134, 27269986, 5, 2687, 0, 0, 0, 335, 335, 335, 335, 0, 0, 5523, -44, 30, 33, 440, 572, 15168, 595, 0, 0, 0, 0, 0
135, 27273811, 5, 2687, 0, 0, 0, 335, 335, 335, 335, 0, 0, 5523, -44, 29, 33, 356, 444, 15008, 595, 0, 0, 0, 0, 0
136, 27277682, 5, 2687, 0, 0, 0, 335, 335, 335, 335, 0, 0, 5523, -44, 32, 38, 492, 540, 14972, 595, 0, 0, 0, 0, 0
137, 27281556, 5, 2687, 0, 0, 0, 335, 335, 335, 335, 0, 0, 5523, -43, 33, 33, 504, 576, 15020, 595, 0, 0, 0, 0, 0
138, 27285408, 5, 2687, 0, 0, 0, 335, 335, 335, 335, 0, 0, 5523, -41, 33, 33, 444, 460, 15228, 595, 0, 0, 0, 0, 0
139, 27289280, 5, 2687, 0, 0, 0, 335, 335, 335, 335, 0, 0, 5523, -43, 29, 36, 428, 560, 14916, 595, 0, 0, 0, 0, 0
140, 27293151, 5, 2687, 0, 0, 0, 335, 335, 335, 335, 0, 0, 5523, -44, 31, 34, 364, 552, 14996, 595, 0, 0, 0, 0, 0
141, 27297016, 5, 2687, 0, 0, 0, 335, 335, 335, 335, 0, 0, 5523, -40, 31, 30, 496, 568, 15128, 595, 0, 0, 0, 0, 0
142, 27300988, 5, 2687, 0, 0, 0, 335, 335, 335, 335, 0, 0, 5523, -43, 28, 34, 540, 560, 14940, 595, 0, 0, 0, 0, 0
143, 27304755, 5, 2687, 0, 0, 0, 335, 335, 335, 335, 0, 0, 5523, -44, 32, 33, 420, 520, 15204, 595, 0, 0, 0, 0, 0
144, 27308622, 5, 2687, 0, 0, 0, 335, 335, 335, 335, 0, 0, 5523, -42, 30, 32, 332, 480, 14988, 595, 0, 0, 0, 0, 0
145, 27312487, 5, 2687, 0, 0, 0, 335, 335, 335, 335, 0, 0, 5523, -44, 36, 33, 468, 496, 15120, 595, 0, 0, 0, 0, 0
146, 27316349, 5, 2687, 0, 0, 0, 335, 335, 335, 335, 0, 0, 5523, -41, 18, 34, 468, 404, 15064, 595, 0, 0, 0, 0, 0
147, 27320229, 5, 2687, 0, 0, 0, 335, 335, 335, 335, 0, 0, 5523, -43, 39, 32, 412, 724, 14948, 595, 0, 0, 0, 0, 0
148, 27324092, 5, 2687, 0, 0, 0, 335, 335, 335, 335, 0, 0, 5523, -42, 33, 36, 376, 352, 15240, 595, 0, 0, 0, 0, 0
149, 27327956, 5, 2687, 0, 0, 0, 335, 335, 335, 335, 0, 0, 5523, -47, 17, 33, 664, 644, 14684, 595, 0, 0, 0, 0, 0
150, 27331871, 5, 2687, 0, 0, 0, 335, 335, 335, 335, 0, 0, 5523, -42, 39, 34, 436, 372, 15472, 595, 0, 0, 0, 0, 0
151, 27335695, 5, 2687, 0, 0, 0, 335, 335, 335, 335, 0, 0, 5523, -43, 30, 34, 508, 672, 14800, 595, 0, 0, 0, 0, 0
152, 27339557, 5, 2687, 0, 0, 0, 335, 335, 335, 335, 0, 0, 5523, -45, 30, 31, 428, 520, 15136, 595, 0, 0, 0, 0, 0
153, 27343437, 5, 2687, 0, 0, 0, 335, 335, 335, 335, 0, 0, 5523, -41, 36, 33, 412, 468, 15228, 595, 0, 0, 0, 0, 0
154, 27347292, 5, 2687, 0, 0, 0, 335, 335, 335, 335, 0, 0, 5523, -45, 30, 32, 508, 576, 14768, 595, 0, 0, 0, 0, 0
155, 27351243, 5, 2687, 0, 0, 0, 335, 335, 335, 335, 0, 0, 5523, -43, 25, 34, 352, 364, 15128, 595, 0, 0, 0, 0, 0
156, 27355023, 5, 2687, 0, 0, 0, 335, 335, 335, 335, 0, 0, 5523, -43, 37, 32, 512, 584, 14968, 595, 0, 0, 0, 0, 0
157, 27358904, 5, 2687, 0, 0, 0, 335, 335, 335, 335, 0, 0, 5523, -45, 28, 34, 436, 384, 15340, 595, 0, 0, 0, 0, 0
158, 27362802, 5, 2687, 0, 0, 0, 335, 335, 335, 335, 0, 0, 5523, -39, 29, 32, 428, 552, 14944, 595, 0, 0, 0, 0, 0
159, 27366626, 5, 2687, 0, 0, 0, 335, 335, 335, 335, 0, 0, 5523, -46, 24, 32, 416, 616, 15116, 595, 0, 0, 0, 0, 0
160, 27370498, 5, 2687, 0, 0, 0, 335, 335, 335, 335, 0, 0, 5523, -42, 34, 33, 352, 496, 15304, 595, 0, 0, 0, 0, 0
161, 27374362, 5, 2687, 0, 0, 0, 335, 335, 335, 335, 0, 0, 5523, -44, 26, 34, 484, 528, 14968, 595, 0, 0, 0, 0, 0
162, 27378236, 5, 2687, 0, 0, 0, 335, 335, 335, 335, 0, 0, 5523, -45, 29, 32, 508, 504, 15072, 595, 0, 0, 0, 0, 0
163, 27382107, 5, 2687, 0, 0, 0, 335, 335, 335, 335, 0, 0, 5523, -43, 35, 35, 420, 544, 15124, 595, 0, 0, 0, 0, 0
164, 27385972, 5, 2687, 0, 0, 0, 335, 335, 335, 335, 0, 0, 5523, -43, 26, 31, 504, 444, 14924, 595, 0, 0, 0, 0, 0
165, 27389837, 5, 2687, 0, 0, 0, 335, 335, 335, 335, 0, 0, 5523, -42, 37, 32, 484, 432, 15120, 595, 0, 0, 0, 0, 0
166, 27393755, 5, 2687, 0, 0, 0, 335, 335, 335, 335, 0, 0, 5523, -43, 29, 33, 492, 452, 15120, 595, 0, 0, 0, 0, 0
167, 27397569, 5, 2687, 0, 0, 0, 335, 335, 335, 335, 0, 0, 5523, -45, 30, 32, 432, 468, 15072, 595, 0, 0, 0, 0, 0
168, 27401460, 5, 2687, 0, 0, 0, 335, 335, 335, 335, 0, 0, 5523, -43, 35, 35, 504, 392, 15016, 595, 0, 0, 0, 0, 0
169, 27405302, 5, 2687, 0, 0, 0, 335, 335, 335, 335, 0, 0, 5523, -43, 28, 33, 424, 484, 15004, 595, 0, 0, 0, 0, 0
170, 27409165, 5, 2687, 0, 0, 0, 335, 335, 335, 335, 0, 0, 5523, -43, 33, 31, 460, 500, 15180, 595, 0, 0, 0, 0, 0
171, 27413036, 5, 2687, 0, 0, 0, 335, 335, 335, 335, 0, 0, 5523, -41, 36, 33, 408, 492, 15112, 595, 0, 0, 0, 0, 0
172, 27416901, 5, 2687, 0, 0, 0, 335, 335, 335, 335, 0, 0, 5523, -43, 29, 31, 468, 456, 14948, 595, 0, 0, 0, 0, 0
173, 27420770, 5, 2687, 0, 0, 0, 335, 335, 335, 335, 0, 0, 5523, -42, 32, 32, 436, 564, 15168, 595, 0, 0, 0, 0, 0
174, 27424679, 5, 2687, 0, 0, 0, 335, 335, 335, 335, 0, 0, 5523, -43, 32, 32, 376, 588, 15028, 595, 0, 0, 0, 0, 0
175, 27428514, 5, 2687, 0, 0, 0, 335, 335, 335, 335, 0, 0, 5523, -42, 29, 33, 480, 572, 15108, 595, 0, 0, 0, 0, 0
176, 27432369, 5, 2687, 0, 0, 0, 335, 335, 335, 335, 0, 0, 5523, -43, 33, 32, 456, 588, 15172, 595, 0, 0, 0, 0, 0
177, 27436240, 5, 2687, 0, 0, 0, 335, 335, 335, 335, 0, 0, 5523, -44, 27, 31, 548, 520, 15068, 595, 0, 0, 0, 0, 0
178, 27440104, 5, 2687, 0, 0, 0, 335, 335, 335, 335, 0, 0, 5523, -44, 30, 32, 484, 468, 15124, 595, 0, 0, 0, 0, 0
179, 27443976, 5, 2687, 0, 0, 0, 335, 335, 335, 335, 0, 0, 5523, -41, 34, 35, 428, 608, 14980, 595, 0, 0, 0, 0, 0
180, 27447838, 5, 2687, 0, 0, 0, 335, 335, 335, 335, 0, 0, 5523, -44, 29, 33, 420, 624, 15108, 595, 0, 0, 0, 0, 0
181, 27451754, 5, 2687, 0, 0, 0, 335, 335, 335, 335, 0, 0, 5523, -42, 33, 32, 464, 572, 15136, 595, 0, 0, 0, 0, 0
182, 27455622, 5, 2687, 0, 0, 0, 335, 335, 335, 335, 0, 0, 5523, -45, 30, 32, 496, 464, 15052, 595, 0, 0, 0, 0, 0
183, 27459444, 5, 2687, 0, 0, 0, 335, 335, 335, 335, 0, 0, 5523, -41, 31, 35, 460, 560, 15176, 595, 0, 0, 0, 0, 0
184, 27463308, 5, 2687, 0, 0, 0, 335, 335, 335, 335, 0, 0, 5523, -44, 32, 31, 460, 564, 15224, 595, 0, 0, 0, 0, 0
185, 27467172, 5, 2687, 0, 0, 0, 335, 335, 335, 335, 0, 0, 5523, -46, 30, 34, 528, 528, 15016, 595, 0, 0, 0, 0, 0
186, 27471046, 5, 2687, 0, 0, 0, 335, 335, 335, 335, 0, 0, 5523, -42, 32, 31, 508, 460, 15068, 595, 0, 0, 0, 0, 0
187, 27474915, 5, 2687, 0, 0, 0, 335, 335, 335, 335, 0, 0, 5523, -42, 31, 33, 408, 620, 15068, 595, 0, 0, 0, 0, 0
188, 27478783, 5, 2687, 0, 0, 0, 335, 335, 335, 335, 0, 0, 5523, -44, 30, 32, 420, 440, 14988, 595, 0, 0, 0, 0, 0
189, 27482652, 5, 2687, 0, 0, 0, 335, 335, 335, 335, 0, 0, 5523, -43, 34, 34, 396, 524, 15076, 595, 0, 0, 0, 0, 0
190, 27486570, 5, 2687, 0, 0, 0, 335, 335, 335, 335, 0, 0, 5523, -44, 28, 32, 384, 516, 15064, 595, 0, 0, 0, 0, 0
191, 27490378, 5, 2687, 0, 0, 0, 335, 335, 335, 335, 0, 0, 5523, -44, 30, 35, 512, 524, 15096, 595, 0, 0, 0, 0, 0
192, 27494250, 5, 2687, 0, 0, 0, 335, 335, 335, 335, 0, 0, 5523, -42, 30, 34, 400, 564, 15100, 595, 0, 0, 0, 0, 0
193, 27498114, 5, 2687, 0, 0, 0, 335, 335, 335, 335, 0, 0, 5523, -44, 32, 33, 568, 576, 15236, 595, 0, 0, 0, 0, 0
194, 27502021, 5, 2687, 0, 0, 0, 335, 335, 335, 335, 0, 0, 5523, -45, 30, 34, 500, 416, 14880, 602, 0, 0, 0, 0, 0
195, 27505850, 5, 2687, 0, 0, 0, 335, 335, 335, 335, 0, 0, 5523, -44, 34, 36, 492, 496, 15124, 602, 0, 0, 0, 0, 0
196, 27509723, 5, 2687, 0, 0, 0, 335, 335, 335, 335, 0, 0, 5523, -45, 29, 33, 524, 508, 14904, 602, 0, 0, 0, 0, 0
197, 27513595, 5, 2687, 0, 0, 0, 335, 335, 335, 335, 0, 0, 5523, -43, 34, 32, 472, 468, 15064, 602, 0, 0, 0, 0, 0
198, 27517501, 5, 2687, 0, 0, 0, 335, 335, 335, 335, 0, 0, 5523, -43, 27, 31, 456, 504, 15128, 602, 0, 0, 0, 0, 0
199, 27521319, 5, 2687, 0, 0, 0, 335, 335, 335, 335, 0, 0, 5523, -43, 31, 31, 512, 512, 15036, 602, 0, 0, 0, 0, 0
200, 27525184, 5, 2687, 0, 0, 0, 335, 335, 335, 335, 0, 0, 5523, -42, 32, 34, 372, 432, 14992, 602, 0, 0, 0, 0, 0
201, 27529065, 5, 2687, 0, 0, 0, 335, 335, 335, 335, 0, 0, 5523, -42, 31, 31, 376, 476, 15016, 602, 0, 0, 0, 0, 0
202, 27532919, 5, 2687, 0, 0, 0, 335, 335, 335, 335, 0, 0, 5523, -44, 28, 35, 528, 560, 15060, 602, 0, 0, 0, 0, 0
203, 27536791, 5, 2687, 0, 0, 0, 335, 335, 335, 335, 0, 0, 5523, -42, 30, 31, 448, 588, 15068, 602, 0, 0, 0, 0, 0
204, 27540656, 5, 2687, 0, 0, 0, 335, 335, 335, 335, 0, 0, 5523, -45, 30, 34, 460, 500, 15068, 602, 0, 0, 0, 0, 0
205, 27544520, 5, 2687, 0, 0, 0, 335, 335, 335, 335, 0, 0, 5523, -44, 32, 33, 524, 528, 15024, 602, 0, 0, 0, 0, 0
206, 27548450, 5, 2687, 0, 0, 0, 335, 335, 335, 335, 0, 0, 5523, -44, 28, 34, 468, 552, 15148, 602, 0, 0, 0, 0, 0
207, 27552347, 5, 2687, 0, 0, 0, 335, 335, 335, 335, 0, 0, 5523, -42, 30, 35, 456, 540, 15108, 595, 0, 0, 0, 0, 0
208, 27556120, 5, 2687, 0, 0, 0, 335, 335, 335, 335, 0, 0, 5523, -41, 32, 34, 440, 668, 15200, 595, 0, 0, 0, 0, 0
209, 27560000, 5, 2687, 0, 0, 0, 335, 335, 335, 335, 0, 0, 5523, -45, 29, 35, 500, 560, 15088, 595, 0, 0, 0, 0, 0
210, 27563862, 5, 2687, 0, 0, 0, 335, 335, 335, 335, 0, 0, 5523, -40, 30, 32, 480, 540, 14996, 595, 0, 0, 0, 0, 0
211, 27567732, 5, 2687, 0, 0, 0, 335, 335, 335, 335, 0, 0, 5523, -45, 29, 35, 372, 516, 14992, 595, 0, 0, 0, 0, 0
212, 27571597, 5, 2687, 0, 0, 0, 335, 335, 335, 335, 0, 0, 5523, -43, 28, 30, 460, 544, 14976, 595, 0, 0, 0, 0, 0
213, 27575461, 5, 2687, 0, 0, 0, 335, 335, 335, 335, 0, 0, 5523, -43, 31, 35, 496, 544, 14988, 595, 0, 0, 0, 0, 0
214, 27579378, 5, 2687, 0, 0, 0, 335, 335, 335, 335, 0, 0, 5523, -45, 31, 33, 388, 560, 15032, 595, 0, 0, 0, 0, 0
215, 27583193, 5, 2687, 0, 0, 0, 335, 335, 335, 335, 0, 0, 5523, -42, 32, 31, 416, 552, 15120, 595, 0, 0, 0, 0, 0
216, 27587067, 5, 2687, 0, 0, 0, 335, 335, 335, 335, 0, 0, 5523, -44, 33, 32, 464, 548, 15204, 595, 0, 0, 0, 0, 0
217, 27590935, 5, 2687, 0, 0, 0, 335, 335, 335, 335, 0, 0, 5523, -43, 30, 35, 424, 548, 15032, 595, 0, 0, 0, 0, 0
218, 27594804, 5, 2687, 0, 0, 0, 335, 335, 335, 335, 0, 0, 5523, -43, 33, 32, 396, 632, 15168, 595, 0, 0, 0, 0, 0
219, 27598674, 5, 2687, 0, 0, 0, 335, 335, 335, 335, 0, 0, 5523, -40, 30, 32, 492, 504, 15184, 595, 0, 0, 0, 0, 0
220, 27602584, 5, 2687, 0, 0, 0, 335, 335, 335, 335, 0, 0, 5523, -41, 30, 33, 544, 480, 15080, 602, 0, 0, 0, 0, 0
221, 27606408, 5, 2687, 0, 0, 0, 335, 335, 335, 335, 0, 0, 5523, -46, 31, 33, 500, 520, 15016, 602, 0, 0, 0, 0, 0
222, 27610316, 5, 2687, 0, 0, 0, 335, 335, 335, 335, 0, 0, 5523, -44, 34, 34, 396, 520, 15092, 602, 0, 0, 0, 0, 0
223, 27614134, 5, 2687, 0, 0, 0, 335, 335, 335, 335, 0, 0, 5523, -40, 31, 33, 476, 596, 15044, 602, 0, 0, 0, 0, 0
224, 27618008, 5, 2687, 0, 0, 0, 335, 335, 335, 335, 0, 0, 5523, -43, 32, 32, 480, 456, 15116, 602, 0, 0, 0, 0, 0
225, 27621873, 5, 2687, 0, 0, 0, 335, 335, 335, 335, 0, 0, 5523, -43, 31, 33, 492, 472, 15124, 602, 0, 0, 0, 0, 0
226, 27625737, 5, 2687, 0, 0, 0, 335, 335, 335, 335, 0, 0, 5523, -41, 30, 32, 552, 540, 14888, 602, 0, 0, 0, 0, 0
227, 27629619, 5, 2687, 0, 0, 0, 335, 335, 335, 335, 0, 0, 5523, -42, 30, 32, 468, 460, 15132, 602, 0, 0, 0, 0, 0
228, 27633480, 5, 2687, 0, 0, 0, 335, 335, 335, 335, 0, 0, 5523, -45, 30, 33, 444, 528, 14960, 602, 0, 0, 0, 0, 0
229, 27637354, 5, 2687, 0, 0, 0, 335, 335, 335, 335, 0, 0, 5523, -43, 34, 33, 484, 532, 15116, 602, 0, 0, 0, 0, 0
230, 27641256, 5, 2687, 0, 0, 0, 335, 335, 335, 335, 0, 0, 5523, -43, 33, 36, 540, 452, 15100, 602, 0, 0, 0, 0, 0
231, 27645074, 5, 2687, 0, 0, 0, 335, 335, 335, 335, 0, 0, 5523, -44, 32, 33, 500, 556, 14964, 602, 0, 0, 0, 0, 0
232, 27648945, 5, 2687, 0, 0, 0, 335, 335, 335, 335, 0, 0, 5523, -44, 32, 33, 408, 456, 15216, 602, 0, 0, 0, 0, 0
233, 27652896, 5, 2687, 0, 0, 0, 335, 335, 335, 335, 0, 0, 5523, -41, 32, 32, 476, 492, 15084, 595, 0, 0, 0, 0, 0
234, 27656681, 5, 2687, 0, 0, 0, 335, 335, 335, 335, 0, 0, 5523, -41, 30, 33, 456, 392, 15032, 595, 0, 0, 0, 0, 0
235, 27660544, 5, 2687, 0, 0, 0, 335, 335, 335, 335, 0, 0, 5523, -45, 32, 34, 484, 520, 15136, 595, 0, 0, 0, 0, 0
236, 27664408, 5, 2687, 0, 0, 0, 335, 335, 335, 335, 0, 0, 5523, -40, 31, 33, 460, 472, 15192, 595, 0, 0, 0, 0, 0
237, 27668282, 5, 2687, 0, 0, 0, 335, 335, 335, 335, 0, 0, 5523, -43, 31, 34, 548, 604, 15048, 595, 0, 0, 0, 0, 0
238, 27672194, 5, 2687, 0, 0, 0, 335, 335, 335, 335, 0, 0, 5523, -46, 28, 31, 448, 556, 15132, 595, 0, 0, 0, 0, 0
239, 27676012, 5, 2687, 0, 0, 0, 335, 335, 335, 335, 0, 0, 5523, -45, 30, 34, 492, 556, 15072, 595, 0, 0, 0, 0, 0
240, 27679884, 5, 2687, 0, 0, 0, 335, 335, 335, 335, 0, 0, 5523, -43, 31, 33, 420, 548, 15132, 595, 0, 0, 0, 0, 0
241, 27683755, 5, 2687, 0, 0, 0, 335, 335, 335, 335, 0, 0, 5523, -44, 32, 32, 464, 520, 15064, 595, 0, 0, 0, 0, 0
242, 27687617, 5, 2687, 0, 0, 0, 335, 335, 335, 335, 0, 0, 5523, -44, 30, 31, 432, 484, 15072, 595, 0, 0, 0, 0, 0
243, 27691493, 5, 2687, 0, 0, 0, 335, 335, 335, 335, 0, 0, 5523, -45, 30, 33, 536, 516, 15044, 595, 0, 0, 0, 0, 0
244, 27695354, 5, 2687, 0, 0, 0, 335, 335, 335, 335, 0, 0, 5523, -40, 31, 33, 452, 508, 15124, 595, 0, 0, 0, 0, 0
245, 27699219, 5, 2687, 0, 0, 0, 335, 335, 335, 335, 0, 0, 5523, -43, 33, 35, 496, 512, 15052, 595, 0, 0, 0, 0, 0
246, 27703175, 5, 2687, 0, 0, 0, 335, 335, 335, 335, 0, 0, 5523, -44, 27, 30, 412, 556, 15188, 602, 0, 0, 0, 0, 0
247, 27706955, 5, 2687, 0, 0, 0, 335, 335, 335, 335, 0, 0, 5523, -44, 29, 31, 480, 624, 15072, 602, 0, 0, 0, 0, 0
248, 27710829, 5, 2687, 0, 0, 0, 335, 335, 335, 335, 0, 0, 5523, -43, 32, 34, 512, 620, 14988, 602, 0, 0, 0, 0, 0
249, 27714696, 5, 2687, 0, 0, 0, 335, 335, 335, 335, 0, 0, 5523, -45, 32, 31, 500, 516, 15088, 602, 0, 0, 0, 0, 0
250, 27718562, 5, 2687, 0, 0, 0, 335, 335, 335, 335, 0, 0, 5523, -41, 32, 33, 432, 516, 15024, 602, 0, 0, 0, 0, 0
251, 27722421, 5, 2687, 0, 0, 0, 335, 335, 335, 335, 0, 0, 5523, -44, 30, 33, 416, 492, 15152, 602, 0, 0, 0, 0, 0
252, 27726293, 5, 2687, 0, 0, 0, 335, 335, 335, 335, 0, 0, 5523, -43, 28, 34, 472, 620, 15136, 602, 0, 0, 0, 0, 0
253, 27730155, 5, 2687, 0, 0, 0, 335, 335, 335, 335, 0, 0, 5523, -41, 31, 32, 472, 576, 14984, 602, 0, 0, 0, 0, 0
254, 27734075, 5, 2687, 0, 0, 0, 335, 335, 335, 335, 0, 0, 5523, -45, 31, 34, 468, 552, 14896, 602, 0, 0, 0, 0, 0
255, 27737891, 5, 2687, 0, 0, 0, 335, 335, 335, 335, 0, 0, 5523, -41, 30, 34, 364, 472, 14932, 602, 0, 0, 0, 0, 0
256, 27741763, 5, 2687, 0, 0, 0, 335, 335, 335, 335, 0, 0, 5523, -43, 31, 32, 460, 476, 15164, 602, 0, 0, 0, 0, 0
257, 27745627, 5, 2687, 0, 0, 0, 335, 335, 335, 335, 0, 0, 5523, -42, 31, 32, 532, 500, 15032, 602, 0, 0, 0, 0, 0
258, 27749499, 5, 2687, 0, 0, 0, 335, 335, 335, 335, 0, 0, 5523, -44, 32, 34, 452, 472, 15136, 602, 0, 0, 0, 0, 0
259, 27753433, 5, 2687, 0, 0, 0, 335, 335, 335, 335, 0, 0, 5523, -43, 31, 33, 420, 520, 15236, 595, 0, 0, 0, 0, 0
260, 27757243, 5, 2687, 0, 0, 0, 335, 335, 335, 335, 0, 0, 5523, -44, 30, 33, 476, 560, 15024, 595, 0, 0, 0, 0, 0
261, 27761096, 5, 2687, 0, 0, 0, 335, 335, 335, 335, 0, 0, 5523, -42, 30, 33, 384, 568, 15048, 595, 0, 0, 0, 0, 0
262, 27765014, 5, 2687, 0, 0, 0, 335, 335, 335, 335, 0, 0, 5523, -44, 29, 33, 464, 484, 14988, 595, 0, 0, 0, 0, 0
263, 27768838, 5, 2687, 0, 0, 0, 335, 335, 335, 335, 0, 0, 5523, -45, 31, 32, 508, 516, 14916, 595, 0, 0, 0, 0, 0
264, 27772710, 5, 2687, 0, 0, 0, 335, 335, 335, 335, 0, 0, 5523, -42, 31, 30, 444, 464, 15032, 595, 0, 0, 0, 0, 0
265, 27776574, 5, 2687, 0, 0, 0, 335, 335, 335, 335, 0, 0, 5523, -44, 29, 33, 512, 584, 15008, 595, 0, 0, 0, 0, 0
266, 27780435, 5, 2687, 0, 0, 0, 335, 335, 335, 335, 0, 0, 5523, -40, 29, 34, 352, 564, 15124, 595, 0, 0, 0, 0, 0
267, 27784300, 5, 2687, 0, 0, 0, 335, 335, 335, 335, 0, 0, 5523, -45, 33, 32, 500, 432, 15116, 595, 0, 0, 0, 0, 0
268, 27788170, 5, 2687, 0, 0, 0, 335, 335, 335, 335, 0, 0, 5523, -44, 31, 36, 460, 488, 15088, 595, 0, 0, 0, 0, 0
269, 27792032, 5, 2687, 0, 0, 0, 335, 335, 335, 335, 0, 0, 5523, -41, 30, 32, 452, 508, 15068, 595, 0, 0, 0, 0, 0
270, 27795957, 5, 2687, 0, 0, 0, 335, 335, 335, 335, 0, 0, 5523, -44, 32, 35, 420, 488, 15080, 595, 0, 0, 0, 0, 0
271, 27799776, 5, 2687, 0, 0, 0, 335, 335, 335, 335, 0, 0, 5523, -44, 32, 35, 552, 468, 14972, 595, 0, 0, 0, 0, 0
272, 27803720, 5, 2687, 0, 0, 0, 335, 335, 335, 335, 0, 0, 5523, -42, 27, 33, 420, 488, 15064, 602, 0, 0, 0, 0, 0
273, 27807502, 5, 2687, 0, 0, 0, 335, 335, 335, 335, 0, 0, 5523, -40, 32, 31, 380, 512, 15056, 602, 0, 0, 0, 0, 0
274, 27811371, 5, 2687, 0, 0, 0, 335, 335, 335, 335, 0, 0, 5523, -42, 31, 34, 452, 476, 15056, 602, 0, 0, 0, 0, 0
275, 27815235, 5, 2687, 0, 0, 0, 335, 335, 335, 335, 0, 0, 5523, -40, 30, 34, 540, 584, 15068, 602, 0, 0, 0, 0, 0
276, 27819107, 5, 2687, 0, 0, 0, 335, 335, 335, 335, 0, 0, 5523, -43, 31, 33, 408, 496, 15100, 602, 0, 0, 0, 0, 0
277, 27822971, 5, 2687, 0, 0, 0, 335, 335, 335, 335, 0, 0, 5523, -43, 29, 33, 460, 460, 15164, 602, 0, 0, 0, 0, 0
278, 27826880, 5, 2687, 0, 0, 0, 335, 335, 335, 335, 0, 0, 5523, -44, 28, 33, 440, 428, 15100, 602, 0, 0, 0, 0, 0
279, 27830707, 5, 2687, 0, 0, 0, 335, 335, 335, 335, 0, 0, 5523, -41, 30, 30, 460, 488, 15128, 602, 0, 0, 0, 0, 0
280, 27834571, 5, 2687, 0, 0, 0, 335, 335, 335, 335, 0, 0, 5523, -44, 30, 33, 488, 552, 15004, 602, 0, 0, 0, 0, 0
281, 27838453, 5, 2687, 0, 0, 0, 335, 335, 335, 335, 0, 0, 5523, -44, 32, 33, 468, 580, 15148, 602, 0, 0, 0, 0, 0
282, 27842306, 5, 2687, 0, 0, 0, 335, 335, 335, 335, 0, 0, 5523, -44, 32, 32, 356, 612, 15024, 602, 0, 0, 0, 0, 0
283, 27846179, 5, 2687, 0, 0, 0, 335, 335, 335, 335, 0, 0, 5523, -42, 27, 32, 516, 532, 15156, 602, 0, 0, 0, 0, 0
284, 27850037, 5, 2687, 0, 0, 0, 335, 335, 335, 335, 0, 0, 5523, -45, 29, 37, 404, 644, 15040, 602, 0, 0, 0, 0, 0
285, 27853995, 5, 2687, 0, 0, 0, 335, 335, 335, 335, 0, 0, 5523, -43, 31, 33, 496, 576, 15188, 595, 0, 0, 0, 0, 0
286, 27857820, 5, 2687, 0, 0, 0, 335, 335, 335, 335, 0, 0, 5523, -45, 32, 33, 416, 560, 15048, 595, 0, 0, 0, 0, 0
287, 27861645, 5, 2687, 0, 0, 0, 335, 335, 335, 335, 0, 0, 5523, -45, 31, 34, 364, 528, 14972, 595, 0, 0, 0, 0, 0
288, 27865507, 5, 2687, 0, 0, 0, 335, 335, 335, 335, 0, 0, 5523, -40, 31, 30, 396, 544, 14976, 595, 0, 0, 0, 0, 0
289, 27869379, 5, 2687, 0, 0, 0, 335, 335, 335, 335, 0, 0, 5523, -43, 29, 33, 464, 536, 15196, 595, 0, 0, 0, 0, 0
290, 27873247, 5, 2687, 0, 0, 0, 335, 335, 335, 335, 0, 0, 5523, -42, 28, 31, 408, 548, 15192, 595, 0, 0, 0, 0, 0
291, 27877121, 5, 2687, 0, 0, 0, 335, 335, 335, 335, 0, 0, 5523, -44, 31, 32, 560, 532, 14988, 595, 0, 0, 0, 0, 0
292, 27880980, 5, 2687, 0, 0, 0, 335, 335, 335, 335, 0, 0, 5523, -41, 30, 33, 468, 468, 15212, 595, 0, 0, 0, 0, 0
293, 27884850, 5, 2687, 0, 0, 0, 335, 335, 335, 335, 0, 0, 5523, -41, 33, 32, 416, 508, 14996, 595, 0, 0, 0, 0, 0
294, 27888761, 5, 2687, 0, 0, 0, 335, 335, 335, 335, 0, 0, 5523, -42, 31, 33, 480, 564, 15164, 595, 0, 0, 0, 0, 0
295, 27892586, 5, 2687, 0, 0, 0, 335, 335, 335, 335, 0, 0, 5523, -44, 28, 35, 492, 540, 14996, 595, 0, 0, 0, 0, 0
296, 27896451, 5, 2687, 0, 0, 0, 335, 335, 335, 335, 0, 0, 5523, -41, 32, 34, 560, 616, 15168, 595, 0, 0, 0, 0, 0
297, 27900567, 5, 2687, 0, 0, 0, 335, 335, 335, 335, 0, 0, 5523, -42, 30, 33, 492, 496, 15080, 602, 0, 0, 0, 0, 0
298, 27904178, 5, 2687, 0, 0, 0, 335, 335, 335, 335, 0, 0, 5523, -43, 31, 34, 452, 508, 14964, 602, 0, 0, 0, 0, 0
299, 27908050, 5, 2687, 0, 0, 0, 335, 335, 335, 335, 0, 0, 5523, -42, 31, 32, 464, 628, 15148, 602, 0, 0, 0, 0, 0
300, 27911911, 5, 2687, 0, 0, 0, 335, 335, 335, 335, 0, 0, 5523, -43, 27, 34, 404, 644, 15244, 602, 0, 0, 0, 0, 0
301, 27915784, 5, 2687, 0, 0, 0, 335, 335, 335, 335, 0, 0, 5523, -42, 34, 34, 488, 576, 15096, 602, 0, 0, 0, 0, 0
302, 27919690, 5, 2687, 0, 0, 0, 335, 335, 335, 335, 0, 0, 5523, -43, 30, 34, 444, 400, 15200, 602, 0, 0, 0, 0, 0
303, 27923527, 5, 2687, 0, 0, 0, 335, 335, 335, 335, 0, 0, 5523, -43, 30, 33, 512, 460, 15012, 602, 0, 0, 0, 0, 0
304, 27927381, 5, 2687, 0, 0, 0, 335, 335, 335, 335, 0, 0, 5523, -43, 30, 32, 444, 608, 15052, 602, 0, 0, 0, 0, 0
305, 27931254, 5, 2687, 0, 0, 0, 335, 335, 335, 335, 0, 0, 5523, -43, 33, 33, 460, 536, 14996, 602, 0, 0, 0, 0, 0
306, 27935119, 5, 2687, 0, 0, 0, 335, 335, 335, 335, 0, 0, 5523, -42, 32, 33, 480, 512, 15004, 602, 0, 0, 0, 0, 0
307, 27938986, 5, 2687, 0, 0, 0, 335, 335, 335, 335, 0, 0, 5523, -45, 31, 32, 448, 508, 15016, 602, 0, 0, 0, 0, 0
308, 27942857, 5, 2687, 0, 0, 0, 335, 335, 335, 335, 0, 0, 5523, -43, 29, 34, 468, 480, 15120, 602, 0, 0, 0, 0, 0
309, 27946720, 5, 2687, 0, 0, 0, 335, 335, 335, 335, 0, 0, 5523, -41, 31, 33, 500, 548, 15060, 602, 0, 0, 0, 0, 0
310, 27950652, 5, 2687, 0, 0, 0, 335, 335, 335, 335, 0, 0, 5523, -45, 29, 31, 520, 524, 15136, 595, 0, 0, 0, 0, 0
311, 27954459, 5, 2687, 0, 0, 0, 335, 335, 335, 335, 0, 0, 5523, -40, 30, 33, 516, 592, 15168, 595, 0, 0, 0, 0, 0
312, 27958322, 5, 2687, 0, 0, 0, 335, 335, 335, 335, 0, 0, 5523, -43, 31, 32, 508, 496, 15216, 595, 0, 0, 0, 0, 0
313, 27962193, 5, 2687, 0, 0, 0, 335, 335, 335, 335, 0, 0, 5523, -42, 29, 33, 436, 524, 15080, 595, 0, 0, 0, 0, 0
314, 27966060, 5, 2687, 0, 0, 0, 335, 335, 335, 335, 0, 0, 5523, -40, 30, 36, 464, 460, 14996, 595, 0, 0, 0, 0, 0
315, 27969933, 5, 2687, 0, 0, 0, 335, 335, 335, 335, 0, 0, 5523, -44, 28, 31, 492, 564, 15020, 595, 0, 0, 0, 0, 0
316, 27973795, 5, 2687, 0, 0, 0, 335, 335, 335, 335, 0, 0, 5523, -42, 32, 35, 444, 528, 15036, 595, 0, 0, 0, 0, 0
317, 27977655, 5, 2687, 0, 0, 0, 335, 335, 335, 335, 0, 0, 5523, -42, 32, 30, 448, 452, 15004, 595, 0, 0, 0, 0, 0
318, 27981575, 5, 2687, 0, 0, 0, 335, 335, 335, 335, 0, 0, 5523, -44, 32, 34, 460, 540, 14924, 595, 0, 0, 0, 0, 0
319, 27985390, 5, 2687, 0, 0, 0, 335, 335, 335, 335, 0, 0, 5523, -45, 28, 32, 536, 532, 15100, 595, 0, 0, 0, 0, 0
320, 27989262, 5, 2687, 0, 0, 0, 335, 335, 335, 335, 0, 0, 5523, -42, 30, 32, 452, 500, 15048, 595, 0, 0, 0, 0, 0
321, 27993124, 5, 2687, 0, 0, 0, 335, 335, 335, 335, 0, 0, 5523, -43, 31, 34, 380, 604, 15120, 595, 0, 0, 0, 0, 0
322, 27996998, 5, 2687, 0, 0, 0, 335, 335, 335, 335, 0, 0, 5523, -41, 33, 34, 496, 580, 15084, 595, 0, 0, 0, 0, 0
323, 28000871, 5, 2687, 0, 0, 0, 335, 335, 335, 335, 0, 0, 5523, -43, 30, 34, 496, 492, 15104, 602, 0, 0, 0, 0, 0
324, 28004737, 5, 2687, 0, 0, 0, 335, 335, 335, 335, 0, 0, 5523, -43, 29, 31, 448, 600, 14972, 602, 0, 0, 0, 0, 0
325, 28008610, 5, 2687, 0, 0, 0, 335, 335, 335, 335, 0, 0, 5523, -43, 32, 32, 504, 396, 15060, 602, 0, 0, 0, 0, 0
326, 28012507, 5, 2687, 0, 0, 0, 335, 335, 335, 335, 0, 0, 5523, -43, 27, 32, 416, 516, 15228, 602, 0, 0, 0, 0, 0
327, 28016333, 5, 2687, 0, 0, 0, 335, 335, 335, 335, 0, 0, 5523, -43, 31, 33, 416, 564, 15044, 602, 0, 0, 0, 0, 0
328, 28020204, 5, 2687, 0, 0, 0, 335, 335, 335, 335, 0, 0, 5523, -43, 30, 31, 528, 504, 15132, 602, 0, 0, 0, 0, 0
329, 28024066, 5, 2687, 0, 0, 0, 335, 335, 335, 335, 0, 0, 5523, -43, 28, 32, 624, 544, 15096, 602, 0, 0, 0, 0, 0
330, 28027928, 5, 2687, 0, 0, 0, 335, 335, 335, 335, 0, 0, 5523, -45, 33, 33, 440, 448, 15108, 602, 0, 0, 0, 0, 0
331, 28031800, 5, 2687, 0, 0, 0, 335, 335, 335, 335, 0, 0, 5523, -44, 27, 33, 428, 552, 15140, 602, 0, 0, 0, 0, 0
332, 28035664, 5, 2687, 0, 0, 0, 335, 335, 335, 335, 0, 0, 5523, -42, 31, 32, 492, 504, 15072, 602, 0, 0, 0, 0, 0
333, 28039536, 5, 2687, 0, 0, 0, 335, 335, 335, 335, 0, 0, 5523, -43, 31, 32, 316, 560, 15100, 602, 0, 0, 0, 0, 0
334, 28043456, 5, 2687, 0, 0, 0, 335, 335, 335, 335, 0, 0, 5523, -43, 31, 34, 504, 644, 15068, 602, 0, 0, 0, 0, 0
335, 28047271, 5, 2687, 0, 0, 0, 335, 335, 335, 335, 0, 0, 5523, -43, 30, 33, 448, 512, 15116, 602, 0, 0, 0, 0, 0
336, 28051203, 5, 2687, 0, 0, 0, 335, 335, 335, 335, 0, 0, 5523, -43, 35, 34, 436, 576, 15128, 595, 0, 0, 0, 0, 0
337, 28055000, 5, 2687, 0, 0, 0, 335, 335, 335, 335, 0, 0, 5523, -43, 32, 33, 440, 600, 14944, 595, 0, 0, 0, 0, 0
338, 28058872, 5, 2687, 0, 0, 0, 335, 335, 335, 335, 0, 0, 5523, -44, 31, 33, 488, 528, 14948, 595, 0, 0, 0, 0, 0
339, 28062733, 5, 2687, 0, 0, 0, 335, 335, 335, 335, 0, 0, 5523, -45, 31, 32, 448, 604, 15132, 595, 0, 0, 0, 0, 0
340, 28066604, 5, 2687, 0, 0, 0, 335, 335, 335, 335, 0, 0, 5523, -42, 28, 34, 440, 564, 15096, 595, 0, 0, 0, 0, 0
341, 28070468, 5, 2687, 0, 0, 0, 335, 335, 335, 335, 0, 0, 5523, -43, 30, 33, 472, 608, 15128, 595, 0, 0, 0, 0, 0
342, 28074389, 5, 2687, 0, 0, 0, 335, 335, 335, 335, 0, 0, 5523, -42, 31, 33, 472, 564, 15012, 595, 0, 0, 0, 0, 0
343, 28078204, 5, 2687, 0, 0, 0, 335, 335, 335, 335, 0, 0, 5523, -43, 29, 32, 404, 488, 15156, 595, 0, 0, 0, 0, 0
344, 28082083, 5, 2687, 0, 0, 0, 335, 335, 335, 335, 0, 0, 5523, -43, 32, 34, 428, 516, 15120, 595, 0, 0, 0, 0, 0
345, 28085948, 5, 2687, 0, 0, 0, 335, 335, 335, 335, 0, 0, 5523, -42, 33, 34, 496, 528, 15284, 595, 0, 0, 0, 0, 0
346, 28089820, 5, 2687, 0, 0, 0, 335, 335, 335, 335, 0, 0, 5523, -43, 29, 32, 476, 632, 15136, 595, 0, 0, 0, 0, 0
347, 28093672, 5, 2687, 0, 0, 0, 335, 335, 335, 335, 0, 0, 5523, -45, 32, 34, 312, 460, 15096, 595, 0, 0, 0, 0, 0
348, 28097553, 5, 2687, 0, 0, 0, 335, 335, 335, 335, 0, 0, 5523, -43, 32, 30, 424, 504, 15044, 595, 0, 0, 0, 0, 0
349, 28101456, 5, 2687, 0, 0, 0, 335, 335, 335, 335, 0, 0, 5523, -43, 32, 33, 388, 544, 15236, 595, 0, 0, 0, 0, 0
350, 28105329, 5, 2687, 0, 0, 0, 335, 335, 335, 335, 0, 0, 5523, -43, 31, 31, 500, 492, 15076, 595, 0, 0, 0, 0, 0
351, 28109142, 5, 2687, 0, 0, 0, 335, 335, 335, 335, 0, 0, 5523, -43, 34, 34, 448, 556, 15116, 595, 0, 0, 0, 0, 0
352, 28113016, 5, 2687, 0, 0, 0, 335, 335, 335, 335, 0, 0, 5523, -41, 33, 31, 504, 456, 15172, 595, 0, 0, 0, 0, 0
353, 28116880, 5, 2687, 0, 0, 0, 335, 335, 335, 335, 0, 0, 5523, -44, 32, 32, 428, 456, 15064, 595, 0, 0, 0, 0, 0
354, 28120750, 5, 2687, 0, 0, 0, 335, 335, 335, 335, 0, 0, 5523, -43, 30, 33, 496, 532, 15020, 595, 0, 0, 0, 0, 0
355, 28124622, 5, 2687, 0, 0, 0, 335, 335, 335, 335, 0, 0, 5523, -44, 31, 33, 380, 508, 14996, 595, 0, 0, 0, 0, 0
356, 28128493, 5, 2687, 0, 0, 0, 335, 335, 335, 335, 0, 0, 5523, -43, 32, 33, 408, 476, 15096, 595, 0, 0, 0, 0, 0
357, 28132353, 5, 2687, 0, 0, 0, 335, 335, 335, 335, 0, 0, 5523, -42, 31, 32, 548, 468, 14928, 595, 0, 0, 0, 0, 0
358, 28136268, 5, 2687, 0, 0, 0, 335, 335, 335, 335, 0, 0, 5523, -44, 31, 35, 452, 500, 15100, 595, 0, 0, 0, 0, 0
359, 28140088, 5, 2687, 0, 0, 0, 335, 335, 335, 335, 0, 0, 5523, -43, 33, 34, 524, 644, 15176, 595, 0, 0, 0, 0, 0
360, 28143950, 5, 2687, 0, 0, 0, 335, 335, 335, 335, 0, 0, 5523, -43, 31, 33, 436, 480, 15052, 595, 0, 0, 0, 0, 0
361, 28147822, 5, 2687, 0, 0, 0, 335, 335, 335, 335, 0, 0, 5523, -42, 29, 35, 552, 492, 15080, 595, 0, 0, 0, 0, 0
362, 28151726, 5, 2687, 0, 0, 0, 335, 335, 335, 335, 0, 0, 5523, -43, 30, 33, 524, 592, 15000, 595, 0, 0, 0, 0, 0
363, 28155555, 5, 2687, 0, 0, 0, 335, 335, 335, 335, 0, 0, 5523, -41, 30, 32, 500, 612, 15048, 595, 0, 0, 0, 0, 0
364, 28159420, 5, 2687, 0, 0, 0, 335, 335, 335, 335, 0, 0, 5523, -45, 32, 35, 508, 552, 15060, 595, 0, 0, 0, 0, 0
365, 28163290, 5, 2687, 0, 0, 0, 335, 335, 335, 335, 0, 0, 5523, -43, 34, 33, 448, 488, 15216, 595, 0, 0, 0, 0, 0
366, 28167210, 5, 2687, 0, 0, 0, 335, 335, 335, 335, 0, 0, 5523, -45, 30, 32, 456, 464, 15116, 595, 0, 0, 0, 0, 0
367, 28171028, 5, 2687, 0, 0, 0, 335, 335, 335, 335, 0, 0, 5523, -43, 32, 34, 436, 616, 15020, 595, 0, 0, 0, 0, 0
368, 28174898, 5, 2687, 0, 0, 0, 335, 335, 335, 335, 0, 0, 5523, -43, 33, 32, 452, 520, 15040, 595, 0, 0, 0, 0, 0
369, 28178769, 5, 2687, 0, 0, 0, 335, 335, 335, 335, 0, 0, 5523, -44, 29, 32, 416, 512, 15104, 595, 0, 0, 0, 0, 0
370, 28182627, 5, 2687, 0, 0, 0, 335, 335, 335, 335, 0, 0, 5523, -44, 31, 32, 532, 484, 15128, 595, 0, 0, 0, 0, 0
371, 28186489, 5, 2687, 0, 0, 0, 335, 335, 335, 335, 0, 0, 5523, -44, 31, 31, 460, 608, 15012, 595, 0, 0, 0, 0, 0
372, 28190363, 5, 2687, 0, 0, 0, 335, 335, 335, 335, 0, 0, 5523, -46, 32, 32, 524, 480, 15016, 595, 0, 0, 0, 0, 0
373, 28194226, 5, 2687, 0, 0, 0, 335, 335, 335, 335, 0, 0, 5523, -42, 32, 34, 396, 512, 15044, 595, 0, 0, 0, 0, 0
374, 28198146, 5, 2687, 0, 0, 0, 335, 335, 335, 335, 0, 0, 5523, -44, 32, 33, 484, 568, 15016, 595, 0, 0, 0, 0, 0
375, 28202029, 5, 2687, 0, 0, 0, 335, 335, 335, 335, 0, 0, 5523, -44, 28, 32, 472, 572, 14976, 602, 0, 0, 0, 0, 0
376, 28205831, 5, 2687, 0, 0, 0, 335, 335, 335, 335, 0, 0, 5523, -43, 33, 34, 440, 516, 15056, 602, 0, 0, 0, 0, 0
377, 28209695, 5, 2687, 0, 0, 0, 335, 335, 335, 335, 0, 0, 5523, -43, 30, 34, 500, 512, 15124, 602, 0, 0, 0, 0, 0
378, 28213577, 5, 2687, 0, 0, 0, 335, 335, 335, 335, 0, 0, 5523, -42, 31, 32, 528, 400, 15008, 602, 0, 0, 0, 0, 0
379, 28217431, 5, 2687, 0, 0, 0, 335, 335, 335, 335, 0, 0, 5523, -43, 35, 33, 408, 560, 15104, 602, 0, 0, 0, 0, 0
380, 28221305, 5, 2687, 0, 0, 0, 335, 335, 335, 335, 0, 0, 5523, -45, 33, 33, 492, 476, 15028, 602, 0, 0, 0, 0, 0
381, 28225167, 5, 2687, 0, 0, 0, 335, 335, 335, 335, 0, 0, 5523, -43, 32, 34, 460, 496, 14952, 602, 0, 0, 0, 0, 0
382, 28229085, 5, 2687, 0, 0, 0, 335, 335, 335, 335, 0, 0, 5523, -44, 33, 36, 452, 472, 15136, 602, 0, 0, 0, 0, 0
383, 28232903, 5, 2687, 0, 0, 0, 335, 335, 335, 335, 0, 0, 5523, -43, 28, 34, 476, 528, 14996, 602, 0, 0, 0, 0, 0
384, 28236775, 5, 2687, 0, 0, 0, 335, 335, 335, 335, 0, 0, 5523, -44, 35, 33, 416, 508, 15108, 602, 0, 0, 0, 0, 0
385, 28240636, 5, 2687, 0, 0, 0, 335, 335, 335, 335, 0, 0, 5523, -46, 28, 32, 448, 556, 15004, 602, 0, 0, 0, 0, 0
386, 28244511, 5, 2687, 0, 0, 0, 335, 335, 335, 335, 0, 0, 5523, -44, 29, 35, 580, 536, 15152, 602, 0, 0, 0, 0, 0
387, 28248369, 5, 2687, 0, 0, 0, 335, 335, 335, 335, 0, 0, 5523, -44, 33, 34, 412, 516, 14976, 602, 0, 0, 0, 0, 0
388, 28252278, 5, 2687, 0, 0, 0, 335, 335, 335, 335, 0, 0, 5523, -45, 31, 32, 460, 476, 15052, 595, 0, 0, 0, 0, 0
389, 28256110, 5, 2687, 0, 0, 0, 335, 335, 335, 335, 0, 0, 5523, -42, 29, 36, 512, 488, 14980, 595, 0, 0, 0, 0, 0
390, 28260016, 5, 2687, 0, 0, 0, 335, 335, 335, 335, 0, 0, 5523, -43, 31, 33, 536, 504, 15100, 595, 0, 0, 0, 0, 0
391, 28263838, 5, 2687, 0, 0, 0, 335, 335, 335, 335, 0, 0, 5523, -44, 31, 31, 404, 492, 15076, 595, 0, 0, 0, 0, 0
392, 28267720, 5, 2687, 0, 0, 0, 335, 335, 335, 335, 0, 0, 5523, -43, 30, 34, 468, 476, 15104, 595, 0, 0, 0, 0, 0
393, 28271576, 5, 2687, 0, 0, 0, 335, 335, 335, 335, 0, 0, 5523, -46, 29, 30, 480, 496, 15072, 595, 0, 0, 0, 0, 0
394, 28275449, 5, 2687, 0, 0, 0, 335, 335, 335, 335, 0, 0, 5523, -45, 33, 34, 476, 452, 15092, 595, 0, 0, 0, 0, 0
395, 28279314, 5, 2687, 0, 0, 0, 335, 335, 335, 335, 0, 0, 5523, -43, 28, 32, 476, 416, 15080, 595, 0, 0, 0, 0, 0
396, 28283177, 5, 2687, 0, 0, 0, 335, 335, 335, 335, 0, 0, 5523, -43, 32, 32, 456, 452, 15256, 595, 0, 0, 0, 0, 0
397, 28287051, 5, 2687, 0, 0, 0, 335, 335, 335, 335, 0, 0, 5523, -44, 31, 35, 520, 548, 15092, 595, 0, 0, 0, 0, 0
398, 28290970, 5, 2687, 0, 0, 0, 335, 335, 335, 335, 0, 0, 5523, -42, 31, 33, 544, 516, 15232, 595, 0, 0, 0, 0, 0
399, 28294796, 5, 2687, 0, 0, 0, 335, 335, 335, 335, 0, 0, 5523, -45, 34, 33, 516, 548, 15208, 595, 0, 0, 0, 0, 0
400, 28298660, 5, 2687, 0, 0, 0, 335, 335, 335, 335, 0, 0, 5523, -42, 33, 34, 508, 584, 15048, 595, 0, 0, 0, 0, 0
401, 28302565, 5, 2687, 0, 0, 0, 335, 335, 335, 335, 0, 0, 5523, -42, 28, 33, 376, 468, 14932, 602, 0, 0, 0, 0, 0
402, 28306392, 5, 2687, 0, 0, 0, 335, 335, 335, 335, 0, 0, 5523, -45, 31, 34, 456, 528, 15008, 602, 0, 0, 0, 0, 0
403, 28310254, 5, 2687, 0, 0, 0, 335, 335, 335, 335, 0, 0, 5523, -42, 31, 33, 512, 468, 15040, 602, 0, 0, 0, 0, 0
404, 28314113, 5, 2687, 0, 0, 0, 335, 335, 335, 335, 0, 0, 5523, -43, 31, 32, 452, 472, 15152, 602, 0, 0, 0, 0, 0
405, 28317986, 5, 2687, 0, 0, 0, 335, 335, 335, 335, 0, 0, 5523, -41, 30, 29, 468, 544, 15120, 602, 0, 0, 0, 0, 0
406, 28321895, 5, 2687, 0, 0, 0, 335, 335, 335, 335, 0, 0, 5523, -44, 30, 33, 416, 504, 15060, 602, 0, 0, 0, 0, 0
407, 28325720, 5, 2687, 0, 0, 0, 335, 335, 335, 335, 0, 0, 5523, -42, 33, 31, 420, 604, 15032, 602, 0, 0, 0, 0, 0
408, 28329591, 5, 2687, 0, 0, 0, 335, 335, 335, 335, 0, 0, 5523, -43, 27, 33, 432, 624, 15116, 602, 0, 0, 0, 0, 0
409, 28333463, 5, 2687, 0, 0, 0, 335, 335, 335, 335, 0, 0, 5523, -43, 31, 33, 412, 504, 15036, 602, 0, 0, 0, 0, 0
410, 28337325, 5, 2687, 0, 0, 0, 335, 335, 335, 335, 0, 0, 5523, -41, 31, 33, 452, 404, 14984, 602, 0, 0, 0, 0, 0
411, 28341188, 5, 2687, 0, 0, 0, 335, 335, 335, 335, 0, 0, 5523, -41, 31, 32, 384, 556, 15104, 602, 0, 0, 0, 0, 0
412, 28345060, 5, 2687, 0, 0, 0, 335, 335, 335, 335, 0, 0, 5523, -45, 28, 33, 412, 532, 15108, 602, 0, 0, 0, 0, 0
413, 28348923, 5, 2687, 0, 0, 0, 335, 335, 335, 335, 0, 0, 5523, -44, 31, 32, 344, 568, 15112, 602, 0, 0, 0, 0, 0
414, 28352883, 5, 2687, 0, 0, 0, 335, 335, 335, 335, 0, 0, 5523, -43, 34, 33, 456, 536, 14936, 595, 0, 0, 0, 0, 0
415, 28356663, 5, 2687, 0, 0, 0, 335, 335, 335, 335, 0, 0, 5523, -45, 29, 31, 504, 516, 15084, 595, 0, 0, 0, 0, 0
416, 28360524, 5, 2687, 0, 0, 0, 335, 335, 335, 335, 0, 0, 5523, -45, 34, 31, 348, 460, 15072, 595, 0, 0, 0, 0, 0
417, 28364399, 5, 2687, 0, 0, 0, 335, 335, 335, 335, 0, 0, 5523, -44, 28, 32, 596, 644, 15056, 595, 0, 0, 0, 0, 0
418, 28368263, 5, 2687, 0, 0, 0, 335, 335, 335, 335, 0, 0, 5523, -42, 33, 34, 536, 456, 15200, 595, 0, 0, 0, 0, 0
419, 28372135, 5, 2687, 0, 0, 0, 335, 335, 335, 335, 0, 0, 5523, -42, 32, 34, 528, 580, 15072, 595, 0, 0, 0, 0, 0
420, 28375998, 5, 2687, 0, 0, 0, 335, 335, 335, 335, 0, 0, 5523, -42, 31, 33, 448, 440, 15040, 595, 0, 0, 0, 0, 0
421, 28379873, 5, 2687, 0, 0, 0, 335, 335, 335, 335, 0, 0, 5523, -43, 32, 31, 432, 500, 15136, 595, 0, 0, 0, 0, 0
422, 28383775, 5, 2687, 0, 0, 0, 335, 335, 335, 335, 0, 0, 5523, -41, 33, 36, 520, 508, 15096, 595, 0, 0, 0, 0, 0
423, 28387602, 5, 2687, 0, 0, 0, 335, 335, 335, 335, 0, 0, 5523, -44, 33, 33, 488, 464, 14928, 595, 0, 0, 0, 0, 0
424, 28391476, 5, 2687, 0, 0, 0, 335, 335, 335, 335, 0, 0, 5523, -43, 31, 34, 456, 432, 15140, 595, 0, 0, 0, 0, 0
425, 28395338, 5, 2687, 0, 0, 0, 335, 335, 335, 335, 0, 0, 5523, -42, 30, 33, 396, 420, 14960, 595, 0, 0, 0, 0, 0
426, 28399203, 5, 2687, 0, 0, 0, 335, 335, 335, 335, 0, 0, 5523, -40, 29, 33, 476, 452, 15176, 595, 0, 0, 0, 0, 0
427, 28403129, 5, 2687, 0, 0, 0, 335, 335, 335, 335, 0, 0, 5523, -43, 30, 32, 528, 484, 15156, 602, 0, 0, 0, 0, 0
428, 28406938, 5, 2687, 0, 0, 0, 335, 335, 335, 335, 0, 0, 5523, -40, 32, 33, 396, 584, 15192, 602, 0, 0, 0, 0, 0
429, 28410809, 5, 2687, 0, 0, 0, 335, 335, 335, 335, 0, 0, 5523, -42, 33, 33, 492, 536, 15076, 602, 0, 0, 0, 0, 0
430, 28414718, 5, 2687, 0, 0, 0, 335, 335, 335, 335, 0, 0, 5523, -43, 33, 33, 428, 592, 15224, 602, 0, 0, 0, 0, 0
431, 28418536, 5, 2687, 0, 0, 0, 335, 335, 335, 335, 0, 0, 5523, -43, 31, 31, 468, 540, 15156, 602, 0, 0, 0, 0, 0
432, 28422407, 5, 2687, 0, 0, 0, 335, 335, 335, 335, 0, 0, 5523, -44, 31, 34, 448, 540, 15064, 602, 0, 0, 0, 0, 0
433, 28426271, 5, 2687, 0, 0, 0, 335, 335, 335, 335, 0, 0, 5523, -43, 31, 32, 472, 540, 15060, 602, 0, 0, 0, 0, 0
434, 28430142, 5, 2687, 0, 0, 0, 335, 335, 335, 335, 0, 0, 5523, -44, 31, 33, 548, 564, 15000, 602, 0, 0, 0, 0, 0
435, 28434002, 5, 2687, 0, 0, 0, 335, 335, 335, 335, 0, 0, 5523, -41, 30, 31, 436, 420, 14972, 602, 0, 0, 0, 0, 0
436, 28437873, 5, 2687, 0, 0, 0, 335, 335, 335, 335, 0, 0, 5523, -46, 33, 34, 404, 552, 15068, 602, 0, 0, 0, 0, 0
437, 28441745, 5, 2687, 0, 0, 0, 335, 335, 335, 335, 0, 0, 5523, -43, 34, 32, 460, 488, 15076, 602, 0, 0, 0, 0, 0
438, 28445653, 5, 2687, 0, 0, 0, 335, 335, 335, 335, 0, 0, 5523, -44, 28, 32, 496, 492, 15004, 602, 0, 0, 0, 0, 0
439, 28449480, 5, 2687, 0, 0, 0, 335, 335, 335, 335, 0, 0, 5523, -40, 29, 32, 464, 468, 14960, 602, 0, 0, 0, 0, 0
440, 28453378, 5, 2687, 0, 0, 0, 335, 335, 335, 335, 0, 0, 5523, -44, 31, 35, 564, 464, 15068, 595, 0, 0, 0, 0, 0
441, 28457215, 5, 2687, 0, 0, 0, 335, 335, 335, 335, 0, 0, 5523, -42, 30, 33, 400, 496, 15004, 595, 0, 0, 0, 0, 0
442, 28461080, 5, 2687, 0, 0, 0, 335, 335, 335, 335, 0, 0, 5523, -44, 30, 32, 492, 496, 15000, 595, 0, 0, 0, 0, 0
443, 28464951, 5, 2687, 0, 0, 0, 335, 335, 335, 335, 0, 0, 5523, -45, 30, 37, 432, 444, 14916, 595, 0, 0, 0, 0, 0
444, 28468820, 5, 2687, 0, 0, 0, 335, 335, 335, 335, 0, 0, 5523, -41, 32, 33, 452, 436, 15176, 595, 0, 0, 0, 0, 0
445, 28472681, 5, 2687, 0, 0, 0, 335, 335, 335, 335, 0, 0, 5523, -44, 30, 30, 492, 560, 15144, 595, 0, 0, 0, 0, 0
446, 28476599, 5, 2687, 0, 0, 0, 335, 335, 335, 335, 0, 0, 5523, -41, 35, 33, 452, 580, 15084, 595, 0, 0, 0, 0, 0
447, 28480415, 5, 2687, 0, 0, 0, 335, 335, 335, 335, 0, 0, 5523, -45, 29, 34, 436, 548, 14848, 595, 0, 0, 0, 0, 0
448, 28484288, 5, 2687, 0, 0, 0, 335, 335, 335, 335, 0, 0, 5523, -45, 27, 32, 484, 516, 14996, 595, 0, 0, 0, 0, 0
449, 28488150, 5, 2687, 0, 0, 0, 335, 335, 335, 335, 0, 0, 5523, -41, 32, 33, 372, 512, 15428, 595, 0, 0, 0, 0, 0
450, 28492022, 5, 2687, 0, 0, 0, 335, 335, 335, 335, 0, 0, 5523, -43, 35, 35, 384, 532, 15224, 595, 0, 0, 0, 0, 0
451, 28495891, 5, 2687, 0, 0, 0, 335, 335, 335, 335, 0, 0, 5523, -44, 27, 34, 448, 588, 14724, 595, 0, 0, 0, 0, 0
452, 28499763, 5, 2687, 0, 0, 0, 335, 335, 335, 335, 0, 0, 5523, -44, 29, 31, 368, 448, 15260, 595, 0, 0, 0, 0, 0
453, 28503684, 5, 2687, 0, 0, 0, 335, 335, 335, 335, 0, 0, 5523, -45, 33, 34, 492, 612, 14924, 602, 0, 0, 0, 0, 0
454, 28507541, 5, 2687, 0, 0, 0, 335, 335, 335, 335, 0, 0, 5523, -48, 24, 33, 408, 424, 15060, 602, 0, 0, 0, 0, 0
455, 28511353, 5, 2687, 0, 0, 0, 335, 335, 335, 335, 0, 0, 5523, -38, 37, 33, 476, 376, 15212, 602, 0, 0, 0, 0, 0
456, 28515224, 5, 2687, 0, 0, 0, 335, 335, 335, 335, 0, 0, 5523, -45, 25, 34, 452, 576, 15032, 602, 0, 0, 0, 0, 0
457, 28519089, 5, 2687, 0, 0, 0, 335, 335, 335, 335, 0, 0, 5523, -42, 35, 32, 552, 496, 15000, 602, 0, 0, 0, 0, 0
458, 28522960, 5, 2687, 0, 0, 0, 335, 335, 335, 335, 0, 0, 5523, -45, 31, 32, 396, 644, 14996, 602, 0, 0, 0, 0, 0
459, 28526823, 5, 2687, 0, 0, 0, 335, 335, 335, 335, 0, 0, 5523, -43, 29, 32, 384, 472, 15324, 602, 0, 0, 0, 0, 0
460, 28530696, 5, 2687, 0, 0, 0, 335, 335, 335, 335, 0, 0, 5523, -44, 34, 35, 460, 564, 15164, 602, 0, 0, 0, 0, 0
461, 28534560, 5, 2687, 0, 0, 0, 335, 335, 335, 335, 0, 0, 5523, -46, 26, 32, 472, 576, 15032, 602, 0, 0, 0, 0, 0
462, 28538479, 5, 2687, 0, 0, 0, 335, 335, 335, 335, 0, 0, 5523, -41, 33, 33, 484, 504, 15256, 602, 0, 0, 0, 0, 0
463, 28542296, 5, 2687, 0, 0, 0, 335, 335, 335, 335, 0, 0, 5523, -43, 33, 34, 496, 620, 14972, 602, 0, 0, 0, 0, 0
464, 28546167, 5, 2687, 0, 0, 0, 335, 335, 335, 335, 0, 0, 5523, -44, 28, 29, 396, 500, 14984, 602, 0, 0, 0, 0, 0
465, 28550031, 5, 2687, 0, 0, 0, 335, 335, 335, 335, 0, 0, 5523, -41, 32, 31, 464, 532, 15020, 602, 0, 0, 0, 0, 0
466, 28553979, 5, 2687, 0, 0, 0, 335, 335, 335, 335, 0, 0, 5523, -44, 31, 34, 404, 576, 15084, 595, 0, 0, 0, 0, 0
467, 28557768, 5, 2687, 0, 0, 0, 335, 335, 335, 335, 0, 0, 5523, -43, 31, 33, 396, 568, 14956, 595, 0, 0, 0, 0, 0
468, 28561631, 5, 2687, 0, 0, 0, 335, 335, 335, 335, 0, 0, 5523, -42, 30, 30, 440, 624, 15140, 595, 0, 0, 0, 0, 0
469, 28565505, 5, 2687, 0, 0, 0, 335, 335, 335, 335, 0, 0, 5523, -45, 30, 34, 464, 588, 15056, 595, 0, 0, 0, 0, 0
470, 28569412, 5, 2687, 0, 0, 0, 335, 335, 335, 335, 0, 0, 5523, -43, 32, 31, 312, 544, 15160, 595, 0, 0, 0, 0, 0
471, 28573236, 5, 2687, 0, 0, 0, 335, 335, 335, 335, 0, 0, 5523, -42, 30, 32, 408, 448, 15068, 595, 0, 0, 0, 0, 0
472, 28577113, 5, 2687, 0, 0, 0, 335, 335, 335, 335, 0, 0, 5523, -43, 30, 33, 496, 456, 15164, 595, 0, 0, 0, 0, 0
473, 28580975, 5, 2687, 0, 0, 0, 335, 335, 335, 335, 0, 0, 5523, -45, 31, 34, 420, 552, 15032, 595, 0, 0, 0, 0, 0
474, 28584843, 5, 2687, 0, 0, 0, 335, 335, 335, 335, 0, 0, 5523, -42, 31, 35, 448, 496, 15004, 595, 0, 0, 0, 0, 0
475, 28588714, 5, 2687, 0, 0, 0, 335, 335, 335, 335, 0, 0, 5523, -44, 30, 33, 512, 496, 15188, 595, 0, 0, 0, 0, 0
476, 28592581, 5, 2687, 0, 0, 0, 335, 335, 335, 335, 0, 0, 5523, -42, 29, 32, 508, 476, 15072, 595, 0, 0, 0, 0, 0
477, 28596445, 5, 2687, 0, 0, 0, 335, 335, 335, 335, 0, 0, 5523, -44, 32, 33, 484, 596, 15232, 595, 0, 0, 0, 0, 0
478, 28600556, 5, 2687, 0, 0, 0, 335, 335, 335, 335, 0, 0, 5523, -44, 32, 30, 380, 448, 15208, 602, 0, 0, 0, 0, 0
