index_log, time_stamp, mode, thrust, roll, pitch, yaw, ae[0], ae[1], ae[2], ae[3], phi, theta, psi, sp, sq, sr, esp, esq, esr, sax, say, saz, bat_volt, P, P1, P2, temperature, pressure
0, 1833754, 0, 2687, 0, 0, 0, 0, 0, 0, 0, 80, -515, 354, -65, 33, 35, 0, 0, 0, -2074, 798, 14890, 602, 0, 0, 0, 0, 0
1, 1843732, 0, 2687, 0, 0, 0, 0, 0, 0, 0, 79, -518, 357, -33, 35, 29, 0, 0, 0, -2092, 1082, 14698, 602, 0, 0, 0, 0, 0
2, 1853993, 0, 2687, 0, 0, 0, 0, 0, 0, 0, 80, -520, 360, -37, 36, 31, 0, 0, 0, -2072, 988, 14792, 602, 0, 0, 0, 0, 0
3, 1863701, 0, 2687, 0, 0, 0, 0, 0, 0, 0, 80, -523, 363, -33, 34, 29, 0, 0, 0, -2138, 1122, 14566, 602, 0, 0, 0, 0, 0
4, 1873672, 0, 2687, 0, 0, 0, 0, 0, 0, 0, 80, -526, 366, -42, 34, 32, 0, 0, 0, -2102, 950, 14830, 602, 0, 0, 0, 0, 0
5, 1883647, 0, 2687, 0, 0, 0, 0, 0, 0, 0, 81, -530, 369, -32, 33, 30, 0, 0, 0, -2058, 1174, 14572, 602, 0, 0, 0, 0, 0
6, 1893594, 0, 2687, 0, 0, 0, 0, 0, 0, 0, 81, -533, 372, -48, 34, 32, 0, 0, 0, -2080, 970, 14834, 602, 0, 0, 0, 0, 0
7, 1903564, 0, 2687, 0, 0, 0, 0, 0, 0, 0, 80, -536, 375, -41, 34, 30, 0, 0, 0, -2108, 1102, 14610, 595, 0, 0, 0, 0, 0
8, 1913551, 0, 2687, 0, 0, 0, 0, 0, 0, 0, 80, -539, 378, -46, 34, 31, 0, 0, 0, -2068, 1008, 14686, 595, 0, 0, 0, 0, 0
9, 1923543, 0, 2687, 0, 0, 0, 0, 0, 0, 0, 79, -542, 381, -44, 33, 30, 0, 0, 0, -2070, 1072, 14678, 595, 0, 0, 0, 0, 0
10, 1933513, 0, 2687, 0, 0, 0, 0, 0, 0, 0, 79, -544, 384, -46, 34, 31, 0, 0, 0, -2040, 1000, 14762, 595, 0, 0, 0, 0, 0
11, 1943474, 0, 2687, 0, 0, 0, 0, 0, 0, 0, 78, -547, 388, -43, 33, 31, 0, 0, 0, -2054, 1058, 14660, 595, 0, 0, 0, 0, 0
12, 1953791, 0, 2687, 0, 0, 0, 0, 0, 0, 0, 78, -550, 391, -46, 33, 31, 0, 0, 0, -2014, 1012, 14754, 602, 0, 0, 0, 0, 0
13, 1963444, 0, 2687, 0, 0, 0, 0, 0, 0, 0, 77, -552, 394, -42, 33, 31, 0, 0, 0, -2004, 1080, 14700, 602, 0, 0, 0, 0, 0
14, 1973517, 0, 2687, 0, 0, 0, 0, 0, 0, 0, 77, -555, 397, -46, 32, 32, 0, 0, 0, -2002, 1026, 14768, 602, 0, 0, 0, 0, 0
15, 1983387, 0, 2687, 0, 0, 0, 0, 0, 0, 0, 76, -557, 400, -43, 32, 31, 0, 0, 0, -2020, 1074, 14712, 602, 0, 0, 0, 0, 0
16, 1993559, 0, 2687, 0, 0, 0, 0, 0, 0, 0, 76, -560, 403, -46, 32, 31, 0, 0, 0, -2014, 1046, 14740, 602, 0, 0, 0, 0, 0
17, 2003347, 0, 2687, 0, 0, 0, 0, 0, 0, 0, 75, -562, 406, -43, 32, 31, 0, 0, 0, -2078, 1032, 14690, 602, 0, 0, 0, 0, 0
18, 2013449, 0, 2687, 0, 0, 0, 0, 0, 0, 0, 75, -565, 410, -45, 32, 32, 0, 0, 0, -2086, 1032, 14672, 602, 0, 0, 0, 0, 0
19, 2023307, 0, 2687, 0, 0, 0, 0, 0, 0, 0, 75, -568, 413, -43, 32, 32, 0, 0, 0, -2102, 1052, 14698, 602, 0, 0, 0, 0, 0
20, 2033296, 0, 2687, 0, 0, 0, 0, 0, 0, 0, 74, -571, 416, -44, 33, 32, 0, 0, 0, -2122, 1030, 14678, 602, 0, 0, 0, 0, 0
21, 2043282, 0, 2687, 0, 0, 0, 0, 0, 0, 0, 74, -574, 419, -44, 33, 31, 0, 0, 0, -2104, 1032, 14708, 602, 0, 0, 0, 0, 0
22, 2053746, 0, 2687, 0, 0, 0, 0, 0, 0, 0, 73, -577, 422, -45, 33, 31, 0, 0, 0, -2074, 1054, 14678, 602, 0, 0, 0, 0, 0
23, 2063225, 0, 2687, 0, 0, 0, 0, 0, 0, 0, 73, -579, 425, -44, 33, 32, 0, 0, 0, -2050, 1044, 14712, 602, 0, 0, 0, 0, 0
24, 2073209, 0, 2687, 0, 0, 0, 0, 0, 0, 0, 72, -582, 429, -44, 32, 31, 0, 0, 0, -2030, 1042, 14730, 602, 0, 0, 0, 0, 0
25, 2083194, 0, 2687, 0, 0, 0, 0, 0, 0, 0, 72, -584, 432, -44, 32, 31, 0, 0, 0, -2024, 1056, 14734, 602, 0, 0, 0, 0, 0
26, 2093166, 0, 2687, 0, 0, 0, 0, 0, 0, 0, 71, -587, 435, -44, 32, 30, 0, 0, 0, -2030, 1042, 14728, 602, 0, 0, 0, 0, 0
27, 2103144, 0, 2687, 0, 0, 0, 0, 0, 0, 0, 71, -590, 438, -44, 31, 30, 0, 0, 0, -2042, 1026, 14714, 567, 0, 0, 0, 0, 0
28, 2113128, 0, 2687, 0, 0, 0, 0, 0, 0, 0, 71, -592, 441, -44, 32, 30, 0, 0, 0, -2052, 1062, 14712, 567, 0, 0, 0, 0, 0
29, 2123092, 0, 2687, 0, 0, 0, 0, 0, 0, 0, 70, -595, 444, -44, 32, 31, 0, 0, 0, -2072, 1022, 14720, 567, 0, 0, 0, 0, 0
30, 2133083, 0, 2687, 0, 0, 0, 0, 0, 0, 0, 70, -597, 447, -44, 32, 31, 0, 0, 0, -2076, 1040, 14708, 567, 0, 0, 0, 0, 0
31, 2143065, 0, 2687, 0, 0, 0, 0, 0, 0, 0, 69, -600, 450, -45, 32, 30, 0, 0, 0, -2094, 1034, 14722, 567, 0, 0, 0, 0, 0
32, 2153038, 0, 2687, 0, 0, 0, 0, 0, 0, 0, 68, -603, 453, -45, 32, 30, 0, 0, 0, -2068, 1034, 14716, 567, 0, 0, 0, 0, 0
33, 2163074, 0, 2687, 0, 0, 0, 0, 0, 0, 0, 68, -605, 456, -45, 32, 31, 0, 0, 0, -2042, 1028, 14716, 609, 0, 0, 0, 0, 0
34, 2173007, 0, 2687, 0, 0, 0, 0, 0, 0, 0, 67, -607, 459, -44, 31, 31, 0, 0, 0, -2030, 1026, 14738, 609, 0, 0, 0, 0, 0
35, 2183086, 0, 2687, 0, 0, 0, 0, 0, 0, 0, 67, -610, 462, -44, 32, 31, 0, 0, 0, -2020, 1032, 14752, 609, 0, 0, 0, 0, 0
36, 2192963, 0, 2687, 0, 0, 0, 0, 0, 0, 0, 67, -612, 465, -44, 32, 31, 0, 0, 0, -2026, 1026, 14740, 609, 0, 0, 0, 0, 0
37, 2203094, 0, 2687, 0, 0, 0, 0, 0, 0, 0, 66, -614, 468, -44, 32, 31, 0, 0, 0, -2026, 1016, 14752, 609, 0, 0, 0, 0, 0
38, 2212918, 0, 2687, 0, 0, 0, 0, 0, 0, 0, 65, -617, 471, -44, 32, 31, 0, 0, 0, -2036, 1032, 14708, 602, 0, 0, 0, 0, 0
39, 2222984, 0, 2687, 0, 0, 0, 0, 0, 0, 0, 65, -619, 475, -45, 32, 31, 0, 0, 0, -2058, 1052, 14716, 602, 0, 0, 0, 0, 0
40, 2232873, 0, 2687, 0, 0, 0, 0, 0, 0, 0, 65, -621, 478, -44, 32, 31, 0, 0, 0, -2050, 1040, 14708, 602, 0, 0, 0, 0, 0
41, 2242847, 0, 2687, 0, 0, 0, 0, 0, 0, 0, 64, -624, 481, -44, 32, 31, 0, 0, 0, -2062, 1032, 14684, 602, 0, 0, 0, 0, 0
42, 2252831, 0, 2687, 0, 0, 0, 0, 0, 0, 0, 64, -626, 484, -45, 31, 31, 0, 0, 0, -2086, 1048, 14680, 602, 0, 0, 0, 0, 0
43, 2262827, 0, 2687, 0, 0, 0, 0, 0, 0, 0, 63, -628, 487, -45, 32, 31, 0, 0, 0, -2078, 1034, 14696, 602, 0, 0, 0, 0, 0
44, 2272941, 0, 2687, 0, 0, 0, 0, 0, 0, 0, 63, -631, 490, -44, 32, 31, 0, 0, 0, -2080, 1022, 14708, 602, 0, 0, 0, 0, 0
45, 2282776, 0, 2687, 0, 0, 0, 0, 0, 0, 0, 62, -633, 493, -44, 32, 32, 0, 0, 0, -2056, 1024, 14704, 602, 0, 0, 0, 0, 0
46, 2292752, 0, 2687, 0, 0, 0, 0, 0, 0, 0, 62, -635, 496, -43, 32, 31, 0, 0, 0, -2060, 1022, 14674, 602, 0, 0, 0, 0, 0
47, 2302742, 0, 2687, 0, 0, 0, 0, 0, 0, 0, 62, -638, 499, -44, 33, 31, 0, 0, 0, -2058, 1026, 14712, 602, 0, 0, 0, 0, 0
48, 2312716, 0, 2687, 0, 0, 0, 0, 0, 0, 0, 61, -640, 502, -44, 33, 31, 0, 0, 0, -2044, 1006, 14698, 602, 0, 0, 0, 0, 0
49, 2322687, 0, 2687, 0, 0, 0, 0, 0, 0, 0, 61, -642, 505, -44, 32, 31, 0, 0, 0, -2040, 1026, 14716, 602, 0, 0, 0, 0, 0
50, 2332654, 0, 2687, 0, 0, 0, 0, 0, 0, 0, 60, -644, 509, -44, 32, 31, 0, 0, 0, -2042, 1044, 14724, 602, 0, 0, 0, 0, 0
51, 2342635, 0, 2687, 0, 0, 0, 0, 0, 0, 0, 60, -646, 512, -44, 32, 31, 0, 0, 0, -2028, 1056, 14700, 602, 0, 0, 0, 0, 0
52, 2352639, 0, 2687, 0, 0, 0, 0, 0, 0, 0, 59, -648, 515, -45, 32, 31, 0, 0, 0, -2058, 1050, 14746, 602, 0, 0, 0, 0, 0
53, 2362603, 0, 2687, 0, 0, 0, 0, 0, 0, 0, 59, -650, 518, -44, 32, 31, 0, 0, 0, -2040, 1040, 14736, 602, 0, 0, 0, 0, 0
54, 2372631, 0, 2687, 0, 0, 0, 0, 0, 0, 0, 59, -652, 521, -43, 31, 31, 0, 0, 0, -2040, 1086, 14772, 602, 0, 0, 0, 0, 0
55, 2382563, 0, 2687, 0, 0, 0, 0, 0, 0, 0, 58, -655, 524, -45, 31, 31, 0, 0, 0, -2082, 1020, 14826, 602, 0, 0, 0, 0, 0
56, 2392654, 0, 2687, 0, 0, 0, 0, 0, 0, 0, 58, -657, 527, -42, 32, 31, 0, 0, 0, -2032, 1054, 14622, 602, 0, 0, 0, 0, 0
57, 2402519, 0, 2687, 0, 0, 0, 0, 0, 0, 0, 58, -659, 530, -47, 31, 31, 0, 0, 0, -2062, 1018, 14798, 602, 0, 0, 0, 0, 0
58, 2412655, 0, 2687, 0, 0, 0, 0, 0, 0, 0, 57, -661, 533, -43, 32, 31, 0, 0, 0, -2042, 1014, 14726, 602, 0, 0, 0, 0, 0
59, 2422478, 0, 2687, 0, 0, 0, 0, 0, 0, 0, 57, -663, 536, -44, 31, 31, 0, 0, 0, -2024, 1030, 14676, 602, 0, 0, 0, 0, 0
60, 2432495, 0, 2687, 0, 0, 0, 0, 0, 0, 0, 56, -665, 539, -46, 31, 31, 0, 0, 0, -2056, 1028, 14796, 602, 0, 0, 0, 0, 0
61, 2442430, 0, 2687, 0, 0, 0, 0, 0, 0, 0, 56, -667, 542, -42, 32, 31, 0, 0, 0, -2048, 1080, 14636, 602, 0, 0, 0, 0, 0
62, 2452406, 0, 2687, 0, 0, 0, 0, 0, 0, 0, 56, -669, 545, -45, 31, 31, 0, 0, 0, -2072, 1038, 14748, 602, 0, 0, 0, 0, 0
63, 2462373, 0, 2687, 0, 0, 0, 0, 0, 0, 0, 55, -671, 548, -43, 32, 31, 0, 0, 0, -2072, 1064, 14698, 602, 0, 0, 0, 0, 0
64, 2472354, 0, 2687, 0, 0, 0, 0, 0, 0, 0, 55, -673, 551, -43, 32, 31, 0, 0, 0, -2052, 1050, 14636, 602, 0, 0, 0, 0, 0
65, 2482341, 0, 2687, 0, 0, 0, 0, 0, 0, 0, 55, -675, 554, -44, 32, 31, 0, 0, 0, -2064, 1016, 14700, 602, 0, 0, 0, 0, 0
66, 2492325, 0, 2687, 0, 0, 0, 0, 0, 0, 0, 54, -677, 558, -44, 32, 31, 0, 0, 0, -2054, 1018, 14694, 602, 0, 0, 0, 0, 0
67, 2502289, 0, 2687, 0, 0, 0, 0, 0, 0, 0, 54, -679, 561, -44, 32, 31, 0, 0, 0, -2042, 1028, 14680, 602, 0, 0, 0, 0, 0
68, 2512289, 0, 2687, 0, 0, 0, 0, 0, 0, 0, 54, -681, 564, -44, 32, 31, 0, 0, 0, -2050, 1040, 14732, 595, 0, 0, 0, 0, 0
69, 2522255, 0, 2687, 0, 0, 0, 0, 0, 0, 0, 53, -683, 567, -44, 32, 31, 0, 0, 0, -2046, 1062, 14694, 595, 0, 0, 0, 0, 0
70, 2532239, 0, 2687, 0, 0, 0, 0, 0, 0, 0, 53, -685, 570, -45, 31, 31, 0, 0, 0, -2046, 1062, 14712, 595, 0, 0, 0, 0, 0
71, 2542208, 0, 2687, 0, 0, 0, 0, 0, 0, 0, 52, -687, 573, -45, 32, 31, 0, 0, 0, -2056, 1064, 14734, 595, 0, 0, 0, 0, 0
72, 2552198, 0, 2687, 0, 0, 0, 0, 0, 0, 0, 52, -689, 576, -45, 32, 31, 0, 0, 0, -2038, 1032, 14710, 595, 0, 0, 0, 0, 0
73, 2562209, 0, 2687, 0, 0, 0, 0, 0, 0, 0, 52, -691, 579, -44, 32, 31, 0, 0, 0, -2034, 1030, 14732, 595, 0, 0, 0, 0, 0
74, 2572156, 0, 2687, 0, 0, 0, 0, 0, 0, 0, 51, -692, 582, -45, 32, 32, 0, 0, 0, -2036, 1030, 14730, 595, 0, 0, 0, 0, 0
75, 2582216, 0, 2687, 0, 0, 0, 0, 0, 0, 0, 51, -694, 585, -45, 31, 32, 0, 0, 0, -2038, 1022, 14712, 595, 0, 0, 0, 0, 0
76, 2592101, 0, 2687, 0, 0, 0, 0, 0, 0, 0, 50, -696, 588, -44, 31, 31, 0, 0, 0, -2060, 1034, 14700, 595, 0, 0, 0, 0, 0
77, 2602212, 0, 2687, 0, 0, 0, 0, 0, 0, 0, 50, -698, 591, -44, 31, 31, 0, 0, 0, -2072, 1042, 14706, 595, 0, 0, 0, 0, 0
78, 2612076, 0, 2687, 0, 0, 0, 0, 0, 0, 0, 50, -700, 594, -43, 32, 31, 0, 0, 0, -2062, 1050, 14680, 595, 0, 0, 0, 0, 0
79, 2622196, 0, 2687, 0, 0, 0, 0, 0, 0, 0, 50, -702, 597, -44, 31, 31, 0, 0, 0, -2058, 1058, 14682, 595, 0, 0, 0, 0, 0
80, 2632026, 0, 2687, 0, 0, 0, 0, 0, 0, 0, 49, -704, 600, -44, 32, 31, 0, 0, 0, -2080, 1060, 14672, 595, 0, 0, 0, 0, 0
81, 2642034, 0, 2687, 0, 0, 0, 0, 0, 0, 0, 49, -706, 603, -44, 31, 31, 0, 0, 0, -2088, 1062, 14678, 595, 0, 0, 0, 0, 0
82, 2651993, 0, 2687, 0, 0, 0, 0, 0, 0, 0, 49, -708, 607, -44, 32, 31, 0, 0, 0, -2086, 1044, 14678, 595, 0, 0, 0, 0, 0
83, 2661971, 0, 2687, 0, 0, 0, 0, 0, 0, 0, 49, -710, 610, -44, 32, 31, 0, 0, 0, -2068, 1054, 14706, 595, 0, 0, 0, 0, 0
84, 2671948, 0, 2687, 0, 0, 0, 0, 0, 0, 0, 48, -711, 613, -44, 32, 31, 0, 0, 0, -2072, 1062, 14700, 595, 0, 0, 0, 0, 0
85, 2681930, 0, 2687, 0, 0, 0, 0, 0, 0, 0, 48, -713, 616, -44, 32, 31, 0, 0, 0, -2062, 1054, 14706, 595, 0, 0, 0, 0, 0
86, 2691916, 0, 2687, 0, 0, 0, 0, 0, 0, 0, 48, -715, 619, -44, 32, 31, 0, 0, 0, -2072, 1052, 14706, 595, 0, 0, 0, 0, 0
87, 2701900, 0, 2687, 0, 0, 0, 0, 0, 0, 0, 48, -717, 622, -44, 33, 31, 0, 0, 0, -2044, 1046, 14716, 595, 0, 0, 0, 0, 0
88, 2711871, 0, 2687, 0, 0, 0, 0, 0, 0, 0, 47, -718, 625, -44, 32, 31, 0, 0, 0, -2034, 1042, 14720, 595, 0, 0, 0, 0, 0
89, 2721860, 0, 2687, 0, 0, 0, 0, 0, 0, 0, 47, -720, 628, -44, 33, 31, 0, 0, 0, -2048, 1040, 14742, 595, 0, 0, 0, 0, 0
90, 2731833, 0, 2687, 0, 0, 0, 0, 0, 0, 0, 47, -721, 631, -44, 32, 31, 0, 0, 0, -2026, 1036, 14732, 595, 0, 0, 0, 0, 0
91, 2741810, 0, 2687, 0, 0, 0, 0, 0, 0, 0, 46, -723, 634, -44, 32, 32, 0, 0, 0, -2026, 1032, 14708, 595, 0, 0, 0, 0, 0
92, 2751786, 0, 3776, 0, 0, 316, 0, 0, 0, 0, 46, -724, 637, -44, 32, 31, 0, 0, 0, -2038, 1032, 14702, 595, 0, 0, 0, 0, 0
93, 2761764, 0, 3776, 0, 0, 316, 0, 0, 0, 0, 46, -726, 640, -44, 32, 31, 0, 0, 0, -2046, 1016, 14690, 595, 0, 0, 0, 0, 0
94, 2771774, 0, 3776, 0, 0, 316, 0, 0, 0, 0, 45, -728, 643, -44, 31, 31, 0, 0, 0, -2050, 1030, 14688, 595, 0, 0, 0, 0, 0
95, 2781735, 0, 4095, 0, 0, 511, 0, 0, 0, 0, 45, -729, 646, -44, 31, 31, 0, 0, 0, -2064, 1036, 14694, 595, 0, 0, 0, 0, 0
96, 2791823, 0, 4095, 0, 0, 511, 0, 0, 0, 0, 45, -731, 649, -44, 32, 31, 0, 0, 0, -2054, 1046, 14702, 595, 0, 0, 0, 0, 0
97, 2801693, 0, 4095, 0, 0, 490, 0, 0, 0, 0, 44, -733, 652, -45, 31, 31, 0, 0, 0, -2068, 1038, 14698, 595, 0, 0, 0, 0, 0
98, 2811818, 0, 4095, 0, 0, 490, 0, 0, 0, 0, 44, -734, 655, -44, 32, 31, 0, 0, 0, -2044, 1046, 14688, 595, 0, 0, 0, 0, 0
99, 2821642, 0, 2687, 0, 0, 63, 0, 0, 0, 0, 44, -736, 658, -45, 32, 32, 0, 0, 0, -2068, 1024, 14656, 595, 0, 0, 0, 0, 0
100, 2831741, 0, 2687, 0, 0, 63, 0, 0, 0, 0, 43, -738, 661, -44, 32, 31, 0, 0, 0, -2062, 1046, 14668, 595, 0, 0, 0, 0, 0
101, 2841609, 0, 0, 0, -128, 0, 0, 0, 0, 0, 43, -739, 664, -45, 32, 31, 0, 0, 0, -2090, 1032, 14702, 595, 0, 0, 0, 0, 0
102, 2851573, 0, 0, 0, -128, 0, 0, 0, 0, 0, 42, -741, 667, -45, 32, 32, 0, 0, 0, -2084, 1042, 14690, 595, 0, 0, 0, 0, 0
103, 2861557, 0, 0, 0, -128, 0, 0, 0, 0, 0, 42, -742, 670, -45, 32, 31, 0, 0, 0, -2078, 1044, 14704, 595, 0, 0, 0, 0, 0
104, 2871549, 0, 0, 0, -128, 0, 0, 0, 0, 0, 42, -744, 673, -44, 33, 31, 0, 0, 0, -2076, 1052, 14678, 595, 0, 0, 0, 0, 0
105, 2881672, 0, 0, 0, -128, 0, 0, 0, 0, 0, 42, -746, 676, -45, 33, 31, 0, 0, 0, -2078, 1044, 14724, 595, 0, 0, 0, 0, 0
106, 2891493, 0, 0, 0, -128, 0, 0, 0, 0, 0, 41, -747, 679, -44, 32, 31, 0, 0, 0, -2064, 1024, 14714, 595, 0, 0, 0, 0, 0
107, 2901471, 0, 0, 0, -128, -69, 0, 0, 0, 0, 41, -749, 683, -44, 33, 31, 0, 0, 0, -2048, 1024, 14750, 595, 0, 0, 0, 0, 0
108, 2911452, 0, 0, 0, -128, -69, 0, 0, 0, 0, 41, -750, 686, -44, 33, 31, 0, 0, 0, -2030, 1056, 14746, 595, 0, 0, 0, 0, 0
109, 2921429, 0, 0, 0, -128, -227, 0, 0, 0, 0, 40, -751, 689, -44, 32, 31, 0, 0, 0, -2026, 1046, 14742, 595, 0, 0, 0, 0, 0
110, 2931415, 0, 0, 0, -128, -227, 0, 0, 0, 0, 40, -752, 692, -44, 32, 31, 0, 0, 0, -2040, 1040, 14744, 595, 0, 0, 0, 0, 0
111, 2941410, 0, 0, 0, -127, -396, 0, 0, 0, 0, 40, -754, 695, -44, 32, 31, 0, 0, 0, -2066, 1050, 14736, 595, 0, 0, 0, 0, 0
112, 2951389, 0, 0, 0, -127, -396, 0, 0, 0, 0, 40, -755, 698, -44, 32, 31, 0, 0, 0, -2052, 1048, 14730, 595, 0, 0, 0, 0, 0
113, 2961360, 0, 0, 0, 0, -512, 0, 0, 0, 0, 39, -757, 701, -45, 32, 31, 0, 0, 0, -2056, 1044, 14694, 595, 0, 0, 0, 0, 0
114, 2971348, 0, 0, 0, 0, -512, 0, 0, 0, 0, 39, -758, 704, -44, 32, 31, 0, 0, 0, -2048, 1036, 14710, 595, 0, 0, 0, 0, 0
115, 2981376, 0, 0, 0, 0, -512, 0, 0, 0, 0, 39, -759, 707, -44, 32, 31, 0, 0, 0, -2056, 1022, 14696, 595, 0, 0, 0, 0, 0
116, 2991296, 0, 3224, 0, 127, -206, 0, 0, 0, 0, 38, -761, 710, -44, 32, 31, 0, 0, 0, -2072, 1016, 14714, 595, 0, 0, 0, 0, 0
117, 3001422, 0, 3224, 0, 127, -206, 0, 0, 0, 0, 38, -762, 713, -45, 31, 31, 0, 0, 0, -2062, 1022, 14704, 595, 0, 0, 0, 0, 0
118, 3011265, 0, 4095, 0, 127, 0, 0, 0, 0, 0, 38, -764, 716, -44, 32, 31, 0, 0, 0, -2042, 1010, 14696, 595, 0, 0, 0, 0, 0
119, 3021399, 0, 4095, 0, 127, 0, 0, 0, 0, 0, 37, -765, 719, -44, 32, 31, 0, 0, 0, -2038, 1048, 14724, 595, 0, 0, 0, 0, 0
120, 3031209, 0, 4095, 0, 127, 0, 0, 0, 0, 0, 37, -766, 722, -45, 32, 31, 0, 0, 0, -2056, 1032, 14722, 595, 0, 0, 0, 0, 0
121, 3041278, 0, 4095, 0, 127, 0, 0, 0, 0, 0, 36, -768, 725, -45, 32, 31, 0, 0, 0, -2040, 1018, 14694, 595, 0, 0, 0, 0, 0
122, 3051157, 0, 4095, 0, 127, 0, 0, 0, 0, 0, 36, -769, 728, -45, 32, 31, 0, 0, 0, -2036, 1022, 14722, 595, 0, 0, 0, 0, 0
123, 3061151, 0, 4095, 0, 127, 0, 0, 0, 0, 0, 36, -770, 731, -44, 32, 31, 0, 0, 0, -2042, 1054, 14728, 595, 0, 0, 0, 0, 0
124, 3071127, 0, 2687, 0, 127, 0, 0, 0, 0, 0, 35, -772, 734, -44, 32, 31, 0, 0, 0, -2066, 1032, 14698, 595, 0, 0, 0, 0, 0
125, 3081109, 0, 2687, 0, 127, 0, 0, 0, 0, 0, 35, -773, 737, -44, 32, 31, 0, 0, 0, -2038, 1036, 14684, 595, 0, 0, 0, 0, 0
126, 3091083, 0, 2687, 0, 127, 0, 0, 0, 0, 0, 35, -774, 740, -43, 32, 31, 0, 0, 0, -2042, 1054, 14726, 595, 0, 0, 0, 0, 0
127, 3101068, 0, 2687, 0, 127, 0, 0, 0, 0, 0, 35, -775, 743, -44, 32, 31, 0, 0, 0, -2024, 1044, 14750, 595, 0, 0, 0, 0, 0
128, 3111044, 0, 2382, 0, 127, 0, 0, 0, 0, 0, 35, -776, 746, -44, 31, 31, 0, 0, 0, -2032, 1038, 14700, 595, 0, 0, 0, 0, 0
129, 3121017, 0, 2382, 0, 127, 0, 0, 0, 0, 0, 34, -778, 749, -44, 31, 31, 0, 0, 0, -2016, 1036, 14698, 595, 0, 0, 0, 0, 0
130, 3131014, 0, 0, 0, 127, -106, 0, 0, 0, 0, 34, -779, 752, -44, 31, 31, 0, 0, 0, -2028, 1040, 14706, 595, 0, 0, 0, 0, 0
131, 3140980, 0, 0, 0, 127, -106, 0, 0, 0, 0, 34, -780, 755, -44, 31, 31, 0, 0, 0, -2036, 1038, 14720, 595, 0, 0, 0, 0, 0
132, 3150950, 0, 0, 0, 97, 0, 0, 0, 0, 0, 34, -782, 758, -44, 31, 31, 0, 0, 0, -2038, 1022, 14704, 595, 0, 0, 0, 0, 0
133, 3160932, 0, 0, 0, 97, 0, 0, 0, 0, 0, 33, -783, 761, -44, 31, 31, 0, 0, 0, -2054, 1040, 14710, 595, 0, 0, 0, 0, 0
134, 3170923, 0, 0, 0, -33, 0, 0, 0, 0, 0, 33, -784, 764, -44, 32, 31, 0, 0, 0, -2078, 1038, 14698, 595, 0, 0, 0, 0, 0
135, 3180897, 0, 0, 0, -33, 0, 0, 0, 0, 0, 33, -785, 767, -44, 32, 31, 0, 0, 0, -2100, 1036, 14720, 595, 0, 0, 0, 0, 0
136, 3190922, 0, 0, 0, -128, 0, 0, 0, 0, 0, 33, -787, 770, -44, 31, 31, 0, 0, 0, -2094, 1038, 14698, 595, 0, 0, 0, 0, 0
137, 3200844, 0, 0, 0, -128, 0, 0, 0, 0, 0, 32, -788, 773, -44, 32, 31, 0, 0, 0, -2084, 1026, 14674, 595, 0, 0, 0, 0, 0
138, 3210980, 0, 0, 0, -128, 0, 0, 0, 0, 0, 32, -790, 776, -44, 32, 32, 0, 0, 0, -2072, 1030, 14682, 595, 0, 0, 0, 0, 0
139, 3220796, 0, 0, 0, -128, 0, 0, 0, 0, 0, 32, -791, 779, -44, 32, 31, 0, 0, 0, -2048, 1030, 14686, 595, 0, 0, 0, 0, 0
140, 3230948, 0, 0, 0, -128, 0, 0, 0, 0, 0, 32, -792, 782, -44, 33, 31, 0, 0, 0, -2050, 1054, 14710, 595, 0, 0, 0, 0, 0
141, 3240751, 0, 2687, 0, -128, 0, 0, 0, 0, 0, 31, -793, 785, -44, 32, 31, 0, 0, 0, -2066, 1056, 14730, 595, 0, 0, 0, 0, 0
142, 3250793, 0, 2687, 0, -128, 0, 0, 0, 0, 0, 31, -794, 788, -45, 32, 31, 0, 0, 0, -2046, 1050, 14722, 595, 0, 0, 0, 0, 0
143, 3260727, 0, 2687, 0, -128, 0, 0, 0, 0, 0, 31, -795, 791, -45, 32, 31, 0, 0, 0, -2056, 1040, 14724, 595, 0, 0, 0, 0, 0
144, 3270704, 0, 2687, 0, -128, 0, 0, 0, 0, 0, 31, -797, 794, -45, 32, 31, 0, 0, 0, -2048, 1048, 14722, 595, 0, 0, 0, 0, 0
145, 3280674, 0, 4095, 0, -128, 0, 0, 0, 0, 0, 30, -798, 797, -44, 32, 31, 0, 0, 0, -2042, 1062, 14724, 595, 0, 0, 0, 0, 0
146, 3290654, 0, 4095, 0, -128, 0, 0, 0, 0, 0, 30, -799, 800, -44, 32, 31, 0, 0, 0, -2038, 1050, 14726, 595, 0, 0, 0, 0, 0
147, 3300645, 0, 4095, 0, -128, 0, 0, 0, 0, 0, 30, -800, 803, -43, 31, 31, 0, 0, 0, -2038, 1046, 14722, 595, 0, 0, 0, 0, 0
148, 3310620, 0, 4095, 0, -128, 0, 0, 0, 0, 0, 30, -801, 806, -44, 31, 31, 0, 0, 0, -2018, 1020, 14726, 595, 0, 0, 0, 0, 0
149, 3320600, 0, 4095, 0, -74, 0, 0, 0, 0, 0, 30, -802, 809, -44, 31, 31, 0, 0, 0, -2022, 1030, 14734, 595, 0, 0, 0, 0, 0
150, 3330571, 0, 4095, 0, -74, 0, 0, 0, 0, 0, 29, -803, 812, -44, 32, 31, 0, 0, 0, -2020, 1038, 14728, 595, 0, 0, 0, 0, 0
151, 3340534, 0, 4095, 0, 75, 0, 0, 0, 0, 0, 29, -804, 815, -44, 31, 31, 0, 0, 0, -2042, 1054, 14710, 595, 0, 0, 0, 0, 0
152, 3350540, 0, 4095, 0, 75, 0, 0, 0, 0, 0, 29, -805, 818, -43, 31, 31, 0, 0, 0, -2082, 1046, 14702, 595, 0, 0, 0, 0, 0
153, 3360512, 0, 4095, 0, 127, 0, 0, 0, 0, 0, 29, -807, 821, -44, 31, 31, 0, 0, 0, -2082, 1034, 14694, 595, 0, 0, 0, 0, 0
154, 3370484, 0, 4095, 0, 127, 0, 0, 0, 0, 0, 29, -808, 823, -44, 32, 31, 0, 0, 0, -2076, 1014, 14732, 595, 0, 0, 0, 0, 0
155, 3380491, 0, 2687, 0, 127, 0, 0, 0, 0, 0, 28, -809, 826, -44, 32, 31, 0, 0, 0, -2094, 1008, 14698, 595, 0, 0, 0, 0, 0
156, 3390461, 0, 2687, 0, 127, 0, 0, 0, 0, 0, 28, -810, 829, -44, 32, 31, 0, 0, 0, -2096, 1024, 14710, 595, 0, 0, 0, 0, 0
157, 3400532, 0, 2687, 0, 127, 0, 0, 0, 0, 0, 28, -811, 832, -44, 33, 31, 0, 0, 0, -2070, 1048, 14704, 595, 0, 0, 0, 0, 0
158, 3410402, 0, 2687, 0, 127, 0, 0, 0, 0, 0, 28, -812, 835, -44, 32, 31, 0, 0, 0, -2050, 1036, 14698, 595, 0, 0, 0, 0, 0
159, 3420527, 0, 2687, 0, 127, 0, 0, 0, 0, 0, 27, -813, 838, -44, 33, 31, 0, 0, 0, -2050, 1026, 14702, 595, 0, 0, 0, 0, 0
160, 3430358, 0, 0, 0, 127, 0, 0, 0, 0, 0, 27, -814, 841, -44, 32, 31, 0, 0, 0, -2052, 1038, 14712, 595, 0, 0, 0, 0, 0
161, 3440486, 0, 0, 0, 127, 0, 0, 0, 0, 0, 27, -815, 844, -44, 32, 31, 0, 0, 0, -2034, 1044, 14708, 595, 0, 0, 0, 0, 0
162, 3450334, 0, 0, 0, 127, 0, 0, 0, 0, 0, 27, -816, 847, -44, 32, 31, 0, 0, 0, -2024, 1050, 14718, 595, 0, 0, 0, 0, 0
163, 3460334, 0, 0, 0, 127, 0, 0, 0, 0, 0, 26, -817, 850, -44, 32, 31, 0, 0, 0, -2026, 1028, 14724, 595, 0, 0, 0, 0, 0
164, 3470284, 0, 0, 0, 127, 0, 0, 0, 0, 0, 26, -818, 853, -44, 31, 30, 0, 0, 0, -2044, 1036, 14742, 595, 0, 0, 0, 0, 0
165, 3480275, 0, 0, 0, 127, 0, 0, 0, 0, 0, 26, -819, 856, -44, 31, 30, 0, 0, 0, -2040, 1030, 14752, 595, 0, 0, 0, 0, 0
166, 3490384, 0, 0, 5, 127, 0, 0, 0, 0, 0, 26, -820, 859, -44, 31, 31, 0, 0, 0, -2036, 1034, 14724, 595, 0, 0, 0, 0, 0
167, 3500229, 0, 0, 5, 127, 0, 0, 0, 0, 0, 26, -821, 862, -44, 32, 31, 0, 0, 0, -2038, 1030, 14710, 595, 0, 0, 0, 0, 0
168, 3510204, 0, 0, 0, 124, -117, 0, 0, 0, 0, 25, -822, 865, -43, 32, 31, 0, 0, 0, -2062, 1020, 14692, 595, 0, 0, 0, 0, 0
169, 3520178, 0, 0, 0, 124, -117, 0, 0, 0, 0, 25, -823, 868, -44, 31, 31, 0, 0, 0, -2072, 1030, 14680, 595, 0, 0, 0, 0, 0
170, 3530165, 0, 0, 0, 0, -381, 0, 0, 0, 0, 25, -824, 871, -44, 31, 31, 0, 0, 0, -2072, 1018, 14698, 595, 0, 0, 0, 0, 0
171, 3540151, 0, 0, 0, 0, -381, 0, 0, 0, 0, 25, -825, 874, -44, 32, 31, 0, 0, 0, -2060, 1042, 14676, 595, 0, 0, 0, 0, 0
172, 3550119, 0, 0, 0, -128, -486, 0, 0, 0, 0, 24, -826, 877, -44, 32, 31, 0, 0, 0, -2062, 1036, 14684, 595, 0, 0, 0, 0, 0
173, 3560096, 0, 0, 0, -128, -486, 0, 0, 0, 0, 24, -827, 880, -44, 32, 31, 0, 0, 0, -2048, 1044, 14684, 595, 0, 0, 0, 0, 0
174, 3570077, 0, 2687, 0, -128, -317, 0, 0, 0, 0, 24, -828, 883, -44, 32, 31, 0, 0, 0, -2060, 1024, 14692, 595, 0, 0, 0, 0, 0
175, 3580054, 0, 2687, 0, -128, -317, 0, 0, 0, 0, 24, -829, 886, -44, 32, 31, 0, 0, 0, -2072, 1036, 14700, 595, 0, 0, 0, 0, 0
176, 3590057, 0, 2687, 0, -128, -222, 0, 0, 0, 0, 24, -830, 889, -44, 33, 32, 0, 0, 0, -2062, 1036, 14692, 595, 0, 0, 0, 0, 0
177, 3600011, 0, 2687, 0, -128, -222, 0, 0, 0, 0, 23, -831, 892, -44, 33, 32, 0, 0, 0, -2060, 1032, 14710, 595, 0, 0, 0, 0, 0
178, 3610105, 0, 2687, 0, -128, -222, 0, 0, 0, 0, 23, -831, 895, -44, 33, 31, 0, 0, 0, -2040, 1022, 14716, 595, 0, 0, 0, 0, 0
179, 3619982, 0, 2789, 0, -128, -175, 0, 0, 0, 0, 23, -832, 898, -44, 33, 32, 0, 0, 0, -2036, 1026, 14720, 595, 0, 0, 0, 0, 0
180, 3630114, 0, 2789, 0, -128, -175, 0, 0, 0, 0, 23, -833, 901, -44, 32, 31, 0, 0, 0, -2002, 1012, 14720, 595, 0, 0, 0, 0, 0
181, 3639916, 0, 2803, 0, -128, -127, 0, 0, 0, 0, 22, -834, 904, -44, 32, 32, 0, 0, 0, -2008, 1026, 14722, 595, 0, 0, 0, 0, 0
182, 3650018, 0, 2803, 0, -128, -127, 0, 0, 0, 0, 22, -834, 907, -44, 32, 31, 0, 0, 0, -2014, 1034, 14738, 595, 0, 0, 0, 0, 0
183, 3659891, 0, 2687, 0, -128, 0, 0, 0, 0, 0, 22, -835, 910, -44, 32, 31, 0, 0, 0, -2026, 1024, 14748, 595, 0, 0, 0, 0, 0
184, 3669861, 0, 2687, 0, -128, 0, 0, 0, 0, 0, 22, -836, 913, -44, 31, 31, 0, 0, 0, -2036, 1026, 14738, 595, 0, 0, 0, 0, 0
185, 3679833, 0, 2687, 0, -128, 0, 0, 0, 0, 0, 21, -837, 916, -44, 31, 31, 0, 0, 0, -2068, 1032, 14718, 595, 0, 0, 0, 0, 0
186, 3689824, 0, 2687, 0, -128, 0, 0, 0, 0, 0, 21, -838, 919, -44, 31, 31, 0, 0, 0, -2098, 1048, 14714, 595, 0, 0, 0, 0, 0
187, 3699798, 0, 1831, 0, -64, 0, 0, 0, 0, 0, 21, -839, 922, -43, 31, 31, 0, 0, 0, -2096, 1062, 14704, 595, 0, 0, 0, 0, 0
188, 3709774, 0, 1831, 0, -64, 0, 0, 0, 0, 0, 21, -840, 925, -43, 31, 31, 0, 0, 0, -2076, 1064, 14698, 595, 0, 0, 0, 0, 0
189, 3719746, 0, 0, 0, 0, 0, 0, 0, 0, 0, 21, -841, 928, -44, 32, 31, 0, 0, 0, -2060, 1040, 14698, 595, 0, 0, 0, 0, 0
190, 3729726, 0, 0, 0, 0, 0, 0, 0, 0, 0, 21, -842, 931, -44, 32, 31, 0, 0, 0, -2040, 1042, 14674, 595, 0, 0, 0, 0, 0
191, 3739712, 0, 0, 0, 127, 0, 0, 0, 0, 0, 21, -842, 934, -44, 32, 32, 0, 0, 0, -2030, 1028, 14716, 595, 0, 0, 0, 0, 0
192, 3749686, 0, 0, 0, 127, 0, 0, 0, 0, 0, 21, -843, 937, -44, 32, 32, 0, 0, 0, -2028, 1036, 14704, 595, 0, 0, 0, 0, 0
193, 3759666, 0, 0, 0, 127, 36, 0, 0, 0, 0, 20, -844, 940, -44, 32, 31, 0, 0, 0, -2038, 1042, 14694, 602, 0, 0, 0, 0, 0
194, 3769638, 0, 0, 0, 127, 36, 0, 0, 0, 0, 20, -845, 943, -44, 31, 31, 0, 0, 0, -2066, 1040, 14702, 602, 0, 0, 0, 0, 0
195, 3779621, 0, 0, 0, 127, 36, 0, 0, 0, 0, 20, -846, 946, -44, 32, 31, 0, 0, 0, -2070, 1056, 14698, 602, 0, 0, 0, 0, 0
196, 3789612, 0, 0, 0, 127, 36, 0, 0, 0, 0, 20, -846, 949, -44, 32, 31, 0, 0, 0, -2086, 1050, 14694, 602, 0, 0, 0, 0, 0
197, 3799615, 0, 0, 0, 127, 0, 0, 0, 0, 0, 20, -847, 952, -44, 32, 31, 0, 0, 0, -2070, 1042, 14694, 602, 0, 0, 0, 0, 0
198, 3809568, 0, 0, 0, 127, 0, 0, 0, 0, 0, 20, -848, 954, -44, 32, 31, 0, 0, 0, -2062, 1044, 14676, 595, 0, 0, 0, 0, 0
199, 3819659, 0, 0, 0, 127, 0, 0, 0, 0, 0, 20, -849, 957, -44, 32, 31, 0, 0, 0, -2040, 1054, 14660, 595, 0, 0, 0, 0, 0
200, 3829535, 0, 0, 0, 127, 0, 0, 0, 0, 0, 20, -850, 960, -44, 32, 31, 0, 0, 0, -2032, 1044, 14690, 595, 0, 0, 0, 0, 0
201, 3839670, 0, 0, 0, 127, 0, 0, 0, 0, 0, 19, -850, 963, -44, 32, 31, 0, 0, 0, -2038, 1050, 14718, 595, 0, 0, 0, 0, 0
202, 3849477, 0, 2687, 0, 127, 0, 0, 0, 0, 0, 19, -851, 966, -43, 32, 31, 0, 0, 0, -2028, 1044, 14742, 595, 0, 0, 0, 0, 0
203, 3859551, 0, 2687, 0, 127, 0, 0, 0, 0, 0, 19, -852, 969, -43, 32, 30, 0, 0, 0, -2052, 1038, 14748, 595, 0, 0, 0, 0, 0
204, 3869448, 0, 3050, 0, 127, 0, 0, 0, 0, 0, 19, -853, 972, -44, 31, 31, 0, 0, 0, -2062, 1062, 14722, 595, 0, 0, 0, 0, 0
205, 3879426, 0, 3050, 0, 127, 0, 0, 0, 0, 0, 19, -853, 975, -44, 31, 31, 0, 0, 0, -2078, 1042, 14702, 595, 0, 0, 0, 0, 0
206, 3889420, 0, 4095, 0, 127, -64, 0, 0, 0, 0, 19, -854, 978, -44, 31, 31, 0, 0, 0, -2082, 1032, 14708, 595, 0, 0, 0, 0, 0
207, 3899382, 0, 4095, 0, 127, -64, 0, 0, 0, 0, 19, -855, 981, -44, 31, 31, 0, 0, 0, -2098, 1040, 14708, 595, 0, 0, 0, 0, 0
208, 3909370, 0, 4095, 0, 93, -85, 0, 0, 0, 0, 19, -856, 984, -44, 32, 31, 0, 0, 0, -2100, 1030, 14730, 595, 0, 0, 0, 0, 0
209, 3919346, 0, 4095, 0, 93, -85, 0, 0, 0, 0, 19, -857, 987, -44, 32, 31, 0, 0, 0, -2076, 1012, 14716, 595, 0, 0, 0, 0, 0
210, 3929323, 0, 4095, 0, 0, -138, 0, 0, 0, 0, 18, -858, 990, -44, 32, 30, 0, 0, 0, -2070, 1022, 14724, 595, 0, 0, 0, 0, 0
211, 3939303, 0, 4095, 0, 0, -138, 0, 0, 0, 0, 18, -859, 993, -44, 32, 31, 0, 0, 0, -2042, 1020, 14710, 595, 0, 0, 0, 0, 0
212, 3949278, 0, 4095, 0, -113, -201, 0, 0, 0, 0, 18, -859, 996, -44, 32, 31, 0, 0, 0, -2028, 1014, 14720, 595, 0, 0, 0, 0, 0
213, 3959250, 0, 4095, 0, -113, -201, 0, 0, 0, 0, 17, -860, 999, -44, 32, 31, 0, 0, 0, -2026, 1034, 14740, 595, 0, 0, 0, 0, 0
214, 3969234, 0, 2687, 0, -128, -206, 0, 0, 0, 0, 17, -861, 1002, -44, 32, 31, 0, 0, 0, -2022, 1036, 14708, 595, 0, 0, 0, 0, 0
215, 3979218, 0, 2687, 0, -128, -206, 0, 0, 0, 0, 17, -861, 1004, -44, 32, 31, 0, 0, 0, -2032, 1028, 14718, 595, 0, 0, 0, 0, 0
216, 3989195, 0, 2150, 0, -128, -196, 0, 0, 0, 0, 17, -862, 1007, -44, 32, 31, 0, 0, 0, -2030, 1032, 14712, 595, 0, 0, 0, 0, 0
217, 3999180, 0, 2150, 0, -128, -196, 0, 0, 0, 0, 17, -862, 1010, -44, 31, 31, 0, 0, 0, -2042, 1032, 14702, 595, 0, 0, 0, 0, 0
218, 4009202, 0, 0, 0, -128, -201, 0, 0, 0, 0, 17, -863, 1013, -43, 32, 31, 0, 0, 0, -2038, 1030, 14712, 595, 0, 0, 0, 0, 0
219, 4019130, 0, 0, 0, -128, -201, 0, 0, 0, 0, 17, -864, 1016, -43, 32, 32, 0, 0, 0, -2044, 1028, 14730, 595, 0, 0, 0, 0, 0
220, 4029253, 0, 0, 0, -128, -201, 0, 0, 0, 0, 16, -864, 1019, -44, 32, 31, 0, 0, 0, -2050, 1026, 14724, 595, 0, 0, 0, 0, 0
221, 4039105, 0, 0, 0, -128, 0, 0, 0, 0, 0, 16, -865, 1022, -44, 32, 31, 0, 0, 0, -2048, 1028, 14710, 595, 0, 0, 0, 0, 0
222, 4049227, 0, 0, 0, -128, 0, 0, 0, 0, 0, 16, -866, 1025, -43, 32, 31, 0, 0, 0, -2072, 1044, 14690, 595, 0, 0, 0, 0, 0
223, 4059042, 0, 0, 0, -128, 0, 0, 0, 0, 0, 16, -866, 1028, -44, 32, 31, 0, 0, 0, -2078, 1064, 14712, 595, 0, 0, 0, 0, 0
224, 4069096, 0, 0, 0, -128, 0, 0, 0, 0, 0, 16, -867, 1031, -43, 32, 31, 0, 0, 0, -2078, 1052, 14708, 595, 0, 0, 0, 0, 0
225, 4079001, 0, 0, 0, 0, 10, 0, 0, 0, 0, 16, -868, 1034, -44, 33, 31, 0, 0, 0, -2084, 1050, 14720, 595, 0, 0, 0, 0, 0
226, 4088986, 0, 0, 0, 0, 10, 0, 0, 0, 0, 16, -868, 1037, -44, 33, 31, 0, 0, 0, -2090, 1056, 14750, 595, 0, 0, 0, 0, 0
227, 4099122, 0, 0, 0, 0, 121, 0, 0, 0, 0, 16, -869, 1040, -44, 33, 31, 0, 0, 0, -2076, 1046, 14742, 595, 0, 0, 0, 0, 0
228, 4108957, 0, 0, 0, 0, 121, 0, 0, 0, 0, 15, -870, 1043, -44, 33, 31, 0, 0, 0, -2056, 1028, 14716, 595, 0, 0, 0, 0, 0
229, 4118920, 0, 0, 0, 0, 147, 0, 0, 0, 0, 15, -870, 1046, -44, 33, 30, 0, 0, 0, -2034, 1010, 14674, 595, 0, 0, 0, 0, 0
230, 4128907, 0, 0, 0, 0, 147, 0, 0, 0, 0, 15, -871, 1049, -44, 33, 31, 0, 0, 0, -2026, 1014, 14722, 595, 0, 0, 0, 0, 0
231, 4138884, 0, 0, 0, 0, 0, 0, 0, 0, 0, 15, -871, 1052, -43, 33, 31, 0, 0, 0, -2026, 1034, 14726, 595, 0, 0, 0, 0, 0
232, 4148860, 0, 0, 0, 0, 0, 0, 0, 0, 0, 15, -871, 1054, -44, 33, 31, 0, 0, 0, -2006, 1030, 14726, 595, 0, 0, 0, 0, 0
233, 4158830, 0, 2687, 0, 0, 0, 0, 0, 0, 0, 14, -872, 1057, -44, 32, 31, 0, 0, 0, -2010, 1034, 14746, 595, 0, 0, 0, 0, 0
234, 4168816, 0, 2687, 0, 0, 0, 0, 0, 0, 0, 14, -872, 1060, -44, 31, 31, 0, 0, 0, -2026, 1030, 14750, 595, 0, 0, 0, 0, 0
235, 4178802, 0, 2687, 0, 0, 0, 0, 0, 0, 0, 14, -873, 1063, -44, 31, 31, 0, 0, 0, -2040, 1030, 14754, 595, 0, 0, 0, 0, 0
236, 4188780, 0, 2687, 0, 0, 0, 0, 0, 0, 0, 14, -874, 1066, -44, 31, 31, 0, 0, 0, -2030, 1036, 14734, 595, 0, 0, 0, 0, 0
237, 4198752, 0, 2760, 0, 0, -90, 0, 0, 0, 0, 14, -874, 1069, -44, 31, 31, 0, 0, 0, -2054, 1046, 14728, 595, 0, 0, 0, 0, 0
238, 4208727, 0, 2760, 0, 0, -90, 0, 0, 0, 0, 14, -875, 1072, -44, 31, 31, 0, 0, 0, -2054, 1048, 14704, 595, 0, 0, 0, 0, 0
239, 4218787, 0, 2789, 0, 0, -111, 0, 0, 0, 0, 14, -875, 1075, -44, 32, 31, 0, 0, 0, -2054, 1050, 14708, 595, 0, 0, 0, 0, 0
240, 4228695, 0, 2789, 0, 0, -111, 0, 0, 0, 0, 14, -876, 1078, -44, 31, 31, 0, 0, 0, -2056, 1038, 14734, 595, 0, 0, 0, 0, 0
241, 4238818, 0, 2789, 0, 0, -111, 0, 0, 0, 0, 13, -877, 1081, -44, 32, 31, 0, 0, 0, -2066, 1044, 14706, 595, 0, 0, 0, 0, 0
242, 4248647, 0, 2789, 0, 0, -111, 0, 0, 0, 0, 13, -877, 1084, -43, 32, 31, 0, 0, 0, -2054, 1044, 14690, 595, 0, 0, 0, 0, 0
243, 4258780, 0, 2789, 0, 0, -111, 0, 0, 0, 0, 13, -878, 1087, -43, 32, 31, 0, 0, 0, -2076, 1028, 14708, 595, 0, 0, 0, 0, 0
244, 4268615, 0, 2687, 0, 0, 0, 0, 0, 0, 0, 13, -879, 1090, -44, 32, 31, 0, 0, 0, -2066, 1048, 14696, 595, 0, 0, 0, 0, 0
245, 4278611, 0, 2687, 0, 0, 0, 0, 0, 0, 0, 13, -879, 1093, -44, 32, 31, 0, 0, 0, -2072, 1046, 14748, 595, 0, 0, 0, 0, 0
246, 4288556, 0, 0, 0, 0, 0, 0, 0, 0, 0, 13, -880, 1096, -44, 32, 31, 0, 0, 0, -2068, 1070, 14728, 595, 0, 0, 0, 0, 0
247, 4298544, 0, 0, 0, 0, 0, 0, 0, 0, 0, 13, -880, 1098, -44, 33, 31, 0, 0, 0, -2050, 1056, 14710, 595, 0, 0, 0, 0, 0
248, 4308518, 0, 0, 0, 51, 0, 0, 0, 0, 0, 13, -881, 1101, -44, 33, 30, 0, 0, 0, -2038, 1048, 14732, 595, 0, 0, 0, 0, 0
249, 4318500, 0, 0, 0, 51, 0, 0, 0, 0, 0, 13, -881, 1104, -45, 32, 31, 0, 0, 0, -2050, 1040, 14740, 595, 0, 0, 0, 0, 0
250, 4328480, 0, 0, 0, 127, 0, 0, 0, 0, 0, 13, -882, 1107, -44, 32, 31, 0, 0, 0, -2020, 1030, 14696, 595, 0, 0, 0, 0, 0
251, 4338451, 0, 0, 0, 127, 0, 0, 0, 0, 0, 12, -882, 1110, -45, 32, 31, 0, 0, 0, -2006, 1016, 14698, 595, 0, 0, 0, 0, 0
252, 4348433, 0, 0, 0, 127, 0, 0, 0, 0, 0, 12, -882, 1113, -44, 32, 31, 0, 0, 0, -2004, 1014, 14704, 595, 0, 0, 0, 0, 0
253, 4358401, 0, 0, 0, 127, 0, 0, 0, 0, 0, 12, -883, 1116, -44, 32, 31, 0, 0, 0, -2024, 1034, 14710, 595, 0, 0, 0, 0, 0
254, 4368385, 0, 0, 0, 127, 0, 0, 0, 0, 0, 12, -883, 1119, -44, 32, 31, 0, 0, 0, -2052, 1030, 14722, 595, 0, 0, 0, 0, 0
255, 4378375, 0, 0, 0, 127, 0, 0, 0, 0, 0, 11, -884, 1122, -44, 32, 31, 0, 0, 0, -2050, 1026, 14708, 595, 0, 0, 0, 0, 0
256, 4388355, 0, 0, 0, 127, 0, 0, 0, 0, 0, 11, -884, 1125, -45, 32, 32, 0, 0, 0, -2076, 1044, 14736, 595, 0, 0, 0, 0, 0
257, 4398330, 0, 0, 0, 127, 0, 0, 0, 0, 0, 11, -885, 1128, -44, 32, 31, 0, 0, 0, -2074, 1042, 14708, 595, 0, 0, 0, 0, 0
258, 4408327, 0, 0, 0, 0, 0, 0, 0, 0, 0, 11, -885, 1131, -45, 32, 31, 0, 0, 0, -2080, 1046, 14720, 595, 0, 0, 0, 0, 0
259, 4418292, 0, 0, 0, 0, 0, 0, 0, 0, 0, 11, -886, 1134, -45, 33, 31, 0, 0, 0, -2066, 1046, 14702, 595, 0, 0, 0, 0, 0
260, 4428367, 0, 0, 0, 0, 0, 0, 0, 0, 0, 11, -886, 1137, -44, 32, 31, 0, 0, 0, -2066, 1044, 14700, 595, 0, 0, 0, 0, 0
261, 4438236, 0, 2687, 0, 0, 0, 0, 0, 0, 0, 11, -887, 1139, -44, 33, 31, 0, 0, 0, -2040, 1044, 14698, 595, 0, 0, 0, 0, 0
262, 4448398, 0, 2687, 0, 0, 0, 0, 0, 0, 0, 11, -887, 1142, -44, 32, 31, 0, 0, 0, -2038, 1030, 14730, 595, 0, 0, 0, 0, 0
263, 4458196, 0, 2687, 0, 0, 0, 0, 0, 0, 0, 10, -888, 1145, -44, 32, 31, 0, 0, 0, -2032, 1034, 14732, 595, 0, 0, 0, 0, 0
264, 4468290, 0, 2687, 0, 0, 0, 0, 0, 0, 0, 10, -888, 1148, -44, 32, 32, 0, 0, 0, -2034, 1032, 14756, 595, 0, 0, 0, 0, 0
265, 4478164, 0, 2687, 0, 0, 0, 0, 0, 0, 0, 10, -889, 1151, -44, 32, 32, 0, 0, 0, -2040, 1054, 14722, 595, 0, 0, 0, 0, 0
266, 4488137, 0, 2687, 0, 0, 0, 0, 0, 0, 0, 10, -889, 1154, -44, 32, 31, 0, 0, 0, -2034, 1052, 14726, 595, 0, 0, 0, 0, 0
267, 4498134, 0, 2687, 0, 0, 0, 0, 0, 0, 0, 10, -889, 1157, -44, 32, 31, 0, 0, 0, -2032, 1044, 14750, 595, 0, 0, 0, 0, 0
268, 4508105, 0, 2687, 0, 0, 0, 0, 0, 0, 0, 10, -890, 1160, -44, 32, 31, 0, 0, 0, -2038, 1014, 14736, 595, 0, 0, 0, 0, 0
269, 4518080, 0, 2687, 0, 0, 0, 0, 0, 0, 0, 10, -890, 1163, -43, 32, 31, 0, 0, 0, -2044, 1028, 14718, 595, 0, 0, 0, 0, 0
270, 4528059, 0, 2687, 0, 0, 0, 0, 0, 0, 0, 10, -890, 1166, -43, 31, 31, 0, 0, 0, -2032, 1024, 14712, 595, 0, 0, 0, 0, 0
271, 4538040, 0, 2687, 0, 0, 0, 0, 0, 0, 0, 10, -891, 1169, -43, 32, 31, 0, 0, 0, -2054, 1026, 14688, 595, 0, 0, 0, 0, 0
272, 4548029, 0, 2687, 0, 0, 0, 0, 0, 0, 0, 10, -891, 1172, -43, 32, 31, 0, 0, 0, -2058, 1034, 14686, 595, 0, 0, 0, 0, 0
273, 4558001, 0, 2687, 0, 0, 0, 0, 0, 0, 0, 9, -892, 1175, -43, 32, 31, 0, 0, 0, -2074, 1064, 14698, 595, 0, 0, 0, 0, 0
274, 4567977, 0, 2687, 0, 0, 0, 0, 0, 0, 0, 9, -892, 1178, -44, 32, 31, 0, 0, 0, -2058, 1068, 14716, 595, 0, 0, 0, 0, 0
275, 4577967, 0, 2687, 0, 0, 0, 0, 0, 0, 0, 10, -893, 1181, -44, 32, 31, 0, 0, 0, -2080, 1066, 14702, 595, 0, 0, 0, 0, 0
276, 4587947, 0, 2687, 0, 0, 0, 0, 0, 0, 0, 9, -894, 1183, -45, 32, 31, 0, 0, 0, -2088, 1042, 14696, 595, 0, 0, 0, 0, 0
277, 4597908, 0, 2687, 0, 0, 0, 0, 0, 0, 0, 9, -894, 1186, -45, 32, 31, 0, 0, 0, -2096, 1028, 14696, 595, 0, 0, 0, 0, 0
278, 4607906, 0, 2687, 0, 0, 0, 0, 0, 0, 0, 9, -895, 1189, -45, 32, 31, 0, 0, 0, -2078, 1012, 14732, 595, 0, 0, 0, 0, 0
279, 4617908, 0, 2687, 0, 0, 0, 0, 0, 0, 0, 9, -895, 1192, -44, 32, 31, 0, 0, 0, -2072, 1018, 14698, 595, 0, 0, 0, 0, 0
280, 4627872, 0, 2687, 0, 0, 0, 0, 0, 0, 0, 9, -896, 1195, -44, 32, 31, 0, 0, 0, -2052, 1022, 14730, 595, 0, 0, 0, 0, 0
281, 4637967, 0, 2687, 0, 0, 0, 0, 0, 0, 0, 8, -896, 1198, -44, 32, 31, 0, 0, 0, -2060, 1040, 14706, 595, 0, 0, 0, 0, 0
282, 4647817, 0, 2687, 0, 0, 0, 0, 0, 0, 0, 8, -897, 1201, -44, 32, 31, 0, 0, 0, -2054, 1070, 14726, 595, 0, 0, 0, 0, 0
283, 4657956, 0, 2687, 0, 0, 0, 0, 0, 0, 0, 8, -897, 1204, -44, 32, 30, 0, 0, 0, -2046, 1072, 14704, 595, 0, 0, 0, 0, 0
284, 4667792, 0, 2687, 0, -128, 0, 0, 0, 0, 0, 8, -898, 1207, -44, 32, 30, 0, 0, 0, -2038, 1054, 14752, 595, 0, 0, 0, 0, 0
285, 4677843, 0, 2687, 0, -128, 0, 0, 0, 0, 0, 8, -898, 1210, -44, 32, 31, 0, 0, 0, -2032, 1034, 14724, 595, 0, 0, 0, 0, 0
286, 4687737, 0, 2687, 0, -128, 0, 0, 0, 0, 0, 8, -898, 1212, -44, 32, 31, 0, 0, 0, -2030, 1026, 14728, 595, 0, 0, 0, 0, 0
287, 4697715, 0, 2687, 0, -128, 0, 0, 0, 0, 0, 8, -898, 1215, -44, 32, 31, 0, 0, 0, -2060, 1030, 14716, 595, 0, 0, 0, 0, 0
288, 4707854, 0, 2687, 0, -128, 0, 0, 0, 0, 0, 8, -899, 1218, -44, 32, 31, 0, 0, 0, -2052, 1038, 14738, 595, 0, 0, 0, 0, 0
289, 4717681, 0, 2687, 0, -128, 0, 0, 0, 0, 0, 8, -899, 1221, -44, 32, 31, 0, 0, 0, -2048, 1044, 14728, 595, 0, 0, 0, 0, 0
290, 4727652, 0, 2687, 0, -128, 0, 0, 0, 0, 0, 8, -900, 1224, -44, 32, 31, 0, 0, 0, -2056, 1050, 14714, 595, 0, 0, 0, 0, 0
291, 4737632, 0, 2687, 0, -128, 0, 0, 0, 0, 0, 8, -900, 1227, -44, 32, 31, 0, 0, 0, -2052, 1040, 14708, 595, 0, 0, 0, 0, 0
292, 4747618, 0, 2687, 0, -128, 0, 0, 0, 0, 0, 8, -900, 1230, -44, 32, 31, 0, 0, 0, -2052, 1032, 14710, 595, 0, 0, 0, 0, 0
293, 4757600, 0, 2687, 0, -128, 0, 0, 0, 0, 0, 7, -901, 1233, -44, 32, 31, 0, 0, 0, -2050, 1040, 14718, 595, 0, 0, 0, 0, 0
294, 4767572, 0, 2687, 0, -128, 0, 0, 0, 0, 0, 7, -901, 1236, -44, 32, 31, 0, 0, 0, -2064, 1032, 14728, 595, 0, 0, 0, 0, 0
295, 4777549, 0, 2687, 0, -128, 0, 0, 0, 0, 0, 7, -902, 1239, -44, 31, 31, 0, 0, 0, -2066, 1034, 14692, 595, 0, 0, 0, 0, 0
296, 4787519, 0, 2687, 0, -57, 0, 0, 0, 0, 0, 7, -902, 1242, -44, 31, 31, 0, 0, 0, -2066, 1022, 14716, 595, 0, 0, 0, 0, 0
297, 4797509, 0, 2687, 0, -57, 0, 0, 0, 0, 0, 7, -903, 1245, -44, 32, 31, 0, 0, 0, -2060, 1050, 14698, 595, 0, 0, 0, 0, 0
298, 4807485, 0, 2687, 0, 0, 0, 0, 0, 0, 0, 7, -903, 1248, -44, 32, 31, 0, 0, 0, -2068, 1036, 14704, 595, 0, 0, 0, 0, 0
299, 4817468, 0, 2687, 0, 0, 0, 0, 0, 0, 0, 7, -904, 1250, -44, 32, 31, 0, 0, 0, -2028, 1024, 14712, 595, 0, 0, 0, 0, 0
300, 4827485, 0, 2687, 0, 0, 0, 0, 0, 0, 0, 7, -904, 1253, -44, 32, 31, 0, 0, 0, -2046, 1024, 14714, 595, 0, 0, 0, 0, 0
301, 4837438, 0, 2687, 0, 0, 0, 0, 0, 0, 0, 7, -904, 1256, -44, 32, 31, 0, 0, 0, -2022, 1012, 14696, 595, 0, 0, 0, 0, 0
302, 4847530, 0, 2687, 0, 0, 0, 0, 0, 0, 0, 6, -905, 1259, -44, 32, 31, 0, 0, 0, -2028, 996, 14692, 595, 0, 0, 0, 0, 0
303, 4857377, 0, 2687, 0, 0, 0, 0, 0, 0, 0, 6, -905, 1262, -44, 32, 30, 0, 0, 0, -2024, 1012, 14696, 595, 0, 0, 0, 0, 0
304, 4867524, 0, 2687, 0, 0, 0, 0, 0, 0, 0, 6, -905, 1265, -44, 32, 31, 0, 0, 0, -2052, 1030, 14682, 595, 0, 0, 0, 0, 0
305, 4877331, 0, 2687, 0, 0, 0, 0, 0, 0, 0, 6, -906, 1268, -44, 31, 31, 0, 0, 0, -2042, 1054, 14716, 595, 0, 0, 0, 0, 0
306, 4887369, 0, 2687, 0, 0, 0, 0, 0, 0, 0, 6, -906, 1271, -44, 32, 31, 0, 0, 0, -2060, 1048, 14718, 595, 0, 0, 0, 0, 0
307, 4897289, 0, 2687, 0, 0, 0, 0, 0, 0, 0, 6, -906, 1274, -44, 32, 31, 0, 0, 0, -2044, 1044, 14712, 595, 0, 0, 0, 0, 0
308, 4907284, 0, 2687, 0, 0, 0, 0, 0, 0, 0, 5, -907, 1277, -45, 31, 31, 0, 0, 0, -2032, 1032, 14744, 595, 0, 0, 0, 0, 0
309, 4917266, 0, 2107, 0, 0, 0, 0, 0, 0, 0, 5, -907, 1280, -44, 31, 31, 0, 0, 0, -2010, 1042, 14696, 595, 0, 0, 0, 0, 0
310, 4927236, 0, 2107, 0, 0, 0, 0, 0, 0, 0, 5, -907, 1283, -44, 31, 31, 0, 0, 0, -2020, 1038, 14714, 595, 0, 0, 0, 0, 0
311, 4937210, 0, 1570, 0, 0, 0, 0, 0, 0, 0, 5, -908, 1285, -43, 31, 31, 0, 0, 0, -2004, 1012, 14708, 595, 0, 0, 0, 0, 0
312, 4947186, 0, 1570, 0, 0, 0, 0, 0, 0, 0, 5, -908, 1288, -42, 31, 31, 0, 0, 0, -2066, 1034, 14682, 595, 0, 0, 0, 0, 0
313, 4957158, 0, 0, 0, 0, 0, 0, 0, 0, 0, 5, -909, 1291, -44, 30, 31, 0, 0, 0, -2092, 998, 14710, 595, 0, 0, 0, 0, 0
314, 4967150, 0, 0, 0, 0, 0, 0, 0, 0, 0, 5, -909, 1294, -43, 31, 31, 0, 0, 0, -2100, 1018, 14662, 595, 0, 0, 0, 0, 0
315, 4977121, 0, 0, 0, 0, 0, 0, 0, 0, 0, 5, -910, 1297, -44, 32, 31, 0, 0, 0, -2100, 1044, 14692, 595, 0, 0, 0, 0, 0
316, 4987097, 0, 0, 0, 0, 0, 0, 0, 0, 0, 5, -910, 1300, -44, 32, 31, 0, 0, 0, -2114, 1066, 14688, 595, 0, 0, 0, 0, 0
317, 4997095, 0, 0, 0, 0, 0, 0, 0, 0, 0, 5, -911, 1303, -44, 32, 31, 0, 0, 0, -2082, 1076, 14702, 595, 0, 0, 0, 0, 0
318, 5007061, 0, 0, 0, 0, 0, 0, 0, 0, 0, 5, -911, 1306, -45, 33, 31, 0, 0, 0, -2068, 1064, 14718, 595, 0, 0, 0, 0, 0
319, 5017043, 0, 0, 0, 0, 0, 0, 0, 0, 0, 5, -912, 1309, -44, 33, 31, 0, 0, 0, -2064, 1042, 14730, 595, 0, 0, 0, 0, 0
320, 5027035, 0, 0, 0, 0, 0, 0, 0, 0, 0, 5, -912, 1312, -45, 32, 31, 0, 0, 0, -2020, 1032, 14762, 595, 0, 0, 0, 0, 0
321, 5037071, 0, 0, 0, 0, 0, 0, 0, 0, 0, 5, -912, 1315, -44, 32, 30, 0, 0, 0, -2028, 1026, 14728, 595, 0, 0, 0, 0, 0
322, 5046996, 0, 0, 0, 0, 0, 0, 0, 0, 0, 4, -912, 1317, -44, 32, 31, 0, 0, 0, -2006, 1034, 14762, 595, 0, 0, 0, 0, 0
323, 5057114, 0, 0, 0, 0, 0, 0, 0, 0, 0, 4, -912, 1320, -44, 32, 31, 0, 0, 0, -2010, 1042, 14714, 595, 0, 0, 0, 0, 0
324, 5066934, 0, 0, 0, 0, 0, 0, 0, 0, 0, 4, -912, 1323, -43, 32, 31, 0, 0, 0, -2040, 1062, 14754, 595, 0, 0, 0, 0, 0
325, 5077057, 0, 0, 0, 0, 0, 0, 0, 0, 0, 4, -913, 1326, -44, 32, 31, 0, 0, 0, -2044, 1050, 14716, 595, 0, 0, 0, 0, 0
326, 5086906, 0, 0, 0, 0, 0, 0, 0, 0, 0, 4, -913, 1329, -44, 31, 31, 0, 0, 0, -2052, 1036, 14738, 595, 0, 0, 0, 0, 0
327, 5096895, 0, 0, 0, 0, 0, 0, 0, 0, 0, 4, -914, 1332, -44, 31, 31, 0, 0, 0, -2082, 1034, 14710, 595, 0, 0, 0, 0, 0
328, 5106861, 0, 0, 0, 0, 0, 0, 0, 0, 0, 4, -914, 1335, -44, 31, 31, 0, 0, 0, -2084, 1020, 14718, 595, 0, 0, 0, 0, 0
329, 5116837, 0, 0, 0, 0, 0, 0, 0, 0, 0, 4, -915, 1338, -44, 31, 31, 0, 0, 0, -2068, 1012, 14712, 595, 0, 0, 0, 0, 0
330, 5126822, 0, 0, 0, 0, 0, 0, 0, 0, 0, 4, -915, 1341, -44, 33, 31, 0, 0, 0, -2054, 990, 14698, 595, 0, 0, 0, 0, 0
331, 5136802, 0, 0, 0, 0, 0, 0, 0, 0, 0, 3, -915, 1344, -44, 32, 32, 0, 0, 0, -2062, 1002, 14726, 595, 0, 0, 0, 0, 0
332, 5146782, 0, 0, 0, 0, 0, 0, 0, 0, 0, 3, -916, 1347, -44, 32, 31, 0, 0, 0, -2058, 1028, 14704, 595, 0, 0, 0, 0, 0
333, 5156765, 0, 0, 0, 0, 0, 0, 0, 0, 0, 3, -916, 1349, -44, 32, 31, 0, 0, 0, -2062, 1048, 14720, 595, 0, 0, 0, 0, 0
334, 5166735, 0, 0, 0, 0, 0, 0, 0, 0, 0, 3, -916, 1352, -43, 32, 31, 0, 0, 0, -2052, 1044, 14722, 595, 0, 0, 0, 0, 0
335, 5176723, 0, 0, 0, 0, 0, 0, 0, 0, 0, 3, -917, 1355, -43, 32, 31, 0, 0, 0, -2026, 1042, 14704, 595, 0, 0, 0, 0, 0
336, 5186699, 0, 0, 0, 0, 0, 0, 0, 0, 0, 3, -917, 1358, -44, 32, 31, 0, 0, 0, -2048, 1022, 14710, 595, 0, 0, 0, 0, 0
337, 5196671, 0, 0, 0, 0, 0, 0, 0, 0, 0, 3, -917, 1361, -44, 32, 31, 0, 0, 0, -2086, 1020, 14674, 595, 0, 0, 0, 0, 0
338, 5206654, 0, 0, 0, 0, 0, 0, 0, 0, 0, 3, -918, 1364, -44, 32, 31, 0, 0, 0, -2090, 1012, 14672, 595, 0, 0, 0, 0, 0
339, 5216633, 0, 0, 0, 0, 0, 0, 0, 0, 0, 2, -918, 1367, -44, 32, 31, 0, 0, 0, -2056, 1020, 14670, 595, 0, 0, 0, 0, 0
340, 5226636, 0, 0, 0, 0, 0, 0, 0, 0, 0, 2, -918, 1370, -44, 32, 31, 0, 0, 0, -2024, 1046, 14684, 595, 0, 0, 0, 0, 0
341, 5236601, 0, 0, 0, 0, 0, 0, 0, 0, 0, 2, -918, 1373, -44, 33, 30, 0, 0, 0, -2020, 1058, 14692, 595, 0, 0, 0, 0, 0
342, 5246691, 0, 0, 0, 0, 0, 0, 0, 0, 0, 2, -918, 1376, -44, 33, 31, 0, 0, 0, -2004, 1062, 14688, 595, 0, 0, 0, 0, 0
343, 5256573, 0, 0, 0, 0, 0, 0, 0, 0, 0, 3, -918, 1378, -44, 33, 31, 0, 0, 0, -1994, 1056, 14706, 595, 0, 0, 0, 0, 0
344, 5266684, 0, 0, 0, 0, 0, 0, 0, 0, 0, 3, -918, 1381, -43, 32, 31, 0, 0, 0, -1998, 1050, 14718, 595, 0, 0, 0, 0, 0
345, 5276510, 0, 0, 0, 0, 0, 0, 0, 0, 0, 2, -918, 1384, -46, 31, 31, 0, 0, 0, -2030, 1042, 14768, 595, 0, 0, 0, 0, 0
346, 5286567, 0, 0, 0, 0, 0, 0, 0, 0, 0, 2, -919, 1387, -45, 31, 31, 0, 0, 0, -2060, 1030, 14730, 595, 0, 0, 0, 0, 0
347, 5296461, 0, 0, 0, 0, 0, 0, 0, 0, 0, 2, -919, 1390, -42, 31, 31, 0, 0, 0, -2076, 1048, 14678, 595, 0, 0, 0, 0, 0
348, 5306438, 0, 0, 0, 0, 0, 0, 0, 0, 0, 2, -920, 1393, -45, 31, 31, 0, 0, 0, -2090, 1026, 14690, 595, 0, 0, 0, 0, 0
349, 5316579, 0, 0, 0, 0, 0, 0, 0, 0, 0, 2, -920, 1396, -44, 32, 31, 0, 0, 0, -2094, 1052, 14698, 595, 0, 0, 0, 0, 0
350, 5326399, 0, 0, 0, 0, 0, 0, 0, 0, 0, 2, -920, 1399, -44, 33, 31, 0, 0, 0, -2084, 1064, 14684, 595, 0, 0, 0, 0, 0
351, 5336380, 0, 0, 0, 0, 0, 0, 0, 0, 0, 2, -921, 1402, -45, 32, 31, 0, 0, 0, -2072, 1050, 14720, 595, 0, 0, 0, 0, 0
352, 5346361, 0, 0, 0, 0, 0, 0, 0, 0, 0, 2, -921, 1405, -44, 32, 32, 0, 0, 0, -2048, 1062, 14680, 595, 0, 0, 0, 0, 0
353, 5356347, 0, 0, 0, 0, 0, 0, 0, 0, 0, 2, -921, 1408, -44, 32, 32, 0, 0, 0, -2036, 1054, 14716, 595, 0, 0, 0, 0, 0
354, 5366318, 0, 0, 0, 0, 0, 0, 0, 0, 0, 2, -922, 1411, -44, 32, 31, 0, 0, 0, -2014, 1036, 14752, 595, 0, 0, 0, 0, 0
355, 5376305, 0, 0, 0, 0, 0, 0, 0, 0, 0, 2, -922, 1414, -44, 31, 31, 0, 0, 0, -1996, 1044, 14718, 595, 0, 0, 0, 0, 0
356, 5386285, 0, 0, 0, 0, 0, 0, 0, 0, 0, 2, -922, 1416, -45, 32, 31, 0, 0, 0, -1996, 1042, 14738, 595, 0, 0, 0, 0, 0
357, 5396258, 0, 0, 0, 0, 0, 0, 0, 0, 0, 2, -922, 1419, -44, 32, 30, 0, 0, 0, -2006, 1052, 14748, 595, 0, 0, 0, 0, 0
358, 5406226, 0, 0, 0, 0, 0, 0, 0, 0, 0, 2, -922, 1422, -45, 31, 31, 0, 0, 0, -2020, 1032, 14758, 595, 0, 0, 0, 0, 0
359, 5416213, 0, 0, 0, 0, 0, 0, 0, 0, 0, 2, -922, 1425, -44, 31, 31, 0, 0, 0, -2034, 1024, 14748, 595, 0, 0, 0, 0, 0
360, 5426206, 0, 0, 0, 0, 0, 0, 0, 0, 0, 2, -922, 1428, -44, 31, 31, 0, 0, 0, -2022, 1002, 14726, 595, 0, 0, 0, 0, 0
361, 5436217, 0, 0, 0, 0, 0, 0, 0, 0, 0, 1, -922, 1431, -44, 31, 31, 0, 0, 0, -2034, 1014, 14714, 595, 0, 0, 0, 0, 0
362, 5446142, 0, 0, 0, 0, 0, 0, 0, 0, 0, 1, -923, 1434, -43, 31, 31, 0, 0, 0, -2042, 1012, 14706, 595, 0, 0, 0, 0, 0
363, 5456238, 0, 0, 0, 0, 0, 0, 0, 0, 0, 1, -923, 1437, -44, 30, 31, 0, 0, 0, -2050, 1026, 14698, 595, 0, 0, 0, 0, 0
364, 5466117, 0, 0, 0, 0, 0, 0, 0, 0, 0, 1, -924, 1440, -44, 30, 31, 0, 0, 0, -2038, 1028, 14706, 595, 0, 0, 0, 0, 0
365, 5476248, 0, 0, 0, 0, 0, 0, 0, 0, 0, 1, -924, 1443, -44, 30, 31, 0, 0, 0, -2036, 1066, 14700, 595, 0, 0, 0, 0, 0
366, 5486067, 0, 0, 0, 0, 0, 0, 0, 0, 0, 1, -924, 1445, -44, 30, 31, 0, 0, 0, -2060, 1052, 14732, 595, 0, 0, 0, 0, 0
367, 5496109, 0, 0, 0, 0, 0, 0, 0, 0, 0, 1, -925, 1448, -44, 30, 31, 0, 0, 0, -2070, 1048, 14704, 595, 0, 0, 0, 0, 0
368, 5506042, 0, 0, 0, 0, 0, 0, 0, 0, 0, 1, -926, 1451, -45, 30, 31, 0, 0, 0, -2104, 1028, 14744, 595, 0, 0, 0, 0, 0
369, 5516007, 0, 0, 0, 0, 0, 0, 0, 0, 0, 1, -926, 1454, -44, 31, 30, 0, 0, 0, -2090, 1032, 14698, 595, 0, 0, 0, 0, 0
370, 5525972, 0, 0, 0, 0, 21, 0, 0, 0, 0, 1, -927, 1457, -44, 31, 30, 0, 0, 0, -2076, 1028, 14718, 595, 0, 0, 0, 0, 0
371, 5535963, 0, 0, 0, 0, 21, 0, 0, 0, 0, 0, -927, 1460, -44, 31, 30, 0, 0, 0, -2058, 1040, 14726, 595, 0, 0, 0, 0, 0
372, 5545946, 0, 0, 0, 0, 10, 0, 0, 0, 0, 1, -927, 1463, -43, 31, 31, 0, 0, 0, -2024, 1058, 14678, 595, 0, 0, 0, 0, 0
373, 5555957, 0, 0, 0, 0, 10, 0, 0, 0, 0, 1, -927, 1465, -44, 31, 31, 0, 0, 0, -2036, 1064, 14710, 595, 0, 0, 0, 0, 0
374, 5565884, 0, 0, 0, 0, 0, 0, 0, 0, 0, 1, -928, 1468, -43, 31, 31, 0, 0, 0, -2036, 1056, 14706, 595, 0, 0, 0, 0, 0
375, 5575880, 0, 0, 0, 0, 0, 0, 0, 0, 0, 1, -928, 1471, -44, 30, 31, 0, 0, 0, -2008, 1038, 14758, 595, 0, 0, 0, 0, 0
376, 5585852, 0, 0, 0, 0, 0, 0, 0, 0, 0, 1, -928, 1474, -43, 31, 30, 0, 0, 0, -1982, 1046, 14766, 595, 0, 0, 0, 0, 0
377, 5595829, 0, 0, 0, 0, 0, 0, 0, 0, 0, 1, -928, 1477, -45, 30, 31, 0, 0, 0, -1958, 1026, 14796, 595, 0, 0, 0, 0, 0
378, 5605801, 0, 0, 0, 0, 0, 0, 0, 0, 0, 0, -928, 1480, -44, 29, 30, 0, 0, 0, -2004, 1026, 14842, 595, 0, 0, 0, 0, 0
379, 5615775, 0, 0, 0, 0, 0, 0, 0, 0, 0, 0, -928, 1482, -43, 29, 30, 0, 0, 0, -1974, 1052, 14708, 595, 0, 0, 0, 0, 0
380, 5625794, 0, 0, 0, 0, 0, 0, 0, 0, 0, 0, -929, 1485, -45, 27, 31, 0, 0, 0, -2030, 1028, 14780, 595, 0, 0, 0, 0, 0
381, 5635750, 0, 0, 0, 0, 0, 0, 0, 0, 0, 1, -929, 1488, -41, 28, 31, 0, 0, 0, -2086, 988, 14610, 595, 0, 0, 0, 0, 0
382, 5645772, 0, 0, 0, 0, 0, 0, 0, 0, 0, 0, -930, 1491, -44, 27, 32, 0, 0, 0, -2186, 988, 14694, 595, 0, 0, 0, 0, 0
383, 5655750, 0, 0, 0, 0, 0, 0, 0, 0, 0, 0, -932, 1494, -42, 29, 31, 0, 0, 0, -2220, 958, 14672, 595, 0, 0, 0, 0, 0
384, 5665810, 0, 0, 0, 0, 0, 0, 0, 0, 0, 0, -933, 1497, -42, 30, 30, 0, 0, 0, -2234, 1050, 14548, 595, 0, 0, 0, 0, 0
385, 5675658, 0, 21, 0, 0, 0, 0, 0, 0, 0, 0, -934, 1500, -46, 30, 31, 0, 0, 0, -2232, 1046, 14750, 595, 0, 0, 0, 0, 0
386, 5685791, 0, 21, 0, 0, 0, 0, 0, 0, 0, 0, -935, 1503, -42, 33, 31, 0, 0, 0, -2148, 1106, 14592, 595, 0, 0, 0, 0, 0
387, 5695602, 0, 1337, 0, 0, 0, 0, 0, 0, 0, 0, -936, 1506, -47, 32, 32, 0, 0, 0, -2096, 1072, 14762, 595, 0, 0, 0, 0, 0
388, 5705621, 0, 1337, 0, 0, 0, 0, 0, 0, 0, 0, -936, 1509, -44, 34, 31, 0, 0, 0, -2078, 1044, 14804, 595, 0, 0, 0, 0, 0
389, 5715577, 0, 1425, 0, 0, 0, 0, 0, 0, 0, 0, -936, 1512, -45, 34, 32, 0, 0, 0, -2018, 1044, 14684, 595, 0, 0, 0, 0, 0
390, 5725544, 0, 1425, 0, 0, 0, 0, 0, 0, 0, 0, -936, 1515, -46, 32, 32, 0, 0, 0, -2006, 990, 14802, 595, 0, 0, 0, 0, 0
391, 5735515, 0, 1497, 0, 0, 0, 0, 0, 0, 0, 0, -935, 1517, -44, 33, 32, 0, 0, 0, -1988, 1014, 14726, 595, 0, 0, 0, 0, 0
392, 5745499, 0, 1497, 0, 0, 0, 0, 0, 0, 0, 0, -935, 1520, -45, 32, 31, 0, 0, 0, -2012, 998, 14752, 595, 0, 0, 0, 0, 0
393, 5755584, 0, 1845, 0, 0, 0, 0, 0, 0, 0, 0, -935, 1523, -44, 32, 31, 0, 0, 0, -2002, 1006, 14740, 602, 0, 0, 0, 0, 0
394, 5765476, 0, 1845, 0, 0, 0, 0, 0, 0, 0, 0, -935, 1526, -43, 31, 31, 0, 0, 0, -2000, 1032, 14676, 602, 0, 0, 0, 0, 0
395, 5775445, 0, 2397, 0, 0, 0, 0, 0, 0, 0, 0, -935, 1529, -44, 30, 31, 0, 0, 0, -2032, 1050, 14744, 602, 0, 0, 0, 0, 0
396, 5785442, 0, 2397, 0, 0, 0, 0, 0, 0, 0, 0, -935, 1532, -44, 31, 31, 0, 0, 0, -2040, 1048, 14734, 602, 0, 0, 0, 0, 0
397, 5795419, 0, 2687, 0, 0, 0, 0, 0, 0, 0, 0, -936, 1535, -43, 31, 31, 0, 0, 0, -2030, 1036, 14680, 602, 0, 0, 0, 0, 0
398, 5805389, 0, 2687, 0, 0, 0, 0, 0, 0, 0, 0, -936, 1538, -43, 31, 31, 0, 0, 0, -2062, 1018, 14716, 595, 0, 0, 0, 0, 0
399, 5815363, 0, 2687, 0, 0, 0, 0, 0, 0, 0, 0, -936, 1541, -43, 31, 31, 0, 0, 0, -2072, 1034, 14688, 595, 0, 0, 0, 0, 0
400, 5825340, 0, 2687, 0, 0, 0, 0, 0, 0, 0, 0, -937, 1544, -43, 31, 31, 0, 0, 0, -2078, 1032, 14702, 595, 0, 0, 0, 0, 0
401, 5835347, 0, 2687, 0, 0, 0, 0, 0, 0, 0, 0, -937, 1546, -43, 31, 31, 0, 0, 0, -2090, 1052, 14684, 595, 0, 0, 0, 0, 0
402, 5845294, 0, 2687, 0, 0, 0, 0, 0, 0, 0, 0, -937, 1549, -43, 31, 31, 0, 0, 0, -2090, 1064, 14694, 595, 0, 0, 0, 0, 0
403, 5855422, 0, 2687, 0, 0, 0, 0, 0, 0, 0, 0, -938, 1552, -43, 32, 31, 0, 0, 0, -2076, 1068, 14674, 595, 0, 0, 0, 0, 0
404, 5865250, 0, 2687, 0, 0, 0, 0, 0, 0, 0, 0, -938, 1555, -45, 32, 31, 0, 0, 0, -2058, 1046, 14716, 595, 0, 0, 0, 0, 0
405, 5875392, 0, 2687, 0, 0, 0, 0, 0, 0, 0, 0, -938, 1558, -45, 32, 31, 0, 0, 0, -2058, 1046, 14686, 595, 0, 0, 0, 0, 0
406, 5885215, 0, 2687, 0, 0, 0, 0, 0, 0, 0, 0, -938, 1561, -45, 33, 31, 0, 0, 0, -2038, 1030, 14686, 595, 0, 0, 0, 0, 0
407, 5895344, 0, 2687, 0, 0, 0, 0, 0, 0, 0, 0, -939, 1564, -45, 32, 31, 0, 0, 0, -2038, 1020, 14710, 595, 0, 0, 0, 0, 0
408, 5905177, 0, 2687, 0, 0, 0, 0, 0, 0, 0, 0, -939, 1567, -44, 32, 31, 0, 0, 0, -2040, 1014, 14688, 595, 0, 0, 0, 0, 0
409, 5915186, 0, 2687, 0, 0, 0, 0, 0, 0, 0, -1, -939, 1570, -45, 31, 31, 0, 0, 0, -2032, 1034, 14756, 595, 0, 0, 0, 0, 0
410, 5925314, 0, 2687, 0, 0, 0, 0, 0, 0, 0, -1, -939, 1573, -44, 32, 31, 0, 0, 0, -2020, 1036, 14760, 595, 0, 0, 0, 0, 0
411, 5935127, 0, 2687, 0, 0, 0, 0, 0, 0, 0, -1, -939, 1575, -45, 32, 31, 0, 0, 0, -2038, 1024, 14688, 595, 0, 0, 0, 0, 0
412, 5945099, 0, 2687, 0, 0, 0, 0, 0, 0, 0, -1, -939, 1578, -45, 33, 31, 0, 0, 0, -2052, 1030, 14728, 595, 0, 0, 0, 0, 0
413, 5955227, 0, 2687, 0, 0, 0, 0, 0, 0, 0, -1, -939, 1581, -44, 33, 31, 0, 0, 0, -2018, 1048, 14698, 595, 0, 0, 0, 0, 0
414, 5965080, 0, 2687, 0, 0, 0, 0, 0, 0, 0, -1, -939, 1584, -44, 32, 31, 0, 0, 0, -2038, 1028, 14708, 595, 0, 0, 0, 0, 0
415, 5975049, 0, 2687, 0, 0, 0, 0, 0, 0, 0, -1, -939, 1587, -43, 32, 30, 0, 0, 0, -2038, 1018, 14718, 595, 0, 0, 0, 0, 0
416, 5985027, 0, 2687, 0, 0, 0, 0, 0, 0, 0, -1, -939, 1590, -44, 31, 31, 0, 0, 0, -2054, 1014, 14710, 595, 0, 0, 0, 0, 0
417, 5995015, 0, 2687, 0, 0, 0, 0, 0, 0, 0, -1, -939, 1593, -43, 31, 30, 0, 0, 0, -2062, 1032, 14720, 595, 0, 0, 0, 0, 0
418, 6004988, 0, 2687, 0, 0, 0, 0, 0, 0, 0, -1, -940, 1596, -43, 32, 31, 0, 0, 0, -2050, 1054, 14682, 595, 0, 0, 0, 0, 0
419, 6014959, 0, 2687, 0, 0, 0, 0, 0, 0, 0, -1, -940, 1598, -44, 32, 30, 0, 0, 0, -2068, 1066, 14682, 595, 0, 0, 0, 0, 0
420, 6024944, 0, 2687, 0, 0, 0, 0, 0, 0, 0, -1, -940, 1601, -44, 31, 31, 0, 0, 0, -2078, 1064, 14686, 595, 0, 0, 0, 0, 0
421, 6034920, 0, 2687, 0, 0, 0, 0, 0, 0, 0, -1, -940, 1604, -44, 31, 31, 0, 0, 0, -2068, 1038, 14684, 595, 0, 0, 0, 0, 0
422, 6044946, 0, 2687, 0, 0, 0, 0, 0, 0, 0, -1, -941, 1607, -45, 31, 31, 0, 0, 0, -2072, 1018, 14696, 595, 0, 0, 0, 0, 0
423, 6055036, 0, 2687, 0, 0, 0, 0, 0, 0, 0, -1, -941, 1610, -44, 32, 31, 0, 0, 0, -2078, 1012, 14720, 595, 0, 0, 0, 0, 0
424, 6064978, 0, 2687, 0, 0, 0, 0, 0, 0, 0, -2, -941, 1613, -44, 32, 31, 0, 0, 0, -2064, 1004, 14734, 595, 0, 0, 0, 0, 0
425, 6074832, 0, 2687, 0, 0, 0, 0, 0, 0, 0, -2, -941, 1616, -44, 32, 31, 0, 0, 0, -2046, 1018, 14718, 595, 0, 0, 0, 0, 0
426, 6084990, 0, 2687, 0, 0, 0, 0, 0, 0, 0, -2, -941, 1619, -44, 32, 31, 0, 0, 0, -2042, 1032, 14716, 595, 0, 0, 0, 0, 0
427, 6094802, 0, 2687, 0, 0, 0, 0, 0, 0, 0, -2, -941, 1621, -44, 32, 31, 0, 0, 0, -2020, 1046, 14690, 595, 0, 0, 0, 0, 0
428, 6104888, 0, 2687, 0, 0, 0, 0, 0, 0, 0, -2, -941, 1624, -44, 32, 30, 0, 0, 0, -2034, 1050, 14742, 595, 0, 0, 0, 0, 0
429, 6114766, 0, 2687, 0, 0, 0, 0, 0, 0, 0, -2, -942, 1627, -44, 32, 31, 0, 0, 0, -2032, 1040, 14752, 595, 0, 0, 0, 0, 0
430, 6124742, 0, 2687, 0, 0, 0, 0, 0, 0, 0, -2, -942, 1630, -44, 31, 31, 0, 0, 0, -2038, 1042, 14710, 595, 0, 0, 0, 0, 0
431, 6134717, 0, 2687, 0, 0, 0, 0, 0, 0, 0, -2, -942, 1633, -44, 31, 31, 0, 0, 0, -2058, 1034, 14714, 595, 0, 0, 0, 0, 0
432, 6144687, 0, 2687, 0, 0, 0, 0, 0, 0, 0, -2, -942, 1636, -44, 31, 31, 0, 0, 0, -2066, 1038, 14720, 595, 0, 0, 0, 0, 0
433, 6154838, 0, 2687, 0, 0, 0, 0, 0, 0, 0, -2, -942, 1639, -44, 31, 31, 0, 0, 0, -2070, 1048, 14702, 595, 0, 0, 0, 0, 0
434, 6164658, 0, 2687, 0, 0, 0, 0, 0, 0, 0, -2, -943, 1642, -43, 31, 31, 0, 0, 0, -2144, 1036, 14688, 595, 0, 0, 0, 0, 0
435, 6174625, 0, 2687, 0, 0, 0, 0, 0, 0, 0, -2, -943, 1645, -41, 30, 31, 0, 0, 0, -2294, 1070, 14502, 595, 0, 0, 0, 0, 0
436, 6184619, 0, 2687, 0, 0, 0, 0, 0, 0, 0, -2, -944, 1648, -47, 32, 33, 0, 0, 0, -2352, 922, 14650, 595, 0, 0, 0, 0, 0
437, 6194606, 0, 2687, 0, 0, 0, 0, 0, 0, 0, -2, -945, 1651, -43, 35, 32, 0, 0, 0, -2230, 984, 14626, 595, 0, 0, 0, 0, 0
438, 6204564, 0, 2687, 0, 0, 0, 0, 0, 0, 0, -3, -946, 1654, -46, 36, 31, 0, 0, 0, -2046, 1060, 14720, 595, 0, 0, 0, 0, 0
439, 6214545, 0, 2687, 0, 0, 0, 0, 0, 0, 0, -3, -946, 1656, -46, 35, 30, 0, 0, 0, -2036, 1150, 14766, 595, 0, 0, 0, 0, 0
440, 6224529, 0, 2687, 0, 0, 0, 0, 0, 0, 0, -2, -945, 1659, -44, 36, 30, 0, 0, 0, -1946, 1208, 14662, 595, 0, 0, 0, 0, 0
441, 6234516, 0, 2687, 0, 0, 0, 0, 0, 0, 0, -2, -944, 1662, -47, 35, 32, 0, 0, 0, -1900, 1100, 14800, 595, 0, 0, 0, 0, 0
442, 6244483, 0, 2687, 0, 0, 0, 0, 0, 0, 0, -2, -943, 1665, -45, 34, 32, 0, 0, 0, -1860, 1000, 14782, 595, 0, 0, 0, 0, 0
443, 6254694, 0, 2687, 0, 0, 0, 0, 0, 0, 0, -2, -942, 1668, -44, 32, 32, 0, 0, 0, -1902, 856, 14812, 595, 0, 0, 0, 0, 0
444, 6264449, 0, 2687, 0, 0, 0, 0, 0, 0, 0, -3, -942, 1671, -45, 31, 31, 0, 0, 0, -1972, 860, 14850, 595, 0, 0, 0, 0, 0
445, 6274556, 0, 2687, 0, 0, 0, 0, 0, 0, 0, -4, -942, 1674, -42, 30, 30, 0, 0, 0, -1998, 972, 14732, 595, 0, 0, 0, 0, 0
446, 6284417, 0, 2687, 0, 0, 0, 0, 0, 0, 0, -4, -942, 1677, -42, 30, 30, 0, 0, 0, -2038, 1110, 14692, 595, 0, 0, 0, 0, 0
447, 6294558, 0, 2687, 0, 0, 0, 0, 0, 0, 0, -3, -942, 1680, -43, 30, 31, 0, 0, 0, -2066, 1136, 14708, 595, 0, 0, 0, 0, 0
448, 6304371, 0, 2687, 0, 0, 0, 0, 0, 0, 0, -3, -943, 1683, -43, 31, 32, 0, 0, 0, -2084, 1130, 14680, 595, 0, 0, 0, 0, 0
449, 6314428, 0, 2687, 0, 0, 0, 0, 0, 0, 0, -3, -943, 1686, -44, 31, 32, 0, 0, 0, -2098, 1050, 14708, 595, 0, 0, 0, 0, 0
450, 6324336, 0, 2687, 0, 0, 0, 0, 0, 0, 0, -3, -943, 1689, -45, 32, 31, 0, 0, 0, -2114, 986, 14714, 595, 0, 0, 0, 0, 0
451, 6334317, 0, 2687, 0, 0, 0, 0, 0, 0, 0, -3, -944, 1691, -44, 32, 31, 0, 0, 0, -2128, 970, 14716, 595, 0, 0, 0, 0, 0
452, 6344286, 0, 2687, 0, 0, 0, 0, 0, 0, 0, -3, -944, 1694, -44, 32, 31, 0, 0, 0, -2136, 1010, 14696, 595, 0, 0, 0, 0, 0
453, 6354489, 0, 2687, 0, 0, 0, 0, 0, 0, 0, -3, -945, 1697, -44, 33, 31, 0, 0, 0, -2108, 1026, 14702, 595, 0, 0, 0, 0, 0
454, 6364254, 0, 2687, 0, 0, 0, 0, 0, 0, 0, -4, -945, 1700, -43, 32, 32, 0, 0, 0, -2090, 1038, 14692, 595, 0, 0, 0, 0, 0
455, 6374234, 0, 2687, 0, 0, 0, 0, 0, 0, 0, -4, -945, 1703, -44, 33, 32, 0, 0, 0, -2076, 1044, 14676, 595, 0, 0, 0, 0, 0
456, 6384208, 0, 2687, 0, 0, 0, 0, 0, 0, 0, -3, -945, 1706, -44, 33, 31, 0, 0, 0, -2034, 1058, 14714, 595, 0, 0, 0, 0, 0
457, 6394192, 0, 2687, 0, 0, 0, 0, 0, 0, 0, -4, -945, 1709, -45, 33, 31, 0, 0, 0, -2032, 1060, 14696, 595, 0, 0, 0, 0, 0
458, 6404170, 0, 2687, 0, 0, 0, 0, 0, 0, 0, -4, -945, 1712, -45, 33, 31, 0, 0, 0, -2032, 1050, 14742, 595, 0, 0, 0, 0, 0
459, 6414149, 0, 2687, 0, 0, 0, 0, 0, 0, 0, -4, -945, 1715, -44, 33, 32, 0, 0, 0, -2028, 1018, 14712, 595, 0, 0, 0, 0, 0
460, 6424139, 0, 2687, 0, 0, 0, 0, 0, 0, 0, -4, -945, 1718, -44, 32, 32, 0, 0, 0, -2020, 996, 14758, 595, 0, 0, 0, 0, 0
461, 6434110, 0, 2687, 0, 0, 0, 0, 0, 0, 0, -4, -945, 1721, -44, 32, 31, 0, 0, 0, -2012, 1000, 14746, 595, 0, 0, 0, 0, 0
462, 6444117, 0, 2687, 0, 0, 0, 0, 0, 0, 0, -4, -945, 1724, -43, 32, 31, 0, 0, 0, -2026, 1032, 14730, 595, 0, 0, 0, 0, 0
463, 6454308, 0, 2687, 0, 0, 0, 0, 0, 0, 0, -4, -945, 1727, -44, 32, 31, 0, 0, 0, -2016, 1066, 14720, 595, 0, 0, 0, 0, 0
464, 6464123, 0, 2687, 0, 0, 0, 0, 0, 0, 0, -4, -945, 1729, -43, 31, 31, 0, 0, 0, -2004, 1072, 14718, 595, 0, 0, 0, 0, 0
465, 6474027, 0, 2687, 0, 0, 0, 0, 0, 0, 0, -4, -945, 1732, -44, 32, 30, 0, 0, 0, -2044, 1052, 14716, 595, 0, 0, 0, 0, 0
466, 6484153, 0, 2687, 0, 0, 0, 0, 0, 0, 0, -4, -945, 1735, -44, 31, 31, 0, 0, 0, -2024, 1034, 14722, 595, 0, 0, 0, 0, 0
467, 6493998, 0, 2687, 0, 0, 0, 0, 0, 0, 0, -4, -945, 1738, -43, 31, 30, 0, 0, 0, -2046, 1012, 14720, 595, 0, 0, 0, 0, 0
468, 6504130, 0, 2687, 0, 0, 0, 0, 0, 0, 0, -4, -945, 1741, -44, 31, 30, 0, 0, 0, -2062, 1028, 14674, 595, 0, 0, 0, 0, 0
469, 6513952, 0, 2687, 0, 0, 0, 0, 0, 0, 0, -4, -945, 1744, -44, 31, 30, 0, 0, 0, -2078, 1064, 14648, 595, 0, 0, 0, 0, 0
470, 6523985, 0, 2687, 0, 0, 0, 0, 0, 0, 0, -4, -946, 1747, -44, 32, 31, 0, 0, 0, -2096, 1060, 14660, 595, 0, 0, 0, 0, 0
471, 6534078, 0, 2687, 0, 0, 0, 0, 0, 0, 0, -4, -946, 1749, -44, 32, 31, 0, 0, 0, -2086, 1062, 14680, 595, 0, 0, 0, 0, 0
472, 6543889, 0, 2687, 0, 0, 0, 0, 0, 0, 0, -4, -946, 1752, -45, 32, 31, 0, 0, 0, -2092, 1062, 14700, 595, 0, 0, 0, 0, 0
473, 6554158, 0, 2687, 0, 0, 0, 0, 0, 0, 0, -4, -946, 1755, -45, 32, 31, 0, 0, 0, -2090, 1040, 14714, 595, 0, 0, 0, 0, 0
474, 6563851, 0, 2687, 0, 0, 0, 0, 0, 0, 0, -4, -947, 1758, -45, 33, 31, 0, 0, 0, -2062, 1044, 14682, 595, 0, 0, 0, 0, 0
475, 6573839, 0, 2687, 0, 0, 0, 0, 0, 0, 0, -4, -947, 1761, -45, 33, 30, 0, 0, 0, -2042, 1034, 14696, 595, 0, 0, 0, 0, 0
476, 6583808, 0, 2687, 0, 0, 0, 0, 0, 0, 0, -4, -947, 1764, -45, 32, 31, 0, 0, 0, -2044, 1040, 14706, 595, 0, 0, 0, 0, 0
477, 6593797, 0, 2687, 0, 0, 0, 0, 0, 0, 0, -4, -947, 1767, -44, 32, 31, 0, 0, 0, -2024, 1008, 14702, 595, 0, 0, 0, 0, 0
478, 6603774, 0, 2687, 0, 0, 0, 0, 0, 0, 0, -4, -947, 1770, -44, 32, 32, 0, 0, 0, -2034, 1036, 14726, 595, 0, 0, 0, 0, 0
479, 6613759, 0, 2687, 0, 0, 0, 0, 0, 0, 0, -4, -947, 1772, -44, 32, 31, 0, 0, 0, -2034, 1042, 14720, 595, 0, 0, 0, 0, 0
480, 6623741, 0, 2687, 0, 0, 0, 0, 0, 0, 0, -4, -947, 1775, -44, 32, 32, 0, 0, 0, -2044, 1044, 14680, 595, 0, 0, 0, 0, 0
481, 6633717, 0, 2687, 0, 0, 0, 0, 0, 0, 0, -4, -947, 1778, -44, 32, 32, 0, 0, 0, -2044, 1034, 14712, 595, 0, 0, 0, 0, 0
482, 6643690, 0, 2687, 0, 0, 0, 0, 0, 0, 0, -5, -947, 1781, -44, 32, 31, 0, 0, 0, -2036, 1008, 14688, 595, 0, 0, 0, 0, 0
483, 6653978, 0, 2687, 0, 0, 0, 0, 0, 0, 0, -5, -947, 1784, -44, 31, 31, 0, 0, 0, -2042, 1026, 14702, 595, 0, 0, 0, 0, 0
484, 6663652, 0, 2687, 0, 0, 0, 0, 0, 0, 0, -5, -947, 1787, -44, 31, 31, 0, 0, 0, -2030, 1006, 14712, 595, 0, 0, 0, 0, 0
485, 6673731, 0, 2687, 0, 0, 0, 0, 0, 0, 0, -5, -947, 1790, -44, 31, 31, 0, 0, 0, -2036, 1010, 14694, 595, 0, 0, 0, 0, 0
486, 6683623, 0, 2687, 0, 0, 0, 0, 0, 0, 0, -5, -947, 1793, -44, 31, 31, 0, 0, 0, -2064, 1026, 14660, 595, 0, 0, 0, 0, 0
487, 6693738, 0, 2687, 0, 0, 0, 0, 0, 0, 0, -5, -947, 1796, -44, 31, 31, 0, 0, 0, -2074, 1022, 14644, 595, 0, 0, 0, 0, 0
488, 6703575, 0, 2687, 0, 0, 0, 0, 0, 0, 0, -5, -948, 1799, -44, 31, 31, 0, 0, 0, -2078, 1034, 14672, 595, 0, 0, 0, 0, 0
489, 6713701, 0, 2687, 0, 0, 0, 0, 0, 0, 0, -5, -948, 1802, -44, 32, 32, 0, 0, 0, -2088, 1036, 14692, 595, 0, 0, 0, 0, 0
490, 6723537, 0, 2687, 0, 0, 0, 0, 0, 0, 0, -5, -948, 1805, -44, 32, 31, 0, 0, 0, -2084, 1030, 14704, 595, 0, 0, 0, 0, 0
491, 6733539, 0, 2687, 0, 0, 0, 0, 0, 0, 0, -5, -948, 1807, -44, 32, 31, 0, 0, 0, -2102, 1040, 14722, 595, 0, 0, 0, 0, 0
492, 6743487, 0, 2687, 0, 0, 0, 0, 0, 0, 0, -5, -949, 1810, -44, 32, 31, 0, 0, 0, -2088, 1032, 14714, 595, 0, 0, 0, 0, 0
493, 6753766, 0, 2687, 0, 0, 0, 0, 0, 0, 0, -5, -949, 1813, -44, 33, 31, 0, 0, 0, -2072, 1030, 14724, 595, 0, 0, 0, 0, 0
494, 6763444, 0, 2687, 0, 0, 0, 0, 0, 0, 0, -6, -949, 1816, -44, 32, 31, 0, 0, 0, -2056, 1020, 14742, 595, 0, 0, 0, 0, 0
495, 6773433, 0, 2687, 0, 0, 0, 0, 0, 0, 0, -6, -949, 1819, -44, 33, 31, 0, 0, 0, -2016, 1030, 14728, 595, 0, 0, 0, 0, 0
496, 6783391, 0, 2687, 0, 0, 0, 0, 0, 0, 0, -6, -949, 1822, -44, 32, 31, 0, 0, 0, -2004, 1034, 14748, 595, 0, 0, 0, 0, 0
