index_log, time_stamp, mode, thrust, roll, pitch, yaw, ae[0], ae[1], ae[2], ae[3], phi, theta, psi, sp, sq, sr, sax, say, saz, bat_volt, P, P1, P2, temperature, pressure
0, 54507668, 5, 3263, 0, 0, 0, 407, 407, 407, 407, 1, 1, 4728, 1, 3, 0, -1638, 620, 14892, 595, 0, 16, 2, 0, 0
1, 54517647, 5, 3263, 0, 0, 0, 407, 407, 407, 407, 1, 1, 4728, 1, 3, 0, -1646, 614, 14868, 595, 0, 16, 2, 0, 0
2, 54527627, 5, 3263, 0, 0, 0, 407, 407, 407, 407, 1, 1, 4728, 1, 3, -1, -1666, 612, 14902, 595, 0, 16, 2, 0, 0
3, 54537617, 5, 3263, 0, 0, 0, 407, 407, 407, 407, 1, 0, 4728, 1, 3, 0, -1650, 608, 14898, 595, 0, 16, 2, 0, 0
4, 54547601, 5, 3263, 0, 0, 0, 407, 407, 407, 407, 1, 0, 4728, 0, 2, 0, -1640, 610, 14882, 595, 0, 16, 2, 0, 0
5, 54557586, 5, 3263, 0, 0, 0, 407, 407, 407, 407, 1, 0, 4728, 1, 3, 0, -1642, 618, 14896, 595, 0, 16, 2, 0, 0
6, 54567573, 5, 3263, 0, 0, 0, 407, 407, 407, 407, 1, 0, 4728, 0, 2, -1, -1644, 616, 14894, 595, 0, 16, 2, 0, 0
7, 54577546, 5, 3263, 0, 0, 0, 407, 407, 407, 407, 1, 0, 4728, 1, 3, -1, -1644, 608, 14924, 595, 0, 16, 2, 0, 0
8, 54587538, 5, 3263, 0, 0, 0, 407, 407, 407, 407, 1, 0, 4728, 0, 2, 0, -1638, 614, 14958, 595, 0, 16, 2, 0, 0
9, 54597526, 5, 3263, 0, 0, 0, 407, 407, 407, 407, 1, 0, 4728, 1, 3, 0, -1646, 622, 14902, 595, 0, 16, 2, 0, 0
10, 54607506, 5, 3263, 0, 0, 0, 407, 407, 407, 407, 1, 0, 4728, 1, 3, 0, -1660, 630, 14912, 595, 0, 16, 2, 0, 0
11, 54617486, 5, 3263, 0, 0, 0, 407, 407, 407, 407, 1, 0, 4728, 0, 1, -1, -1658, 628, 14906, 595, 0, 16, 2, 0, 0
12, 54627474, 5, 3263, 0, 0, 0, 407, 407, 407, 407, 1, 0, 4728, 0, 1, -1, -1664, 624, 14880, 595, 0, 16, 2, 0, 0
13, 54637448, 5, 3263, 0, 0, 0, 407, 407, 407, 407, 1, 0, 4727, 0, 2, -1, -1684, 608, 14900, 595, 0, 16, 2, 0, 0
14, 54647423, 5, 3263, 0, 0, 0, 407, 407, 407, 407, 1, 0, 4727, 0, 2, 0, -1670, 608, 14912, 595, 0, 16, 2, 0, 0
15, 54657422, 5, 3263, 0, 0, 0, 407, 407, 407, 407, 1, 0, 4727, 1, 3, 0, -1656, 616, 14912, 595, 0, 16, 2, 0, 0
16, 54667407, 5, 3263, 0, 0, 0, 407, 407, 407, 407, 1, 0, 4728, 1, 3, 0, -1666, 614, 14936, 595, 0, 16, 2, 0, 0
17, 54677377, 5, 3263, 0, 0, 0, 407, 407, 407, 407, 1, 0, 4728, 0, 1, 0, -1658, 620, 14902, 595, 0, 16, 2, 0, 0
18, 54687511, 5, 3263, 0, 0, 0, 407, 407, 407, 407, 1, 0, 4728, 0, 1, 0, -1660, 620, 14906, 595, 0, 16, 2, 0, 0
19, 54697347, 5, 3263, 0, 0, 0, 407, 407, 407, 407, 1, 0, 4727, 0, 2, -1, -1644, 628, 14910, 595, 0, 16, 2, 0, 0
20, 54707328, 5, 3263, 0, 0, 0, 407, 407, 407, 407, 1, 0, 4727, 0, 2, 0, -1644, 648, 14908, 595, 0, 16, 2, 0, 0
21, 54717295, 5, 3263, 0, 0, 0, 407, 407, 407, 407, 1, 0, 4727, 0, 2, 0, -1636, 626, 14900, 595, 0, 16, 2, 0, 0
22, 54727281, 5, 3263, 0, 0, 0, 407, 407, 407, 407, 1, 0, 4727, 0, 2, 0, -1632, 626, 14886, 595, 0, 16, 2, 0, 0
23, 54737252, 5, 3263, 0, 0, 0, 407, 407, 407, 407, 1, 0, 4727, 0, 2, 0, -1636, 628, 14894, 595, 0, 16, 2, 0, 0
24, 54747252, 5, 3263, 0, 0, 0, 407, 407, 407, 407, 1, 0, 4727, 0, 2, 0, -1642, 622, 14894, 595, 0, 16, 2, 0, 0
25, 54757233, 5, 3263, 0, 0, 0, 407, 407, 407, 407, 1, 0, 4727, 0, 2, 0, -1654, 628, 14892, 595, 0, 16, 2, 0, 0
26, 54767226, 5, 3263, 0, 0, 0, 407, 407, 407, 407, 1, 0, 4727, 0, 2, 0, -1654, 608, 14882, 595, 0, 16, 2, 0, 0
27, 54777209, 5, 3263, 0, 0, 0, 407, 407, 407, 407, 1, 0, 4728, 0, 2, 0, -1656, 612, 14864, 595, 0, 16, 2, 0, 0
28, 54787194, 5, 3263, 0, 0, 0, 407, 407, 407, 407, 1, 0, 4728, 1, 3, 0, -1668, 620, 14924, 595, 0, 16, 2, 0, 0
29, 54797167, 5, 3263, 0, 0, 0, 407, 407, 407, 407, 1, 0, 4728, 1, 3, 0, -1654, 642, 14908, 595, 0, 16, 2, 0, 0
30, 54807163, 5, 3263, 0, 0, 0, 407, 407, 407, 407, 2, 0, 4728, 1, 3, 0, -1662, 626, 14926, 595, 0, 16, 2, 0, 0
31, 54817142, 5, 3263, 0, 0, 0, 407, 407, 407, 407, 2, 0, 4727, 1, 3, -1, -1666, 636, 14910, 595, 0, 16, 2, 0, 0
32, 54827122, 5, 3263, 0, 0, 0, 407, 407, 407, 407, 2, 0, 4727, 1, 3, -1, -1650, 636, 14932, 595, 0, 16, 2, 0, 0
33, 54837092, 5, 3263, 0, 0, 0, 407, 407, 407, 407, 2, 0, 4727, 1, 3, 0, -1654, 624, 14930, 595, 0, 16, 2, 0, 0
34, 54847082, 5, 3263, 0, 0, 0, 407, 407, 407, 407, 2, 0, 4727, 1, 3, 0, -1648, 620, 14932, 595, 0, 16, 2, 0, 0
35, 54857062, 5, 3263, 0, 0, 0, 407, 407, 407, 407, 2, 0, 4727, 0, 2, 0, -1634, 608, 14910, 595, 0, 16, 2, 0, 0
36, 54867041, 5, 3263, 0, 0, 0, 407, 407, 407, 407, 2, 0, 4727, 0, 2, 0, -1648, 628, 14884, 595, 0, 16, 2, 0, 0
37, 54877031, 5, 3263, 0, 0, 0, 407, 407, 407, 407, 2, 0, 4727, 0, 1, 0, -1652, 626, 14912, 595, 0, 16, 2, 0, 0
38, 54887009, 5, 3263, 0, 0, 0, 407, 407, 407, 407, 2, 0, 4727, 1, 3, 0, -1656, 642, 14926, 595, 0, 16, 2, 0, 0
39, 54896982, 5, 3263, 0, 0, 0, 407, 407, 407, 407, 2, 0, 4727, 1, 3, 0, -1638, 642, 14932, 595, 0, 16, 2, 0, 0
40, 54906955, 5, 3263, 0, 0, 0, 407, 407, 407, 407, 2, 0, 4727, 0, 2, -1, -1640, 634, 14944, 595, 0, 16, 2, 0, 0
41, 54916943, 5, 3263, 0, 0, 0, 407, 407, 407, 407, 2, 0, 4727, 0, 2, -1, -1650, 624, 14914, 595, 0, 16, 2, 0, 0
42, 54926933, 5, 3263, 0, 0, 0, 407, 407, 407, 407, 2, 0, 4727, 1, 3, 0, -1644, 622, 14926, 595, 0, 16, 2, 0, 0
43, 54936925, 5, 3263, 0, 0, 0, 407, 407, 407, 407, 2, 0, 4727, 1, 3, 0, -1678, 624, 14926, 595, 0, 16, 2, 0, 0
44, 54946896, 5, 3263, 0, 0, 0, 407, 407, 407, 407, 2, 0, 4727, 0, 2, 0, -1652, 620, 14912, 595, 0, 16, 2, 0, 0
45, 54956887, 5, 3263, 0, 0, 0, 407, 407, 407, 407, 3, 0, 4727, 0, 2, 0, -1640, 626, 14910, 595, 0, 16, 2, 0, 0
46, 54966870, 5, 3263, 0, 0, 0, 407, 407, 407, 407, 3, 0, 4727, 0, 2, 0, -1652, 620, 14910, 595, 0, 16, 2, 0, 0
47, 54976842, 5, 3263, 0, 0, 0, 407, 407, 407, 407, 3, 0, 4727, 0, 1, 0, -1646, 616, 14906, 595, 0, 16, 2, 0, 0
48, 54986813, 5, 3263, 0, 0, 0, 407, 407, 407, 407, 3, 0, 4727, 0, 2, 0, -1640, 614, 14890, 595, 0, 16, 2, 0, 0
49, 54996796, 5, 3263, 0, 0, 0, 407, 407, 407, 407, 3, 0, 4727, 0, 2, 0, -1640, 616, 14896, 595, 0, 16, 2, 0, 0
50, 55006787, 5, 3263, 0, 0, 0, 407, 407, 407, 407, 2, 1, 4727, 1, 3, 0, -1642, 608, 14924, 595, 0, 16, 2, 0, 0
51, 55016758, 5, 3263, 0, 0, 0, 407, 407, 407, 407, 2, 1, 4727, 0, 2, -1, -1648, 626, 14896, 595, 0, 16, 2, 0, 0
52, 55026755, 5, 3263, 0, 0, 0, 407, 407, 407, 407, 3, 1, 4727, 1, 3, -1, -1648, 622, 14926, 595, 0, 16, 2, 0, 0
53, 55036731, 5, 3263, 0, 0, 0, 407, 407, 407, 407, 3, 1, 4727, 1, 3, -1, -1644, 608, 14934, 595, 0, 16, 2, 0, 0
54, 55046705, 5, 3263, 0, 0, 0, 407, 407, 407, 407, 3, 1, 4727, 0, 2, -1, -1646, 618, 14920, 595, 0, 16, 2, 0, 0
55, 55056691, 5, 3263, 0, 0, 0, 407, 407, 407, 407, 3, 1, 4727, 0, 2, 0, -1628, 618, 14908, 595, 0, 16, 2, 0, 0
56, 55066672, 5, 3263, 0, 0, 0, 407, 407, 407, 407, 3, 1, 4727, 0, 1, 0, -1658, 624, 14922, 595, 0, 16, 2, 0, 0
57, 55076636, 5, 3263, 0, 0, 0, 407, 407, 407, 407, 2, 1, 4727, 0, 1, 0, -1660, 618, 14928, 595, 0, 16, 2, 0, 0
58, 55086633, 5, 3263, 0, 0, 0, 407, 407, 407, 407, 2, 1, 4727, 0, 2, 0, -1648, 614, 14896, 595, 0, 16, 2, 0, 0
59, 55096607, 5, 3263, 0, 0, 0, 407, 407, 407, 407, 2, 1, 4727, 0, 2, 0, -1654, 616, 14900, 595, 0, 16, 2, 0, 0
60, 55106584, 5, 3263, 0, 0, 0, 407, 407, 407, 407, 2, 1, 4727, 0, 2, 0, -1650, 612, 14918, 595, 0, 16, 2, 0, 0
61, 55116582, 5, 3263, 0, 0, 0, 407, 407, 407, 407, 2, 1, 4727, 1, 3, 0, -1658, 626, 14898, 595, 0, 16, 2, 0, 0
62, 55126551, 5, 3263, 0, 0, 0, 407, 407, 407, 407, 2, 1, 4727, 0, 2, 0, -1648, 632, 14898, 595, 0, 16, 2, 0, 0
63, 55136547, 5, 3263, 0, 0, 0, 407, 407, 407, 407, 2, 1, 4727, 0, 2, 0, -1656, 614, 14896, 595, 0, 16, 2, 0, 0
64, 55146520, 5, 3263, 0, 0, 0, 407, 407, 407, 407, 2, 1, 4727, 0, 2, 0, -1664, 612, 14894, 595, 0, 16, 2, 0, 0
65, 55156498, 5, 3263, 0, 0, 0, 407, 407, 407, 407, 2, 1, 4727, 0, 2, 0, -1672, 618, 14908, 595, 0, 16, 2, 0, 0
66, 55166495, 5, 3263, 0, 0, 0, 407, 407, 407, 407, 2, 1, 4727, 1, 2, 0, -1664, 630, 14908, 595, 0, 16, 2, 0, 0
67, 55176471, 5, 3263, 0, 0, 0, 407, 407, 407, 407, 2, 1, 4727, 0, 2, 0, -1666, 638, 14928, 595, 0, 16, 2, 0, 0
68, 55186456, 5, 3263, 0, 0, 0, 407, 407, 407, 407, 3, 1, 4727, 0, 2, 0, -1668, 646, 14912, 595, 0, 16, 2, 0, 0
69, 55196442, 5, 3263, 0, 0, 0, 407, 407, 407, 407, 3, 1, 4727, 0, 2, 0, -1682, 636, 14896, 595, 0, 16, 2, 0, 0
70, 55206428, 5, 3263, 0, 0, 0, 407, 407, 407, 407, 3, 0, 4727, 1, 3, 0, -1676, 638, 14894, 595, 0, 16, 2, 0, 0
71, 55216398, 5, 3263, 0, 0, 0, 407, 407, 407, 407, 3, 0, 4727, 0, 1, 0, -1686, 636, 14928, 595, 0, 16, 2, 0, 0
72, 55226385, 5, 3263, 0, 0, 0, 407, 407, 407, 407, 3, 0, 4727, 0, 2, -1, -1656, 626, 14930, 595, 0, 16, 2, 0, 0
73, 55236370, 5, 3263, 0, 0, 0, 407, 407, 407, 407, 3, 0, 4727, 1, 3, -1, -1652, 632, 14918, 595, 0, 16, 2, 0, 0
74, 55246366, 5, 3263, 0, 0, 0, 407, 407, 407, 407, 3, 0, 4727, 1, 3, -1, -1660, 628, 14920, 595, 0, 16, 2, 0, 0
75, 55256333, 5, 3263, 0, 0, 0, 407, 407, 407, 407, 3, 0, 4727, 0, 2, -1, -1642, 610, 14926, 595, 0, 16, 2, 0, 0
76, 55266311, 5, 3263, 0, 0, 0, 407, 407, 407, 407, 3, 0, 4727, 1, 3, -1, -1660, 618, 14886, 595, 0, 16, 2, 0, 0
77, 55276305, 5, 3263, 0, 0, 0, 407, 407, 407, 407, 3, 0, 4727, 1, 3, 0, -1668, 630, 14894, 595, 0, 16, 2, 0, 0
78, 55286286, 5, 3263, 0, 0, 0, 407, 407, 407, 407, 3, 0, 4727, 1, 3, 0, -1652, 616, 14904, 595, 0, 16, 2, 0, 0
79, 55296415, 5, 3263, 0, 0, 0, 407, 407, 407, 407, 3, 0, 4727, 0, 3, 0, -1646, 618, 14920, 595, 0, 16, 2, 0, 0
80, 55306245, 5, 3263, 0, 0, 0, 407, 407, 407, 407, 2, 0, 4726, -4, 6, -10, -1816, 492, 14916, 595, 0, 16, 2, 0, 0
81, 55316221, 5, 3263, 0, 0, 0, 407, 407, 407, 408, 0, -2, 4722, -24, 19, -54, -1722, 566, 14910, 595, 0, 16, 2, 0, 0
82, 55326189, 5, 3263, 0, 0, 0, 408, 407, 407, 408, -2, -1, 4713, -10, 4, -79, -264, 332, 14994, 595, 0, 16, 2, 0, 0
83, 55336179, 5, 3263, 0, 0, 0, 408, 407, 407, 408, -2, 8, 4708, 8, -10, -35, 312, 238, 14962, 595, 0, 16, 2, 0, 0
84, 55346150, 5, 3263, 0, 0, 0, 407, 407, 408, 408, -5, 17, 4714, -6, 11, 83, 218, 210, 15214, 595, 0, 16, 2, 0, 0
85, 55356134, 5, 3263, 0, 0, 0, 407, 407, 408, 408, -10, 22, 4733, -10, 29, 197, -418, 380, 14844, 595, 0, 16, 2, 0, 0
86, 55366102, 5, 3263, 0, 0, 0, 407, 407, 407, 408, -15, 21, 4762, -10, 36, 281, -1604, 1046, 14942, 595, 0, 16, 2, 0, 0
87, 55376105, 5, 3263, 0, 0, 0, 408, 407, 407, 408, -14, 18, 4799, 46, -14, 359, -2790, 1376, 14798, 595, 0, 16, 2, 0, 0
88, 55386095, 5, 3263, 0, 0, 0, 407, 408, 408, 407, -7, 13, 4843, 71, -27, 394, -3914, 1114, 14826, 595, 0, 16, 2, 0, 0
89, 55396072, 5, 3263, 0, 0, 0, 407, 408, 408, 407, -3, 3, 4881, 45, -16, 322, -3400, 948, 14744, 595, 0, 16, 2, 0, 0
90, 55406077, 5, 3263, 0, 0, 0, 407, 408, 408, 407, -1, -5, 4914, 29, -5, 290, -3152, 916, 14828, 595, 0, 16, 2, 0, 0
91, 55416040, 5, 3263, 0, 0, 0, 407, 407, 407, 407, 0, -12, 4942, 23, -5, 234, -2990, 750, 14852, 595, 0, 16, 2, 0, 0
92, 55426014, 5, 3263, 0, 0, 0, 407, 408, 407, 407, -1, -19, 4961, 6, 2, 150, -2970, 738, 14844, 595, 0, 16, 2, 0, 0
93, 55435992, 5, 3263, 0, 0, 0, 408, 407, 407, 408, -4, -28, 4969, -32, 32, 43, -2694, 510, 14876, 595, 0, 16, 2, 0, 0
94, 55445985, 5, 3263, 0, 0, 0, 408, 407, 406, 408, -10, -37, 4962, -56, 40, -95, -2264, 560, 15000, 595, 0, 16, 2, 0, 0
95, 55455962, 5, 3263, 0, 0, 0, 409, 406, 406, 409, -14, -41, 4943, -50, 28, -192, -1464, 488, 14902, 595, 0, 16, 2, 0, 0
96, 55465932, 5, 3263, 0, 0, 0, 408, 406, 406, 409, -16, -40, 4919, -36, 18, -220, -936, 322, 14932, 595, 0, 16, 2, 0, 0
97, 55475920, 5, 3263, 0, 0, 0, 408, 406, 406, 408, -18, -37, 4895, -26, 33, -211, -496, 214, 15334, 595, 0, 16, 2, 0, 0
98, 55485900, 5, 3263, 0, 0, 0, 409, 406, 406, 408, -21, -39, 4874, -24, 98, -175, -570, 128, 15348, 595, 0, 16, 2, 0, 0
99, 55495890, 5, 3263, 0, 0, 0, 410, 406, 405, 408, -25, -49, 4856, -48, 151, -158, -998, 156, 15190, 595, 0, 16, 2, 0, 0
100, 55505882, 5, 3263, 0, 0, 0, 411, 406, 404, 409, -35, -62, 4839, -94, 159, -135, -1470, 402, 15140, 595, 0, 16, 2, 0, 0
101, 55515849, 5, 3263, 0, 0, 0, 411, 405, 404, 410, -48, -77, 4829, -132, 140, -65, -1746, 746, 14870, 595, 0, 16, 2, 0, 0
102, 55525838, 5, 3263, 0, 0, 0, 411, 404, 404, 410, -62, -90, 4828, -138, 108, 15, -1936, 770, 14682, 595, 0, 16, 2, 0, 0
103, 55535832, 5, 3263, 0, 0, 0, 410, 404, 404, 411, -78, -98, 4833, -156, 43, 50, -1998, 910, 14778, 595, 0, 16, 2, 0, 0
104, 55545800, 5, 3263, 0, 0, 0, 410, 404, 405, 411, -99, -98, 4838, -212, -21, 52, -1752, 938, 15148, 595, 0, 16, 2, 0, 0
105, 55555823, 5, 3263, 0, 0, 0, 409, 402, 406, 413, -122, -100, 4845, -215, 62, 69, -1580, 544, 15498, 595, 0, 16, 2, 0, 0
106, 55565774, 5, 3263, 0, 0, 0, 410, 402, 405, 413, -143, -122, 4854, -160, 257, 88, -1826, 212, 15374, 595, 0, 16, 2, 0, 0
107, 55575751, 5, 3263, 0, 0, 0, 413, 403, 401, 412, -158, -165, 4862, -105, 421, 72, -2206, -30, 15040, 595, 0, 16, 2, 0, 0
108, 55585760, 5, 3263, 0, 0, 0, 417, 403, 398, 412, -172, -216, 4865, -98, 437, 23, -2446, -138, 14578, 595, 0, 16, 2, 0, 0
109, 55595724, 5, 3263, 0, 0, 0, 418, 403, 397, 412, -190, -257, 4863, -161, 301, -29, -2504, -48, 14682, 595, 0, 16, 2, 0, 0
110, 55605736, 5, 3263, 0, 0, 0, 416, 402, 399, 413, -215, -275, 4857, -228, 94, -52, -2288, 136, 15336, 595, 0, 16, 2, 0, 0
111, 55615674, 5, 3263, 0, 0, 0, 413, 400, 402, 415, -240, -273, 4853, -215, -45, -30, -2066, 242, 16130, 595, 0, 16, 2, 0, 0
112, 55625662, 5, 3263, 0, 0, 0, 411, 400, 404, 415, -257, -260, 4853, -136, -141, 12, -2164, 490, 16546, 595, 0, 16, 2, 0, 0
113, 55635642, 5, 3263, 0, 0, 0, 409, 401, 405, 414, -266, -232, 4858, -64, -294, 50, -2466, 458, 16810, 595, 0, 16, 2, 0, 0
114, 55645630, 5, 3263, 0, 0, 0, 406, 402, 408, 413, -269, -180, 4866, -19, -541, 67, -2610, 388, 16924, 595, 0, 16, 2, 0, 0
115, 55655637, 5, 3263, 0, 0, 0, 402, 403, 413, 412, -268, -99, 4874, 27, -815, 56, -2452, 316, 16872, 595, 0, 16, 2, 0, 0
116, 55665621, 5, 3263, 0, 0, 0, 396, 403, 418, 411, -260, 6, 4880, 99, -992, 34, -2096, 384, 16530, 595, 0, 16, 2, 0, 0
117, 55675587, 5, 3263, 0, 0, 0, 392, 405, 423, 410, -243, 121, 4885, 165, -1063, 16, -1720, 524, 16062, 595, 0, 16, 2, 0, 0
118, 55685571, 5, 3263, 0, 0, 0, 389, 406, 426, 409, -221, 243, 4888, 188, -1115, 1, -1400, 522, 15736, 595, 0, 16, 2, 0, 0
119, 55695531, 5, 3263, 0, 0, 0, 386, 407, 429, 408, -200, 370, 4890, 185, -1146, -8, -1160, 396, 15742, 595, 0, 16, 2, 0, 0
120, 55705534, 5, 3263, 0, 0, 0, 384, 407, 431, 408, -180, 499, 4891, 182, -1154, -20, -1080, 508, 15860, 595, 0, 16, 2, 0, 0
121, 55715475, 5, 3263, 0, 0, 0, 381, 407, 433, 408, -159, 630, 4889, 176, -1194, -54, -958, 436, 15986, 595, 0, 16, 2, 0, 0
122, 55725488, 5, 3263, 0, 0, 0, 379, 408, 436, 407, -138, 763, 4882, 198, -1205, -115, -896, 268, 15748, 595, 0, 16, 2, 0, 0
123, 55735449, 5, 3263, 0, 0, 0, 377, 408, 438, 407, -115, 900, 4869, 210, -1256, -169, -870, 552, 15238, 595, 0, 16, 2, 0, 0
124, 55745450, 5, 3263, 0, 0, 0, 374, 409, 441, 406, -92, 1044, 4851, 187, -1328, -216, -732, 824, 14994, 595, 0, 16, 2, 0, 0
125, 55755445, 5, 3263, 0, 0, 0, 370, 409, 444, 406, -70, 1184, 4828, 183, -1255, -264, -544, 982, 15056, 595, 0, 16, 2, 0, 0
126, 55765409, 5, 3263, 0, 0, 0, 369, 409, 446, 406, -46, 1308, 4798, 203, -1080, -323, -288, 1036, 15258, 595, 0, 16, 2, 0, 0
127, 55775381, 5, 3263, 0, 0, 0, 370, 410, 445, 405, -19, 1414, 4761, 243, -921, -380, 260, 866, 15446, 595, 0, 16, 2, 0, 0
128, 55785379, 5, 3263, 0, 0, 0, 371, 411, 444, 404, 12, 1510, 4722, 294, -828, -393, 1020, 670, 15418, 595, 0, 16, 2, 0, 0
129, 55795354, 5, 3263, 0, 0, 0, 371, 412, 444, 403, 44, 1607, 4686, 297, -844, -345, 1772, 628, 15416, 595, 0, 16, 2, 0, 0
130, 55805375, 5, 3263, 0, 0, 0, 369, 412, 446, 402, 71, 1716, 4660, 247, -938, -248, 2464, 648, 15740, 595, 0, 16, 2, 0, 0
131, 55815318, 5, 3263, 0, 0, 0, 366, 412, 449, 403, 95, 1836, 4649, 219, -1004, -115, 2862, 512, 16170, 595, 0, 16, 2, 0, 0
132, 55825288, 5, 3263, 0, 0, 0, 363, 412, 452, 403, 120, 1960, 4655, 247, -1052, 41, 2948, 494, 16352, 595, 0, 16, 2, 0, 0
133, 55835277, 5, 3263, 0, 0, 0, 360, 413, 454, 402, 151, 2090, 4678, 296, -1137, 181, 2948, 382, 16206, 595, 0, 16, 2, 0, 0
134, 55845249, 5, 3263, 0, 0, 0, 357, 414, 458, 401, 190, 2227, 4713, 354, -1189, 272, 2918, 118, 15856, 595, 0, 16, 2, 0, 0
135, 55855297, 5, 3263, 0, 0, 0, 354, 416, 461, 399, 235, 2361, 4756, 418, -1163, 329, 2712, 282, 15246, 595, 0, 16, 2, 0, 0
136, 55865217, 5, 3263, 0, 0, 0, 352, 417, 462, 397, 287, 2489, 4805, 438, -1139, 365, 2328, 732, 14604, 595, 0, 16, 2, 0, 0
137, 55875206, 5, 3263, 0, 0, 0, 351, 418, 464, 396, 338, 2614, 4854, 400, -1133, 354, 2140, 1024, 14282, 595, 0, 16, 2, 0, 0
138, 55885181, 5, 3263, 0, 0, 0, 349, 419, 466, 396, 383, 2734, 4898, 321, -1095, 290, 2218, 1144, 14368, 595, 0, 16, 2, 0, 0
139, 55895180, 5, 3263, 0, 0, 0, 348, 418, 467, 397, 415, 2852, 4932, 220, -1076, 194, 2626, 1110, 14824, 595, 0, 16, 2, 0, 0
140, 55905327, 5, 3263, 0, 0, 0, 346, 417, 469, 398, 438, 2972, 4957, 155, -1083, 108, 3210, 998, 15400, 595, 0, 16, 2, 0, 0
141, 55915135, 5, 3263, 0, 0, 0, 344, 416, 471, 398, 456, 3097, 4976, 155, -1119, 74, 3706, 984, 15728, 595, 0, 16, 2, 0, 0
142, 55925130, 5, 3263, 0, 0, 0, 342, 417, 473, 398, 480, 3230, 4998, 209, -1194, 105, 3954, 998, 15580, 595, 0, 16, 2, 0, 0
143, 55935102, 5, 3263, 0, 0, 0, 338, 418, 476, 397, 515, 3369, 5027, 302, -1240, 174, 4050, 1018, 15030, 595, 0, 16, 2, 0, 0
144, 55945076, 5, 3263, 0, 0, 0, 335, 420, 479, 395, 563, 3508, 5066, 385, -1240, 246, 3970, 1284, 14200, 595, 0, 16, 2, 0, 0
145, 55955127, 5, 3263, 0, 0, 0, 333, 422, 482, 393, 620, 3644, 5114, 414, -1232, 311, 3914, 1564, 13484, 595, 0, 16, 2, 0, 0
146, 55965041, 5, 3263, 0, 0, 0, 331, 423, 483, 392, 678, 3778, 5168, 386, -1212, 356, 3952, 1758, 13034, 595, 0, 16, 2, 0, 0
147, 55975010, 5, 3263, 0, 0, 0, 329, 424, 485, 391, 732, 3910, 5226, 313, -1214, 377, 4026, 1954, 12962, 595, 0, 16, 2, 0, 0
148, 55985005, 5, 3263, 0, 0, 0, 327, 423, 487, 391, 777, 4045, 5286, 219, -1251, 366, 4244, 1876, 13228, 595, 0, 16, 2, 0, 0
149, 55995001, 5, 3263, 0, 0, 0, 325, 423, 490, 392, 813, 4183, 5343, 157, -1284, 334, 4540, 1690, 13578, 595, 0, 16, 2, 0, 0
150, 56005062, 5, 3263, 0, 0, 0, 322, 422, 493, 393, 845, 4327, 5397, 131, -1339, 304, 4824, 1630, 13692, 595, 0, 16, 2, 0, 0
151, 56014958, 5, 3263, 0, 0, 0, 319, 422, 496, 392, 876, 4478, 5451, 134, -1396, 292, 4998, 1606, 13590, 595, 0, 16, 2, 0, 0
152, 56024927, 5, 3263, 0, 0, 0, 316, 423, 499, 392, 910, 4632, 5506, 159, -1407, 294, 5046, 1842, 13238, 595, 0, 16, 2, 0, 0
153, 56034928, 5, 3263, 0, 0, 0, 313, 424, 502, 391, 949, 4781, 5562, 182, -1357, 289, 4956, 2100, 12834, 595, 0, 16, 2, 0, 0
154, 56044908, 5, 3263, 0, 0, 0, 312, 425, 503, 390, 990, 4920, 5615, 182, -1267, 261, 4992, 2288, 12574, 595, 0, 16, 2, 0, 0
155, 56054992, 5, 3263, 0, 0, 0, 311, 425, 504, 389, 1029, 5047, 5662, 177, -1143, 211, 5220, 2368, 12554, 595, 0, 16, 2, 0, 0
156, 56064873, 5, 3263, 0, 0, 0, 311, 426, 504, 389, 1064, 5162, 5701, 160, -1030, 152, 5622, 2352, 12686, 595, 0, 16, 2, 0, 0
157, 56074866, 5, 3263, 0, 0, 0, 311, 426, 504, 388, 1095, 5269, 5732, 145, -955, 108, 6180, 2198, 12836, 595, 0, 16, 2, 0, 0
158, 56084845, 5, 3263, 0, 0, 0, 310, 427, 505, 388, 1123, 5373, 5761, 145, -916, 98, 6806, 2060, 12826, 595, 0, 16, 2, 0, 0
159, 56094832, 5, 3263, 0, 0, 0, 309, 427, 506, 388, 1152, 5478, 5793, 141, -914, 136, 7242, 1934, 12762, 595, 0, 16, 2, 0, 0
160, 56104896, 5, 3263, 0, 0, 0, 307, 427, 507, 387, 1183, 5584, 5833, 124, -938, 210, 7448, 2020, 12730, 595, 0, 16, 2, 0, 0
161, 56114783, 5, 3263, 0, 0, 0, 305, 427, 509, 387, 1216, 5690, 5883, 107, -946, 277, 7236, 1874, 12662, 595, 0, 16, 2, 0, 0
162, 56124761, 5, 3263, 0, 0, 0, 304, 428, 511, 387, 1250, 5795, 5938, 97, -956, 308, 6756, 2028, 12492, 595, 0, 16, 2, 0, 0
163, 56134754, 5, 3263, 0, 0, 0, 302, 428, 513, 386, 1284, 5899, 5994, 81, -982, 290, 6356, 2280, 12316, 595, 0, 16, 2, 0, 0
164, 56144743, 5, 3263, 0, 0, 0, 300, 429, 515, 386, 1316, 6003, 6045, 73, -975, 227, 6114, 2470, 12140, 595, 0, 16, 2, 0, 0
165, 56154849, 5, 3263, 0, 0, 0, 298, 429, 516, 386, 1345, 6103, 6085, 76, -931, 139, 6108, 2512, 11890, 595, 0, 16, 2, 0, 0
166, 56164714, 5, 3263, 0, 0, 0, 297, 429, 517, 385, 1369, 6197, 6114, 85, -854, 48, 6394, 2482, 11638, 595, 0, 16, 2, 0, 0
167, 56174686, 5, 3263, 0, 0, 0, 297, 430, 518, 385, 1388, 6285, 6131, 75, -766, -35, 6902, 2516, 11430, 595, 0, 16, 2, 0, 0
168, 56184666, 5, 3263, 0, 0, 0, 297, 430, 517, 385, 1398, 6370, 6138, 20, -726, -89, 7524, 2424, 11468, 595, 0, 16, 2, 0, 0
169, 56194638, 5, 3263, 0, 0, 0, 296, 429, 518, 385, 1397, 6456, 6143, -56, -725, -94, 8158, 2358, 11808, 595, 0, 16, 2, 0, 0
170, 56204771, 5, 3263, 0, 0, 0, 295, 428, 520, 387, 1391, 6545, 6152, -122, -748, -51, 8664, 2302, 12330, 595, 0, 16, 2, 0, 0
171, 56214940, 5, 3263, 0, 0, 0, 293, 427, 521, 388, 1383, 6635, 6170, -152, -771, 19, 8992, 2172, 12848, 595, 0, 16, 2, 0, 0
172, 56224909, 5, 3263, 0, 0, 0, 292, 426, 523, 388, 1380, 6726, 6196, -139, -796, 92, 9056, 2004, 13106, 595, 0, 16, 2, 0, 0
173, 56234895, 5, 3263, 0, 0, 0, 290, 427, 525, 388, 1386, 6817, 6233, -85, -821, 168, 8874, 2092, 13014, 595, 0, 16, 2, 0, 0
174, 56244881, 5, 3263, 0, 0, 0, 288, 427, 527, 387, 1407, 6906, 6279, -8, -813, 238, 8458, 2344, 12600, 595, 0, 16, 2, 0, 0
175, 56254976, 5, 3263, 0, 0, 0, 287, 429, 528, 386, 1440, 6989, 6332, 63, -772, 263, 7972, 2520, 12126, 595, 0, 16, 2, 0, 0
176, 56264846, 5, 3263, 0, 0, 0, 286, 431, 529, 384, 1480, 7066, 6381, 119, -732, 225, 7732, 2670, 11594, 595, 0, 16, 2, 0, 0
177, 56274843, 5, 3263, 0, 0, 0, 286, 432, 529, 383, 1519, 7144, 6423, 119, -748, 150, 7880, 2810, 11090, 595, 0, 16, 2, 0, 0
178, 56284817, 5, 3263, 0, 0, 0, 284, 433, 531, 382, 1549, 7229, 6457, 71, -769, 73, 8312, 2712, 10848, 595, 0, 16, 2, 0, 0
179, 56294803, 5, 3263, 0, 0, 0, 282, 432, 532, 382, 1569, 7313, 6480, 22, -710, 8, 8846, 2628, 10808, 595, 0, 16, 2, 0, 0
180, 56304923, 5, 3263, 0, 0, 0, 282, 432, 533, 383, 1577, 7387, 6493, -18, -582, -42, 9284, 2532, 10892, 595, 0, 16, 2, 0, 0
181, 56314747, 5, 3263, 0, 0, 0, 283, 431, 532, 383, 1577, 7447, 6498, -48, -446, -70, 9512, 2362, 11096, 595, 0, 16, 2, 0, 0
182, 56324745, 5, 3263, 0, 0, 0, 284, 431, 531, 384, 1571, 7497, 6499, -73, -364, -70, 9586, 2450, 11302, 595, 0, 16, 2, 0, 0
183, 56334711, 5, 3263, 0, 0, 0, 285, 431, 530, 384, 1562, 7543, 6502, -105, -368, -52, 9556, 2370, 11522, 595, 0, 16, 2, 0, 0
184, 56344694, 5, 3263, 0, 0, 0, 284, 430, 531, 385, 1554, 7592, 6508, -102, -405, -31, 9492, 2352, 11574, 595, 0, 16, 2, 0, 0
185, 56354850, 5, 3263, 0, 0, 0, 282, 430, 532, 385, 1551, 7644, 6518, -77, -436, -8, 9490, 2492, 11420, 595, 0, 16, 2, 0, 0
186, 56364662, 5, 3263, 0, 0, 0, 281, 430, 534, 385, 1553, 7696, 6530, -57, -435, 3, 9518, 2430, 11248, 595, 0, 16, 2, 0, 0
187, 56374648, 5, 3263, 0, 0, 0, 280, 431, 535, 384, 1555, 7747, 6542, -49, -414, -5, 9536, 2416, 11088, 595, 0, 16, 2, 0, 0
188, 56384625, 5, 3263, 0, 0, 0, 280, 431, 535, 384, 1557, 7795, 6552, -53, -395, -7, 9534, 2424, 10996, 595, 0, 16, 2, 0, 0
189, 56394600, 5, 3263, 0, 0, 0, 279, 431, 535, 384, 1559, 7840, 6565, -59, -366, 15, 9382, 2584, 10974, 595, 0, 16, 2, 0, 0
190, 56404760, 5, 3263, 0, 0, 0, 279, 431, 536, 384, 1561, 7885, 6580, -86, -400, 26, 9064, 2664, 11064, 595, 0, 16, 2, 0, 0
191, 56414573, 5, 3263, 0, 0, 0, 278, 430, 537, 385, 1559, 7938, 6594, -113, -488, -14, 8916, 2474, 11156, 595, 0, 16, 2, 0, 0
192, 56424562, 5, 3263, 0, 0, 0, 276, 430, 539, 385, 1552, 8002, 6602, -126, -589, -75, 9038, 2460, 11070, 595, 0, 16, 2, 0, 0
193, 56434538, 5, 3263, 0, 0, 0, 273, 430, 542, 385, 1540, 8076, 6605, -134, -665, -121, 9356, 2364, 10916, 595, 0, 16, 2, 0, 0
194, 56444524, 5, 3263, 0, 0, 0, 271, 429, 544, 386, 1527, 8155, 6605, -123, -667, -137, 9676, 2254, 10738, 595, 0, 16, 2, 0, 0
195, 56454696, 5, 3263, 0, 0, 0, 270, 429, 545, 386, 1516, 8232, 6606, -104, -631, -108, 9918, 2278, 10422, 595, 0, 16, 2, 0, 0
196, 56464475, 5, 3263, 0, 0, 0, 269, 429, 546, 386, 1512, 8302, 6614, -88, -561, -49, 9992, 2318, 10118, 595, 0, 16, 2, 0, 0
197, 56474465, 5, 3263, 0, 0, 0, 269, 429, 546, 385, 1513, 8362, 6628, -97, -485, 7, 9870, 2522, 10040, 595, 0, 16, 2, 0, 0
198, 56484451, 5, 3263, 0, 0, 0, 269, 429, 546, 386, 1513, 8418, 6647, -141, -476, 27, 9826, 2648, 10308, 595, 0, 16, 2, 0, 0
199, 56494434, 5, 3263, 0, 0, 0, 268, 429, 546, 386, 1509, 8476, 6668, -184, -523, 24, 9870, 2756, 10860, 595, 0, 16, 2, 0, 0
200, 56504623, 5, 3263, 0, 0, 0, 267, 428, 548, 387, 1502, 8544, 6688, -205, -640, 2, 9976, 2674, 11440, 595, 0, 16, 2, 0, 0
201, 56514572, 5, 3263, 0, 0, 0, 264, 427, 551, 387, 1496, 8624, 6706, -166, -759, -35, 10170, 2458, 11642, 595, 0, 16, 2, 0, 0
202, 56524379, 5, 3263, 0, 0, 0, 261, 428, 554, 387, 1494, 8716, 6721, -91, -862, -65, 10288, 2388, 11424, 595, 0, 16, 2, 0, 0
203, 56534376, 5, 3263, 0, 0, 0, 258, 429, 557, 386, 1501, 8819, 6736, -15, -938, -86, 10306, 2122, 11244, 595, 0, 16, 2, 0, 0
204, 56544347, 5, 3263, 0, 0, 0, 255, 430, 560, 384, 1514, 8921, 6745, 96, -908, -122, 10326, 2172, 10806, 595, 0, 16, 2, 0, 0
205, 56554520, 5, 3263, 0, 0, 0, 254, 432, 561, 382, 1534, 9026, 6749, 161, -921, -165, 10460, 2286, 10130, 595, 0, 16, 2, 0, 0
206, 56564349, 5, 3263, 0, 0, 0, 252, 434, 563, 381, 1556, 9135, 6749, 178, -941, -196, 10816, 2228, 9548, 595, 0, 16, 2, 0, 0
207, 56574301, 5, 3263, 0, 0, 0, 250, 434, 565, 380, 1575, 9248, 6748, 165, -947, -202, 11200, 2142, 9138, 595, 0, 16, 2, 0, 0
208, 56584306, 5, 3263, 0, 0, 0, 248, 434, 567, 380, 1593, 9366, 6751, 123, -989, -175, 11612, 1840, 9112, 595, 0, 16, 2, 0, 0
209, 56594270, 5, 3263, 0, 0, 0, 246, 434, 569, 381, 1611, 9484, 6758, 122, -964, -138, 12018, 1698, 9112, 595, 0, 16, 2, 0, 0
210, 56604448, 5, 3263, 0, 0, 0, 244, 434, 571, 381, 1635, 9595, 6771, 127, -913, -85, 12322, 1884, 8912, 595, 0, 16, 2, 0, 0
211, 56614246, 5, 3263, 0, 0, 0, 243, 435, 572, 380, 1665, 9704, 6796, 99, -906, -15, 12620, 2010, 8584, 595, 0, 16, 2, 0, 0
212, 56624224, 5, 3263, 0, 0, 0, 242, 435, 573, 380, 1699, 9813, 6834, 23, -904, 62, 12722, 1868, 8602, 595, 0, 16, 2, 0, 0
213, 56634189, 5, 3263, 0, 0, 0, 240, 434, 575, 381, 1730, 9919, 6881, -55, -906, 107, 12760, 1748, 8818, 595, 0, 16, 2, 0, 0
214, 56644163, 5, 3263, 0, 0, 0, 238, 433, 576, 381, 1757, 10023, 6933, -102, -918, 131, 12628, 1636, 8972, 595, 0, 16, 2, 0, 0
215, 56654366, 5, 3263, 0, 0, 0, 236, 433, 578, 382, 1785, 10129, 6988, -128, -947, 146, 12450, 1840, 8840, 595, 0, 16, 2, 0, 0
216, 56664129, 5, 3263, 0, 0, 0, 234, 433, 581, 382, 1815, 10234, 7048, -141, -935, 151, 12322, 2020, 8736, 595, 0, 16, 2, 0, 0
217, 56674127, 5, 3263, 0, 0, 0, 233, 433, 582, 381, 1845, 10329, 7106, -127, -832, 148, 12232, 2106, 8746, 595, 0, 16, 2, 0, 0
218, 56684108, 5, 3263, 0, 0, 0, 233, 434, 582, 381, 1876, 10409, 7159, -84, -693, 135, 12200, 2124, 8754, 595, 0, 16, 2, 0, 0
219, 56694074, 5, 3263, 0, 0, 0, 234, 435, 581, 380, 1906, 10474, 7203, -21, -560, 109, 12282, 2016, 8548, 595, 0, 16, 2, 0, 0
220, 56704296, 5, 3263, 0, 0, 0, 235, 437, 580, 378, 1936, 10527, 7238, 34, -445, 88, 12326, 1936, 8080, 595, 0, 16, 2, 0, 0
221, 56714079, 5, 3263, 0, 0, 0, 236, 438, 579, 377, 1966, 10573, 7269, 44, -369, 87, 12324, 2012, 7588, 595, 0, 16, 2, 0, 0
222, 56724053, 5, 3263, 0, 0, 0, 236, 438, 578, 376, 1993, 10611, 7298, 14, -279, 84, 12266, 1984, 7408, 595, 0, 16, 2, 0, 0
223, 56734005, 5, 3263, 0, 0, 0, 237, 438, 578, 376, 2006, 10643, 7320, -59, -235, 49, 12188, 2076, 7772, 595, 0, 16, 2, 0, 0
224, 56744007, 5, 3263, 0, 0, 0, 237, 438, 577, 377, 2001, 10678, 7332, -148, -307, -35, 12328, 2034, 8468, 595, 0, 16, 2, 0, 0
225, 56754229, 5, 3263, 0, 0, 0, 236, 436, 579, 379, 1980, 10726, 7330, -189, -425, -121, 12636, 1994, 9132, 595, 0, 16, 2, 0, 0
226, 56763968, 5, 3263, 0, 0, 0, 233, 435, 582, 380, 1951, 10791, 7322, -197, -602, -181, 12980, 1848, 9560, 595, 0, 16, 2, 0, 0
227, 56773942, 5, 3263, 0, 0, 0, 229, 434, 585, 380, 1924, 10879, 7314, -163, -804, -211, 13286, 1678, 9460, 595, 0, 16, 2, 0, 0
228, 56783950, 5, 3263, 0, 0, 0, 225, 435, 590, 380, 1910, 10986, 7315, -108, -971, -173, 13472, 1710, 8686, 595, 0, 16, 2, 0, 0
229, 56793922, 5, 3263, 0, 0, 0, 221, 435, 594, 379, 1923, 11106, 7342, -73, -1065, -56, 13568, 1756, 7522, 595, 0, 16, 2, 0, 0
230, 56804167, 5, 3263, 0, 0, 0, 217, 436, 598, 379, 1959, 11228, 7398, -85, -1043, 74, 13362, 1808, 6568, 595, 0, 16, 2, 0, 0
231, 56813888, 5, 3263, 0, 0, 0, 216, 436, 599, 378, 2006, 11340, 7470, -131, -949, 149, 12978, 1778, 6038, 595, 0, 16, 2, 0, 0
232, 56823871, 5, 3263, 0, 0, 0, 215, 436, 599, 378, 2049, 11440, 7544, -200, -847, 159, 12764, 1878, 5964, 595, 0, 16, 2, 0, 0
233, 56833873, 5, 3263, 0, 0, 0, 215, 436, 599, 379, 2078, 11532, 7611, -279, -806, 111, 12600, 1986, 6262, 595, 0, 16, 2, 0, 0
234, 56843845, 5, 3263, 0, 0, 0, 215, 435, 600, 380, 2088, 11627, 7665, -335, -846, 30, 12600, 1956, 6664, 595, 0, 16, 2, 0, 0
235, 56854119, 5, 3263, 0, 0, 0, 213, 435, 602, 380, 2085, 11726, 7705, -342, -887, -48, 12850, 2060, 6968, 595, 0, 16, 2, 0, 0
236, 56863789, 5, 3263, 0, 0, 0, 210, 434, 604, 380, 2076, 11830, 7737, -327, -916, -91, 13298, 2226, 7282, 595, 0, 16, 2, 0, 0
237, 56873798, 5, 3263, 0, 0, 0, 208, 434, 607, 380, 2071, 11931, 7767, -263, -885, -89, 13626, 2054, 7322, 595, 0, 16, 2, 0, 0
238, 56883777, 5, 3263, 0, 0, 0, 207, 435, 608, 379, 2078, 12026, 7799, -166, -825, -58, 13686, 1950, 6974, 595, 0, 16, 2, 0, 0
239, 56893752, 5, 3263, 0, 0, 0, 207, 437, 608, 378, 2100, 12117, 7837, -92, -793, -21, 13698, 1966, 6360, 595, 0, 16, 2, 0, 0
240, 56904003, 5, 3263, 0, 0, 0, 206, 439, 609, 376, 2133, 12202, 7882, -43, -719, 8, 13676, 1910, 5806, 595, 0, 16, 2, 0, 0
241, 56913732, 5, 3263, 0, 0, 0, 206, 440, 609, 375, 2169, 12276, 7925, -16, -588, 22, 13582, 1850, 5356, 595, 0, 16, 2, 0, 0
242, 56923718, 5, 3263, 0, 0, 0, 206, 441, 608, 374, 2202, 12336, 7962, -12, -456, 20, 13434, 1768, 4982, 595, 0, 16, 2, 0, 0
243, 56933702, 5, 3263, 0, 0, 0, 207, 441, 607, 373, 2224, 12384, 7989, -29, -331, 2, 13422, 1748, 4824, 595, 0, 16, 2, 0, 0
244, 56943694, 5, 3263, 0, 0, 0, 209, 442, 606, 373, 2230, 12423, 8005, -98, -272, -32, 13634, 1774, 5050, 595, 0, 16, 2, 0, 0
245, 56953945, 5, 3263, 0, 0, 0, 209, 440, 606, 374, 2219, 12465, 8012, -178, -314, -74, 13996, 1642, 5604, 595, 0, 16, 2, 0, 0
246, 56963651, 5, 3263, 0, 0, 0, 208, 439, 607, 376, 2198, 12512, 8013, -210, -362, -97, 14334, 1658, 6158, 595, 0, 16, 2, 0, 0
247, 56973636, 5, 3263, 0, 0, 0, 206, 438, 609, 377, 2176, 12560, 8013, -199, -381, -96, 14618, 1792, 6640, 595, 0, 16, 2, 0, 0
248, 56983627, 5, 3263, 0, 0, 0, 205, 438, 610, 377, 2161, 12605, 8017, -146, -370, -79, 14770, 1844, 6898, 595, 0, 16, 2, 0, 0
249, 56993612, 5, 3263, 0, 0, 0, 205, 439, 610, 376, 2161, 12644, 8027, -57, -312, -33, 14812, 1866, 6820, 595, 0, 16, 2, 0, 0
250, 57003864, 5, 3263, 0, 0, 0, 205, 440, 610, 375, 2181, 12673, 8048, 28, -240, 32, 14550, 1842, 6234, 595, 0, 16, 2, 0, 0
251, 57013570, 5, 3263, 0, 0, 0, 206, 442, 609, 373, 2220, 12699, 8083, 69, -210, 97, 14208, 1702, 5334, 595, 0, 16, 2, 0, 0
252, 57023530, 5, 3263, 0, 0, 0, 206, 443, 609, 372, 2269, 12721, 8129, 53, -160, 138, 13914, 1684, 4536, 595, 0, 16, 2, 0, 0
253, 57033532, 5, 3263, 0, 0, 0, 206, 443, 609, 371, 2312, 12738, 8176, -12, -84, 144, 13668, 1674, 4162, 595, 0, 16, 2, 0, 0
254, 57043501, 5, 3263, 0, 0, 0, 207, 443, 608, 372, 2338, 12746, 8213, -99, 0, 121, 13658, 1740, 4402, 595, 0, 16, 2, 0, 0
255, 57053802, 5, 3263, 0, 0, 0, 208, 442, 606, 373, 2342, 12749, 8238, -201, 28, 75, 13976, 1870, 5276, 595, 0, 16, 2, 0, 0
256, 57063471, 5, 3263, 0, 0, 0, 209, 441, 606, 374, 2327, 12757, 8252, -273, -66, 23, 14330, 1714, 6420, 595, 0, 16, 2, 0, 0
257, 57073468, 5, 3263, 0, 0, 0, 207, 439, 608, 376, 2306, 12776, 8261, -242, -197, -8, 14682, 1582, 7144, 595, 0, 16, 2, 0, 0
258, 57083430, 5, 3263, 0, 0, 0, 205, 439, 610, 375, 2298, 12806, 8273, -138, -304, -14, 14824, 1666, 7206, 595, 0, 16, 2, 0, 0
259, 57093422, 5, 3263, 0, 0, 0, 203, 441, 612, 374, 2310, 12846, 8294, -31, -401, -4, 14696, 1704, 6852, 595, 0, 16, 2, 0, 0
260, 57103766, 5, 3263, 0, 0, 0, 200, 443, 614, 372, 2342, 12895, 8326, 51, -464, 13, 14450, 1800, 6212, 595, 0, 16, 2, 0, 0
261, 57113395, 5, 3263, 0, 0, 0, 200, 445, 616, 370, 2389, 12947, 8367, 96, -456, 29, 14124, 1992, 5488, 595, 0, 16, 2, 0, 0
262, 57123529, 5, 3263, 0, 0, 0, 200, 446, 617, 369, 2436, 12990, 8404, 118, -343, 15, 13744, 2044, 4834, 595, 0, 16, 2, 0, 0
263, 57133373, 5, 3263, 0, 0, 0, 200, 447, 616, 368, 2467, 13020, 8421, 120, -178, -37, 13428, 2012, 4256, 595, 0, 16, 2, 0, 0
264, 57143336, 5, 3263, 0, 0, 0, 201, 448, 614, 367, 2471, 13037, 8411, 101, -20, -106, 13320, 1962, 3912, 595, 0, 16, 2, 0, 0
265, 57153709, 5, 3263, 0, 0, 0, 203, 447, 611, 367, 2445, 13042, 8373, 43, 102, -181, 13514, 1948, 4066, 595, 0, 16, 2, 0, 0
266, 57163274, 5, 3263, 0, 0, 0, 205, 446, 610, 369, 2385, 13044, 8309, -53, 116, -270, 13986, 1772, 4836, 595, 0, 16, 2, 0, 0
267, 57173303, 5, 3263, 0, 0, 0, 205, 444, 609, 371, 2293, 13056, 8223, -145, -18, -362, 14688, 1566, 5824, 595, 0, 16, 2, 0, 0
268, 57183265, 5, 3263, 0, 0, 0, 203, 441, 612, 374, 2191, 13087, 8131, -164, -200, -397, 15410, 1406, 6560, 595, 0, 16, 2, 0, 0
269, 57193244, 5, 3263, 0, 0, 0, 200, 439, 615, 376, 2106, 13126, 8051, -77, -270, -343, 15788, 1358, 6686, 595, 0, 16, 2, 0, 0
270, 57203611, 5, 3263, 0, 0, 0, 200, 439, 617, 376, 2058, 13162, 7996, 50, -234, -224, 15686, 1284, 6188, 595, 0, 16, 2, 0, 0
271, 57213231, 5, 3263, 0, 0, 0, 200, 440, 617, 375, 2051, 13188, 7974, 144, -165, -88, 15274, 1376, 5356, 595, 0, 16, 2, 0, 0
272, 57223218, 5, 3263, 0, 0, 0, 200, 442, 616, 373, 2077, 13204, 7981, 177, -51, 24, 14654, 1524, 4582, 595, 0, 16, 2, 0, 0
273, 57233178, 5, 3263, 0, 0, 0, 200, 442, 615, 372, 2114, 13205, 8001, 155, 76, 75, 13980, 1584, 4044, 595, 0, 16, 2, 0, 0
274, 57243172, 5, 3263, 0, 0, 0, 202, 443, 613, 372, 2141, 13195, 8016, 94, 168, 64, 13492, 1572, 3924, 595, 0, 16, 2, 0, 0
275, 57253546, 5, 3263, 0, 0, 0, 204, 442, 611, 373, 2145, 13181, 8014, 18, 200, 3, 13410, 1562, 4176, 595, 0, 16, 2, 0, 0
276, 57263130, 5, 3263, 0, 0, 0, 205, 441, 610, 374, 2121, 13173, 7994, -83, 131, -80, 13910, 1512, 4894, 595, 0, 16, 2, 0, 0
277, 57273100, 5, 3263, 0, 0, 0, 204, 439, 611, 376, 2071, 13180, 7956, -162, -35, -163, 14562, 1190, 5764, 595, 0, 16, 2, 0, 0
278, 57283100, 5, 3263, 0, 0, 0, 201, 437, 614, 378, 2014, 13205, 7916, -161, -212, -182, 15152, 1222, 6296, 595, 0, 16, 2, 0, 0
279, 57293087, 5, 3263, 0, 0, 0, 200, 436, 617, 379, 1980, 13239, 7892, -92, -280, -125, 15436, 1390, 6408, 595, 0, 16, 2, 0, 0
280, 57303524, 5, 3263, 0, 0, 0, 200, 437, 619, 378, 1976, 13267, 7890, 13, -213, -39, 15286, 1386, 6206, 595, 0, 16, 2, 0, 0
281, 57313033, 5, 3263, 0, 0, 0, 200, 438, 618, 377, 2001, 13284, 7907, 92, -129, 51, 14938, 1516, 5804, 595, 0, 16, 2, 0, 0
282, 57323052, 5, 3263, 0, 0, 0, 200, 440, 617, 375, 2044, 13291, 7939, 128, -35, 105, 14678, 1532, 5356, 595, 0, 16, 2, 0, 0
283, 57333020, 5, 3263, 0, 0, 0, 200, 441, 616, 374, 2084, 13286, 7966, 138, 85, 94, 14444, 1504, 5060, 595, 0, 16, 2, 0, 0
284, 57342994, 5, 3263, 0, 0, 0, 201, 442, 614, 373, 2107, 13273, 7976, 112, 166, 50, 14606, 1532, 5084, 595, 0, 16, 2, 0, 0
285, 57353485, 5, 3263, 0, 0, 0, 203, 442, 612, 373, 2108, 13254, 7966, 89, 243, -4, 15146, 1418, 5442, 595, 0, 16, 2, 0, 0
286, 57362967, 5, 3263, 0, 0, 0, 204, 441, 611, 373, 2094, 13226, 7939, 101, 326, -26, 15672, 1330, 5916, 595, 0, 16, 2, 0, 0
287, 57372957, 5, 3263, 0, 0, 0, 206, 441, 609, 373, 2084, 13191, 7912, 153, 366, 6, 15994, 1086, 6162, 595, 0, 16, 2, 0, 0
288, 57382940, 5, 3263, 0, 0, 0, 207, 442, 608, 373, 2095, 13151, 7898, 243, 400, 82, 15950, 960, 5926, 595, 0, 16, 2, 0, 0
289, 57392901, 5, 3263, 0, 0, 0, 208, 444, 606, 371, 2136, 13105, 7906, 341, 460, 185, 15414, 972, 5292, 595, 0, 16, 2, 0, 0
290, 57403500, 5, 3263, 0, 0, 0, 210, 446, 605, 369, 2204, 13048, 7932, 421, 578, 268, 14414, 1118, 4422, 595, 0, 16, 2, 0, 0
291, 57412863, 5, 3263, 0, 0, 0, 213, 448, 602, 367, 2281, 12971, 7960, 467, 782, 300, 13296, 1428, 3556, 595, 0, 16, 2, 0, 0
292, 57422843, 5, 3263, 0, 0, 0, 217, 450, 598, 365, 2343, 12871, 7970, 459, 1013, 263, 12390, 1552, 2906, 595, 0, 16, 2, 0, 0
293, 57432831, 5, 3263, 0, 0, 0, 222, 451, 593, 364, 2369, 12754, 7948, 379, 1196, 165, 11916, 1590, 2722, 595, 0, 16, 2, 0, 0
294, 57442835, 5, 3263, 0, 0, 0, 227, 450, 588, 365, 2348, 12628, 7887, 245, 1295, 32, 12094, 1534, 3076, 595, 0, 16, 2, 0, 0
295, 57453479, 5, 3263, 0, 0, 0, 230, 448, 585, 367, 2281, 12500, 7794, 86, 1321, -100, 12720, 1692, 4000, 595, 0, 16, 2, 0, 0
296, 57462785, 5, 3263, 0, 0, 0, 233, 444, 582, 371, 2183, 12375, 7684, -42, 1291, -176, 13474, 1612, 5268, 595, 0, 16, 2, 0, 0
297, 57472758, 5, 3263, 0, 0, 0, 234, 441, 581, 374, 2079, 12249, 7574, -69, 1268, -171, 13968, 1416, 6342, 595, 0, 16, 2, 0, 0
298, 57482728, 5, 3263, 0, 0, 0, 236, 438, 579, 376, 1996, 12123, 7484, -5, 1234, -75, 13916, 1446, 6804, 595, 0, 16, 2, 0, 0
299, 57492717, 5, 3263, 0, 0, 0, 237, 438, 577, 377, 1957, 11997, 7430, 87, 1179, 79, 13372, 1554, 6672, 595, 0, 16, 2, 0, 0
300, 57502709, 5, 3263, 0, 0, 0, 238, 439, 576, 376, 1958, 11871, 7411, 174, 1166, 209, 12450, 1560, 6148, 595, 0, 16, 2, 0, 0
301, 57512697, 5, 3263, 0, 0, 0, 240, 440, 575, 374, 1976, 11740, 7405, 215, 1216, 247, 11466, 1768, 5406, 595, 0, 16, 2, 0, 0
302, 57522666, 5, 3263, 0, 0, 0, 243, 441, 572, 373, 1986, 11605, 7391, 166, 1275, 182, 10836, 2062, 5058, 595, 0, 16, 2, 0, 0
303, 57532660, 5, 3263, 0, 0, 0, 246, 441, 569, 374, 1964, 11468, 7352, 34, 1317, 37, 10708, 2162, 5378, 595, 0, 16, 2, 0, 0
304, 57542646, 5, 3263, 0, 0, 0, 249, 438, 566, 376, 1896, 11336, 7281, -139, 1267, -140, 11148, 2016, 6358, 595, 0, 16, 2, 0, 0
305, 57552623, 5, 3263, 0, 0, 0, 250, 435, 565, 380, 1792, 11217, 7187, -276, 1146, -272, 11988, 1818, 7634, 595, 0, 16, 2, 0, 0
306, 57562600, 5, 3263, 0, 0, 0, 250, 431, 565, 384, 1676, 11112, 7089, -334, 1012, -304, 12674, 1764, 8756, 595, 0, 16, 2, 0, 0
307, 57572602, 5, 3263, 0, 0, 0, 250, 428, 565, 387, 1574, 11015, 7007, -304, 919, -219, 12928, 1986, 9578, 595, 0, 16, 2, 0, 0
308, 57582549, 5, 3263, 0, 0, 0, 250, 427, 565, 388, 1508, 10914, 6956, -190, 944, -65, 12622, 2234, 9862, 595, 0, 16, 2, 0, 0
309, 57592549, 5, 3263, 0, 0, 0, 252, 428, 563, 387, 1479, 10797, 6928, -24, 1083, 53, 11916, 2302, 9574, 595, 0, 16, 2, 0, 0
310, 57602527, 5, 3263, 0, 0, 0, 256, 430, 559, 385, 1473, 10659, 6907, 112, 1264, 88, 11268, 2320, 8912, 595, 0, 16, 2, 0, 0
311, 57612519, 5, 3263, 0, 0, 0, 261, 432, 554, 383, 1466, 10512, 6876, 129, 1338, 28, 10868, 2212, 8416, 595, 0, 16, 2, 0, 0
312, 57622499, 5, 3263, 0, 0, 0, 264, 432, 551, 383, 1439, 10371, 6829, 44, 1280, -84, 10908, 2054, 8398, 595, 0, 16, 2, 0, 0
313, 57632490, 5, 3263, 0, 0, 0, 265, 430, 549, 385, 1388, 10242, 6767, -62, 1204, -179, 11200, 1898, 8802, 595, 0, 16, 2, 0, 0
314, 57642474, 5, 3263, 0, 0, 0, 266, 428, 549, 387, 1323, 10121, 6698, -142, 1144, -225, 11486, 1780, 9424, 595, 0, 16, 2, 0, 0
315, 57652436, 5, 3263, 0, 0, 0, 267, 426, 548, 389, 1254, 10005, 6630, -161, 1103, -225, 11706, 1554, 10032, 595, 0, 16, 2, 0, 0
316, 57662420, 5, 3263, 0, 0, 0, 268, 424, 547, 391, 1192, 9888, 6567, -114, 1104, -194, 11728, 1310, 10330, 595, 0, 16, 2, 0, 0
317, 57672426, 5, 3263, 0, 0, 0, 270, 424, 545, 391, 1143, 9768, 6511, -33, 1132, -144, 11584, 1252, 10150, 595, 0, 16, 2, 0, 0
318, 57682412, 5, 3263, 0, 0, 0, 272, 424, 542, 390, 1112, 9640, 6465, 54, 1247, -82, 11442, 1172, 9706, 595, 0, 16, 2, 0, 0
319, 57692395, 5, 3263, 0, 0, 0, 276, 425, 539, 389, 1093, 9489, 6425, 109, 1469, -19, 10992, 1226, 9282, 595, 0, 16, 2, 0, 0
320, 57702365, 5, 3263, 0, 0, 0, 282, 426, 533, 389, 1076, 9320, 6388, 70, 1605, 1, 10502, 1348, 9338, 595, 0, 16, 2, 0, 0
321, 57712338, 5, 3263, 0, 0, 0, 287, 425, 528, 390, 1048, 9146, 6350, -37, 1620, -21, 10292, 1432, 9946, 595, 0, 16, 2, 0, 0
322, 57722344, 5, 3263, 0, 0, 0, 290, 423, 525, 392, 1005, 8972, 6308, -154, 1595, -62, 10400, 1506, 11050, 595, 0, 16, 2, 0, 0
323, 57732488, 5, 3263, 0, 0, 0, 292, 420, 523, 394, 953, 8797, 6262, -200, 1603, -87, 10754, 1390, 12214, 595, 0, 16, 2, 0, 0
324, 57742311, 5, 3263, 0, 0, 0, 295, 419, 520, 396, 908, 8611, 6222, -117, 1718, -21, 10962, 1238, 12890, 595, 0, 16, 2, 0, 0
325, 57752284, 5, 3263, 0, 0, 0, 300, 419, 515, 395, 893, 8405, 6199, 60, 1904, 126, 10836, 1426, 12904, 595, 0, 16, 2, 0, 0
326, 57762252, 5, 3263, 0, 0, 0, 306, 422, 509, 393, 914, 8170, 6196, 265, 2183, 301, 10360, 1480, 12458, 595, 0, 16, 2, 0, 0
327, 57772262, 5, 3263, 0, 0, 0, 314, 426, 501, 389, 961, 7899, 6205, 394, 2497, 411, 9616, 1734, 12018, 595, 0, 16, 2, 0, 0
328, 57782244, 5, 3263, 0, 0, 0, 323, 428, 492, 386, 1007, 7606, 6213, 344, 2652, 405, 9044, 1924, 12254, 595, 0, 16, 2, 0, 0
329, 57792233, 5, 3263, 0, 0, 0, 330, 428, 485, 387, 1028, 7310, 6209, 158, 2642, 306, 8836, 2034, 13364, 595, 0, 16, 2, 0, 0
330, 57802215, 5, 3263, 0, 0, 0, 335, 426, 480, 389, 1023, 7019, 6193, -6, 2577, 224, 8752, 2090, 14804, 595, 0, 16, 2, 0, 0
331, 57812178, 5, 3263, 0, 0, 0, 338, 423, 477, 392, 1010, 6733, 6174, -27, 2541, 217, 8474, 2046, 15894, 595, 0, 16, 2, 0, 0
332, 57821870, 5, 3263, 0, 0, 0, 342, 423, 473, 392, 1010, 6443, 6162, 111, 2563, 287, 7770, 1858, 16332, 595, 0, 16, 2, 0, 0
333, 57831838, 5, 3263, 0, 0, 0, 347, 425, 468, 390, 1038, 6150, 6161, 337, 2561, 378, 6724, 1766, 15976, 595, 0, 16, 2, 0, 0
334, 57841820, 5, 3263, 0, 0, 0, 351, 429, 463, 386, 1096, 5859, 6165, 586, 2528, 417, 6064, 1808, 14784, 595, 0, 16, 2, 0, 0
335, 57851809, 5, 3263, 0, 0, 0, 355, 433, 459, 381, 1175, 5559, 6168, 739, 2660, 424, 5466, 2304, 13666, 595, 0, 16, 2, 0, 0
336, 57861794, 5, 3263, 0, 0, 0, 362, 437, 453, 378, 1258, 5251, 6163, 744, 2727, 377, 5016, 2434, 12976, 595, 0, 16, 2, 0, 0
337, 57871765, 5, 3263, 0, 0, 0, 368, 438, 447, 376, 1330, 4942, 6148, 657, 2780, 315, 5234, 2620, 12306, 595, 0, 16, 2, 0, 0
338, 57881750, 5, 3263, 0, 0, 0, 374, 438, 441, 376, 1386, 4623, 6127, 507, 2925, 311, 5344, 2714, 12014, 595, 0, 16, 2, 0, 0
339, 57891719, 5, 3263, 0, 0, 0, 381, 437, 434, 378, 1424, 4291, 6108, 334, 3051, 394, 5130, 2666, 11806, 595, 0, 16, 2, 0, 0
340, 57901727, 5, 3263, 0, 0, 0, 388, 435, 427, 380, 1446, 3949, 6101, 151, 3109, 525, 4252, 2416, 11996, 595, 0, 16, 2, 0, 0
341, 57911706, 5, 3263, 0, 0, 0, 394, 432, 420, 383, 1448, 3611, 6107, -65, 2951, 630, 2966, 2356, 12456, 595, 0, 16, 2, 0, 0
342, 57921679, 5, 3263, 0, 0, 0, 397, 429, 418, 386, 1424, 3308, 6127, -322, 2507, 657, 1874, 2220, 13236, 595, 0, 16, 2, 0, 0
343, 57931638, 5, 3263, 0, 0, 0, 395, 424, 420, 390, 1373, 3067, 6158, -556, 1887, 635, 1272, 2278, 14200, 595, 0, 16, 2, 0, 0
344, 57941628, 5, 3263, 0, 0, 0, 389, 420, 426, 395, 1304, 2892, 6197, -702, 1292, 581, 1012, 2228, 15268, 595, 0, 16, 2, 0, 0
345, 57951612, 5, 3263, 0, 0, 0, 382, 417, 432, 398, 1226, 2768, 6236, -739, 896, 497, 820, 2164, 16188, 595, 0, 16, 2, 0, 0
346, 57961582, 5, 3263, 0, 0, 0, 378, 415, 437, 400, 1153, 2675, 6271, -666, 646, 403, 488, 2204, 16624, 595, 0, 16, 2, 0, 0
347, 57971536, 5, 3263, 0, 0, 0, 376, 415, 439, 400, 1093, 2607, 6300, -521, 421, 304, 74, 2280, 16554, 595, 0, 16, 2, 0, 0
348, 57981536, 5, 3263, 0, 0, 0, 373, 416, 441, 399, 1048, 2565, 6320, -387, 194, 186, -220, 2400, 16160, 595, 0, 16, 2, 0, 0
349, 57991519, 5, 3263, 0, 0, 0, 370, 417, 444, 397, 1017, 2544, 6328, -265, 51, 49, -160, 2484, 15664, 595, 0, 16, 2, 0, 0
350, 58001497, 5, 3263, 0, 0, 0, 368, 419, 446, 396, 998, 2526, 6321, -155, 100, -82, 150, 2566, 15332, 595, 0, 16, 2, 0, 0
351, 58011506, 5, 3263, 0, 0, 0, 370, 420, 445, 394, 987, 2494, 6300, -72, 288, -188, 346, 2562, 15024, 595, 0, 16, 2, 0, 0
352, 58021503, 5, 3263, 0, 0, 0, 373, 421, 442, 393, 983, 2444, 6266, -5, 454, -266, 472, 2444, 14804, 595, 0, 16, 2, 0, 0
353, 58031496, 5, 3263, 0, 0, 0, 376, 422, 438, 392, 981, 2389, 6225, 13, 480, -321, 686, 2248, 14624, 595, 0, 16, 2, 0, 0
354, 58041477, 5, 3263, 0, 0, 0, 378, 423, 437, 392, 977, 2344, 6182, -2, 391, -331, 1134, 2124, 14592, 595, 0, 16, 2, 0, 0
355, 58051438, 5, 3263, 0, 0, 0, 377, 422, 438, 392, 972, 2306, 6142, -8, 374, -299, 1650, 2088, 14748, 595, 0, 16, 2, 0, 0
356, 58061430, 5, 3263, 0, 0, 0, 377, 422, 438, 393, 969, 2259, 6106, 10, 513, -250, 1808, 2076, 14780, 595, 0, 16, 2, 0, 0
357, 58071416, 5, 3263, 0, 0, 0, 380, 422, 435, 392, 969, 2191, 6074, 32, 714, -186, 1682, 2184, 14640, 595, 0, 16, 2, 0, 0
358, 58081385, 5, 3263, 0, 0, 0, 384, 423, 430, 392, 972, 2096, 6046, 49, 941, -115, 1368, 2268, 14324, 595, 0, 16, 2, 0, 0
359, 58091368, 5, 3263, 0, 0, 0, 389, 423, 426, 392, 977, 1976, 6024, 35, 1149, -34, 898, 2448, 13918, 595, 0, 16, 2, 0, 0
360, 58101349, 5, 3263, 0, 0, 0, 394, 423, 420, 392, 978, 1833, 6006, -15, 1339, 29, 358, 2492, 13572, 595, 0, 16, 2, 0, 0
361, 58111353, 5, 3263, 0, 0, 0, 400, 422, 415, 392, 972, 1664, 5990, -92, 1558, 59, -60, 2452, 13384, 595, 0, 16, 2, 0, 0
362, 58121312, 5, 3263, 0, 0, 0, 406, 421, 409, 394, 956, 1464, 5970, -191, 1850, 54, -500, 2284, 13338, 595, 0, 16, 2, 0, 0
363, 58131300, 5, 3263, 0, 0, 0, 413, 419, 401, 396, 926, 1233, 5944, -320, 2108, 32, -1080, 2324, 13364, 595, 0, 16, 2, 0, 0
364, 58141286, 5, 3263, 0, 0, 0, 421, 417, 394, 398, 880, 985, 5914, -478, 2229, 8, -1580, 2080, 13610, 595, 0, 16, 2, 0, 0
365, 58151276, 5, 3263, 0, 0, 0, 427, 414, 388, 401, 817, 730, 5882, -620, 2264, -25, -1908, 1794, 14014, 595, 0, 16, 2, 0, 0
366, 58161250, 5, 3263, 0, 0, 0, 431, 410, 383, 404, 741, 472, 5846, -723, 2298, -63, -2054, 1460, 14524, 595, 0, 16, 2, 0, 0
367, 58171233, 5, 3263, 0, 0, 0, 436, 407, 379, 407, 658, 205, 5808, -769, 2422, -93, -2260, 1140, 14980, 595, 0, 16, 2, 0, 0
368, 58181220, 5, 3263, 0, 0, 0, 442, 405, 373, 409, 575, -78, 5770, -745, 2560, -84, -2650, 1104, 15168, 595, 0, 16, 2, 0, 0
369, 58191194, 5, 3263, 0, 0, 0, 449, 404, 366, 410, 501, -374, 5737, -674, 2676, -36, -3014, 1194, 15058, 595, 0, 16, 2, 0, 0
370, 58201196, 5, 3263, 0, 0, 0, 455, 404, 360, 410, 437, -688, 5711, -580, 2862, 26, -3534, 988, 14870, 595, 0, 16, 2, 0, 0
371, 58211170, 5, 3263, 0, 0, 0, 463, 405, 352, 410, 382, -1026, 5692, -493, 3035, 92, -4286, 824, 14676, 595, 0, 16, 2, 0, 0
372, 58221135, 5, 3263, 0, 0, 0, 471, 405, 344, 409, 331, -1370, 5681, -463, 3045, 145, -4976, 818, 14582, 595, 0, 16, 2, 0, 0
373, 58231137, 5, 3263, 0, 0, 0, 476, 405, 338, 410, 280, -1708, 5677, -455, 2950, 183, -5618, 750, 14572, 595, 0, 16, 2, 0, 0
374, 58241140, 5, 3263, 0, 0, 0, 480, 404, 335, 410, 229, -2033, 5679, -446, 2825, 199, -6228, 730, 14442, 595, 0, 16, 2, 0, 0
375, 58251135, 5, 3263, 0, 0, 0, 483, 404, 331, 411, 178, -2347, 5682, -431, 2732, 185, -6818, 540, 14318, 595, 0, 16, 2, 0, 0
376, 58261105, 5, 3263, 0, 0, 0, 487, 403, 328, 411, 131, -2654, 5682, -404, 2667, 137, -7306, 548, 14146, 595, 0, 16, 2, 0, 0
377, 58271085, 5, 3263, 0, 0, 0, 490, 403, 324, 412, 89, -2954, 5677, -371, 2607, 73, -7612, 476, 14066, 595, 0, 16, 2, 0, 0
378, 58281058, 5, 3263, 0, 0, 0, 494, 403, 321, 412, 56, -3248, 5665, -316, 2579, 6, -7852, 330, 13900, 595, 0, 16, 2, 0, 0
379, 58291033, 5, 3263, 0, 0, 0, 498, 403, 316, 412, 31, -3536, 5648, -260, 2510, -39, -8054, 292, 13696, 595, 0, 16, 2, 0, 0
380, 58301018, 5, 3263, 0, 0, 0, 502, 403, 313, 411, 13, -3806, 5629, -222, 2331, -51, -8272, 284, 13566, 595, 0, 16, 2, 0, 0
381, 58311007, 5, 3263, 0, 0, 0, 503, 404, 312, 411, -4, -4049, 5613, -193, 2070, -38, -8520, 252, 13476, 595, 0, 16, 2, 0, 0
382, 58321003, 5, 3263, 0, 0, 0, 503, 404, 312, 411, -19, -4260, 5602, -165, 1795, -13, -8762, 198, 13428, 595, 0, 16, 2, 0, 0
383, 58331275, 5, 3263, 0, 0, 0, 502, 404, 313, 411, -32, -4445, 5595, -119, 1578, 9, -9032, 150, 13352, 595, 0, 16, 2, 0, 0
384, 58341410, 5, 3263, 0, 0, 0, 501, 405, 313, 410, -41, -4610, 5592, -73, 1401, 22, -9364, 134, 13184, 595, 0, 16, 2, 0, 0
385, 58351229, 5, 3263, 0, 0, 0, 501, 405, 313, 409, -47, -4755, 5590, -46, 1198, 29, -9702, 142, 12980, 595, 0, 16, 2, 0, 0
386, 58361226, 5, 3263, 0, 0, 0, 500, 406, 314, 409, -53, -4870, 5591, -30, 909, 38, -9868, 354, 12746, 595, 0, 16, 2, 0, 0
387, 58371230, 5, 3263, 0, 0, 0, 498, 406, 317, 409, -56, -4952, 5594, -2, 604, 44, -9904, 450, 12526, 595, 0, 16, 2, 0, 0
388, 58381190, 5, 3263, 0, 0, 0, 494, 406, 321, 409, -53, -5008, 5596, 57, 414, 26, -9846, 438, 12278, 595, 0, 16, 2, 0, 0
389, 58391168, 5, 3263, 0, 0, 0, 492, 407, 323, 408, -40, -5054, 5595, 129, 348, 1, -9764, 432, 12022, 595, 0, 16, 2, 0, 0
390, 58401157, 5, 3263, 0, 0, 0, 492, 409, 323, 406, -20, -5099, 5592, 182, 357, -12, -9698, 422, 11782, 595, 0, 16, 2, 0, 0
391, 58411138, 5, 3263, 0, 0, 0, 493, 410, 322, 405, 4, -5149, 5588, 200, 399, -13, -9662, 384, 11620, 595, 0, 16, 2, 0, 0
392, 58421132, 5, 3263, 0, 0, 0, 494, 410, 321, 404, 28, -5203, 5585, 200, 451, -6, -9578, 344, 11576, 595, 0, 16, 2, 0, 0
393, 58431113, 5, 3263, 0, 0, 0, 496, 411, 319, 404, 50, -5263, 5584, 197, 504, 8, -9544, 190, 11638, 595, 0, 16, 2, 0, 0
394, 58441112, 5, 3263, 0, 0, 0, 497, 411, 317, 404, 70, -5333, 5584, 200, 613, 23, -9708, 160, 11588, 595, 0, 16, 2, 0, 0
395, 58451096, 5, 3263, 0, 0, 0, 500, 411, 314, 403, 90, -5416, 5585, 195, 719, 37, -10022, 254, 11452, 595, 0, 16, 2, 0, 0
396, 58461084, 5, 3263, 0, 0, 0, 503, 412, 312, 403, 109, -5508, 5586, 186, 789, 43, -10278, 428, 11228, 595, 0, 16, 2, 0, 0
397, 58471059, 5, 3263, 0, 0, 0, 506, 412, 309, 403, 129, -5608, 5586, 183, 842, 40, -10588, 630, 10938, 595, 0, 16, 2, 0, 0
398, 58481028, 5, 3263, 0, 0, 0, 508, 412, 307, 403, 150, -5716, 5583, 167, 907, 24, -10902, 732, 10722, 595, 0, 16, 2, 0, 0
399, 58491010, 5, 3263, 0, 0, 0, 511, 412, 304, 403, 171, -5832, 5575, 129, 975, -11, -11078, 780, 10724, 595, 0, 16, 2, 0, 0
400, 58501005, 5, 3263, 0, 0, 0, 514, 412, 301, 403, 192, -5953, 5561, 92, 1033, -42, -11128, 822, 10928, 595, 0, 16, 2, 0, 0
401, 58510976, 5, 3263, 0, 0, 0, 517, 412, 298, 403, 210, -6077, 5544, 57, 1044, -54, -11250, 778, 11128, 595, 0, 16, 2, 0, 0
402, 58520951, 5, 3263, 0, 0, 0, 519, 411, 296, 403, 225, -6194, 5527, 22, 982, -53, -11332, 650, 11256, 595, 0, 16, 2, 0, 0
403, 58530940, 5, 3263, 0, 0, 0, 520, 411, 295, 404, 236, -6304, 5510, 8, 929, -57, -11384, 546, 11144, 595, 0, 16, 2, 0, 0
404, 58540914, 5, 3263, 0, 0, 0, 520, 411, 294, 404, 247, -6409, 5494, 0, 880, -58, -11388, 602, 10948, 595, 0, 16, 2, 0, 0
405, 58550902, 5, 3263, 0, 0, 0, 521, 411, 293, 404, 254, -6506, 5479, -22, 807, -43, -11486, 660, 10768, 595, 0, 16, 2, 0, 0
406, 58560880, 5, 3263, 0, 0, 0, 522, 411, 293, 404, 256, -6594, 5468, -60, 715, -22, -11630, 608, 10738, 595, 0, 16, 2, 0, 0
407, 58570871, 5, 3263, 0, 0, 0, 522, 410, 293, 404, 251, -6674, 5461, -81, 656, -3, -11800, 514, 10708, 595, 0, 16, 2, 0, 0
408, 58580840, 5, 3263, 0, 0, 0, 522, 410, 293, 405, 244, -6749, 5456, -86, 609, 7, -11888, 582, 10610, 595, 0, 16, 2, 0, 0
409, 58590841, 5, 3263, 0, 0, 0, 522, 410, 292, 405, 237, -6820, 5452, -87, 571, 8, -11976, 608, 10504, 595, 0, 16, 2, 0, 0
410, 58600805, 5, 3263, 0, 0, 0, 523, 409, 292, 405, 232, -6888, 5446, -74, 552, -9, -12044, 708, 10222, 595, 0, 16, 2, 0, 0
411, 58610784, 5, 3263, 0, 0, 0, 524, 410, 291, 405, 231, -6953, 5437, -78, 516, -33, -12038, 786, 9960, 595, 0, 16, 2, 0, 0
412, 58620785, 5, 3263, 0, 0, 0, 524, 410, 291, 405, 231, -7016, 5422, -93, 503, -68, -11924, 718, 9760, 595, 0, 16, 2, 0, 0
413, 58630746, 5, 3263, 0, 0, 0, 525, 409, 290, 405, 233, -7078, 5403, -113, 492, -86, -11808, 752, 9656, 595, 0, 16, 2, 0, 0
414, 58640715, 5, 3263, 0, 0, 0, 526, 409, 289, 406, 231, -7136, 5385, -145, 456, -77, -11778, 668, 9788, 595, 0, 16, 2, 0, 0
415, 58650732, 5, 3263, 0, 0, 0, 526, 408, 289, 406, 222, -7188, 5372, -169, 419, -51, -11898, 600, 9922, 595, 0, 16, 2, 0, 0
416, 58660698, 5, 3263, 0, 0, 0, 526, 408, 288, 407, 210, -7242, 5362, -166, 449, -35, -12124, 522, 9988, 595, 0, 16, 2, 0, 0
417, 58670677, 5, 3263, 0, 0, 0, 528, 408, 287, 407, 202, -7306, 5351, -131, 551, -38, -12366, 722, 9806, 595, 0, 16, 2, 0, 0
418, 58680632, 5, 3263, 0, 0, 0, 530, 408, 285, 407, 202, -7382, 5336, -95, 659, -56, -12612, 796, 9562, 595, 0, 16, 2, 0, 0
419, 58690620, 5, 3263, 0, 0, 0, 533, 409, 282, 406, 209, -7474, 5315, -72, 803, -84, -12810, 772, 9434, 595, 0, 16, 2, 0, 0
420, 58700613, 5, 3263, 0, 0, 0, 537, 409, 278, 405, 223, -7584, 5287, -62, 965, -112, -12952, 730, 9424, 595, 0, 16, 2, 0, 0
421, 58710615, 5, 3263, 0, 0, 0, 541, 410, 274, 405, 244, -7710, 5252, -44, 1112, -142, -12974, 728, 9470, 595, 0, 16, 2, 0, 0
422, 58720592, 5, 3263, 0, 0, 0, 545, 410, 270, 404, 273, -7849, 5211, -11, 1240, -167, -12848, 634, 9482, 595, 0, 16, 2, 0, 0
423, 58730581, 5, 3263, 0, 0, 0, 549, 411, 265, 403, 311, -8002, 5165, 46, 1389, -177, -12752, 594, 9356, 595, 0, 16, 2, 0, 0
424, 58740541, 5, 3263, 0, 0, 0, 554, 413, 261, 402, 358, -8169, 5116, 100, 1498, -165, -12776, 672, 9126, 595, 0, 16, 2, 0, 0
425, 58750562, 5, 3263, 0, 0, 0, 558, 414, 256, 400, 408, -8339, 5070, 126, 1516, -131, -12964, 714, 8898, 595, 0, 16, 2, 0, 0
426, 58760546, 5, 3263, 0, 0, 0, 561, 415, 253, 399, 454, -8506, 5030, 126, 1455, -86, -13236, 692, 8760, 595, 0, 16, 2, 0, 0
427, 58770504, 5, 3263, 0, 0, 0, 563, 416, 252, 399, 493, -8663, 4998, 120, 1361, -41, -13596, 744, 8644, 595, 0, 16, 2, 0, 0
428, 58780483, 5, 3263, 0, 0, 0, 564, 417, 251, 398, 526, -8809, 4974, 127, 1246, -6, -14028, 1030, 8332, 595, 0, 16, 2, 0, 0
429, 58790476, 5, 3263, 0, 0, 0, 564, 417, 250, 398, 561, -8944, 4951, 144, 1138, 7, -14502, 1244, 7872, 595, 0, 16, 2, 0, 0
430, 58800459, 5, 3263, 0, 0, 0, 565, 418, 250, 396, 601, -9073, 4924, 151, 1089, -21, -14924, 1282, 7364, 595, 0, 16, 2, 0, 0
431, 58810447, 5, 3263, 0, 0, 0, 566, 419, 248, 396, 648, -9203, 4887, 108, 1086, -73, -15202, 1074, 7042, 595, 0, 16, 2, 0, 0
432, 58820431, 5, 3263, 0, 0, 0, 568, 419, 247, 396, 696, -9335, 4837, 25, 1116, -132, -15214, 862, 7058, 595, 0, 16, 2, 0, 0
433, 58830407, 5, 3263, 0, 0, 0, 571, 418, 244, 396, 745, -9467, 4776, -34, 1138, -173, -14814, 858, 7234, 595, 0, 16, 2, 0, 0
434, 58840384, 5, 3263, 0, 0, 0, 573, 418, 242, 397, 801, -9603, 4707, -20, 1218, -186, -14352, 824, 7408, 595, 0, 16, 2, 0, 0
435, 58850363, 5, 3263, 0, 0, 0, 577, 419, 238, 395, 866, -9748, 4634, 36, 1323, -177, -14074, 766, 7408, 595, 0, 16, 2, 0, 0
436, 58860370, 5, 3263, 0, 0, 0, 580, 421, 234, 393, 936, -9898, 4562, 91, 1364, -149, -14050, 644, 7416, 595, 0, 16, 2, 0, 0
437, 58870336, 5, 3263, 0, 0, 0, 583, 423, 231, 392, 1005, -10045, 4498, 134, 1322, -98, -14216, 606, 7272, 595, 0, 16, 2, 0, 0
438, 58880330, 5, 3263, 0, 0, 0, 585, 425, 230, 390, 1064, -10183, 4449, 155, 1211, -36, -14604, 646, 6982, 595, 0, 16, 2, 0, 0
439, 58890303, 5, 3263, 0, 0, 0, 585, 426, 229, 389, 1111, -10304, 4414, 147, 1028, 12, -15076, 816, 6510, 595, 0, 16, 2, 0, 0
440, 58900276, 5, 3263, 0, 0, 0, 584, 427, 230, 388, 1142, -10403, 4393, 91, 783, 40, -15410, 898, 6090, 595, 0, 16, 2, 0, 0
441, 58910266, 5, 3263, 0, 0, 0, 582, 426, 233, 388, 1159, -10481, 4379, 23, 612, 39, -15640, 888, 5916, 595, 0, 16, 2, 0, 0
442, 58920264, 5, 3263, 0, 0, 0, 581, 426, 234, 389, 1172, -10549, 4362, -21, 535, 11, -15674, 930, 5922, 595, 0, 16, 2, 0, 0
443, 58930249, 5, 3263, 0, 0, 0, 581, 425, 234, 390, 1192, -10613, 4337, -27, 526, -28, -15430, 890, 5992, 595, 0, 16, 2, 0, 0
444, 58940215, 5, 3263, 0, 0, 0, 581, 425, 233, 389, 1220, -10677, 4303, -5, 555, -53, -15142, 750, 5728, 595, 0, 16, 2, 0, 0
445, 58950228, 5, 3263, 0, 0, 0, 583, 426, 232, 389, 1257, -10751, 4263, 14, 661, -58, -14850, 730, 5078, 595, 0, 16, 2, 0, 0
446, 58960043, 5, 3263, 0, 0, 0, 586, 427, 229, 388, 1301, -10847, 4215, -3, 869, -43, -14916, 836, 4396, 595, 0, 16, 2, 0, 0
447, 58970023, 5, 3263, 0, 0, 0, 590, 427, 224, 387, 1346, -10966, 4160, -74, 1048, -24, -15244, 864, 4224, 595, 0, 16, 2, 0, 0
448, 58979993, 5, 3263, 0, 0, 0, 595, 427, 220, 388, 1382, -11097, 4104, -165, 1112, 6, -15768, 998, 4400, 595, 0, 16, 2, 0, 0
449, 58989991, 5, 3263, 0, 0, 0, 598, 426, 217, 389, 1406, -11226, 4052, -233, 1091, 29, -16508, 1070, 4790, 595, 0, 16, 2, 0, 0
450, 58999980, 5, 3263, 0, 0, 0, 600, 425, 215, 389, 1429, -11351, 3998, -252, 1070, 6, -17204, 992, 5162, 595, 0, 16, 2, 0, 0
451, 59009953, 5, 3263, 0, 0, 0, 601, 426, 213, 389, 1474, -11474, 3922, -217, 1085, -69, -17484, 1022, 5248, 595, 0, 16, 2, 0, 0
452, 59019941, 5, 3263, 0, 0, 0, 604, 427, 211, 388, 1561, -11599, 3809, -149, 1132, -171, -17308, 1064, 5014, 595, 0, 16, 2, 0, 0
453, 59029914, 5, 3263, 0, 0, 0, 606, 429, 209, 386, 1699, -11725, 3651, -81, 1172, -273, -16646, 1072, 4646, 595, 0, 16, 2, 0, 0
454, 59039884, 5, 3263, 0, 0, 0, 609, 432, 206, 382, 1877, -11850, 3458, -37, 1177, -327, -15754, 904, 4298, 595, 0, 16, 2, 0, 0
455, 59049882, 5, 3263, 0, 0, 0, 611, 436, 204, 379, 2066, -11972, 3256, -15, 1156, -308, -15068, 670, 4198, 595, 0, 16, 2, 0, 0
456, 59059850, 5, 3263, 0, 0, 0, 613, 439, 202, 375, 2238, -12087, 3074, -3, 1092, -223, -14792, 588, 4168, 595, 0, 16, 2, 0, 0
457, 59069854, 5, 3263, 0, 0, 0, 613, 442, 201, 373, 2372, -12191, 2934, 5, 944, -103, -15020, 804, 4018, 595, 0, 16, 2, 0, 0
458, 59079819, 5, 3263, 0, 0, 0, 613, 444, 202, 370, 2451, -12276, 2851, -1, 718, 15, -15612, 998, 3838, 595, 0, 16, 2, 0, 0
459, 59089790, 5, 3263, 0, 0, 0, 610, 445, 204, 369, 2486, -12342, 2815, 0, 535, 78, -16294, 1152, 3640, 595, 0, 16, 2, 0, 0
460, 59099788, 5, 3263, 0, 0, 0, 609, 446, 206, 369, 2510, -12397, 2790, 6, 438, 70, -16716, 1292, 3184, 595, 0, 16, 2, 0, 0
461, 59109759, 5, 3263, 0, 0, 0, 608, 446, 207, 368, 2553, -12448, 2747, 1, 413, 16, -16736, 1402, 2754, 595, 0, 16, 2, 0, 0
462, 59119737, 5, 3263, 0, 0, 0, 608, 447, 207, 368, 2625, -12501, 2671, -20, 450, -43, -16452, 1400, 2422, 595, 0, 16, 2, 0, 0
463, 59129743, 5, 3263, 0, 0, 0, 610, 448, 205, 367, 2722, -12560, 2566, -50, 521, -78, -16082, 1340, 2370, 595, 0, 16, 2, 0, 0
464, 59139710, 5, 3263, 0, 0, 0, 612, 449, 203, 366, 2830, -12626, 2448, -61, 604, -65, -15798, 1164, 2602, 595, 0, 16, 2, 0, 0
465, 59149699, 5, 3263, 0, 0, 0, 614, 450, 201, 364, 2932, -12699, 2337, -54, 669, -17, -16000, 1044, 2988, 595, 0, 16, 2, 0, 0
466, 59159688, 5, 3263, 0, 0, 0, 616, 452, 200, 363, 3008, -12769, 2253, -47, 608, 37, -16444, 964, 3392, 595, 0, 16, 2, 0, 0
467, 59169647, 5, 3263, 0, 0, 0, 617, 454, 200, 361, 3059, -12832, 2198, 0, 545, 65, -16872, 1012, 3418, 595, 0, 16, 2, 0, 0
468, 59179656, 5, 3263, 0, 0, 0, 616, 455, 200, 360, 3121, -12891, 2140, 55, 516, 47, -17182, 1232, 2900, 595, 0, 16, 2, 0, 0
469, 59189461, 5, 3263, 0, 0, 0, 617, 457, 200, 358, 3207, -12944, 2059, 67, 458, -1, -17124, 1298, 2344, 595, 0, 16, 2, 0, 0
470, 59199441, 5, 3263, 0, 0, 0, 617, 458, 200, 356, 3316, -12994, 1954, 50, 432, -46, -16840, 1266, 2000, 595, 0, 16, 2, 0, 0
471, 59209422, 5, 3263, 0, 0, 0, 617, 460, 200, 355, 3439, -13041, 1832, 21, 422, -71, -16516, 1200, 1978, 595, 0, 16, 2, 0, 0
472, 59219408, 5, 3263, 0, 0, 0, 618, 461, 200, 354, 3566, -13087, 1703, 1, 416, -76, -16196, 1108, 2196, 595, 0, 16, 2, 0, 0
473, 59229388, 5, 3263, 0, 0, 0, 618, 463, 200, 352, 3678, -13128, 1588, -1, 379, -49, -16046, 1058, 2398, 595, 0, 16, 2, 0, 0
474, 59239357, 5, 3263, 0, 0, 0, 618, 464, 200, 350, 3760, -13167, 1506, 25, 351, 3, -16238, 1004, 2396, 595, 0, 16, 2, 0, 0
475, 59249351, 5, 3263, 0, 0, 0, 618, 466, 200, 348, 3829, -13210, 1442, 59, 379, 47, -16750, 1056, 2006, 595, 0, 16, 2, 0, 0
476, 59259477, 5, 3263, 0, 0, 0, 620, 468, 200, 347, 3903, -13258, 1373, 48, 404, 54, -17162, 1214, 1526, 595, 0, 16, 2, 0, 0
477, 59269468, 5, 3263, 0, 0, 0, 621, 469, 200, 346, 4007, -13310, 1270, 5, 448, 21, -17394, 1242, 1374, 595, 0, 16, 2, 0, 0
478, 59279442, 5, 3263, 0, 0, 0, 622, 470, 200, 345, 4150, -13365, 1121, -38, 500, -31, -17412, 1180, 1650, 595, 0, 16, 2, 0, 0
479, 59289424, 5, 3263, 0, 0, 0, 624, 471, 200, 343, 4334, -13419, 930, -45, 534, -81, -17146, 1120, 2030, 595, 0, 16, 2, 0, 0
480, 59299413, 5, 3263, 0, 0, 0, 625, 474, 200, 341, 4558, -13472, 700, -8, 566, -116, -16764, 1102, 2138, 595, 0, 16, 2, 0, 0
481, 59309390, 5, 3263, 0, 0, 0, 627, 478, 200, 337, 4804, -13521, 453, 31, 543, -123, -16364, 1084, 1872, 595, 0, 16, 2, 0, 0
482, 59319372, 5, 3263, 0, 0, 0, 627, 483, 200, 332, 5044, -13568, 215, 44, 500, -99, -16140, 980, 1558, 595, 0, 16, 2, 0, 0
483, 59329341, 5, 3263, 0, 0, 0, 627, 487, 200, 328, 5249, -13611, 11, 25, 431, -51, -16152, 1006, 1410, 595, 0, 16, 2, 0, 0
