index_log, time_stamp, mode, thrust, roll, pitch, yaw, ae[0], ae[1], ae[2], ae[3], phi, theta, psi, sp, sq, sr, sax, say, saz, bat_volt, P, P1, P2, temperature, pressure
0, 14257505, 5, 2687, 0, 0, 0, 335, 335, 335, 335, 0, 0, 4483, -44, -33, 34, -1602, 542, 15054, 595, 0, 0, 0, 0, 0
1, 14267480, 5, 2687, 0, 0, 0, 335, 335, 335, 335, 0, 0, 4486, -44, -32, 34, -1614, 524, 15096, 595, 0, 0, 0, 0, 0
2, 14277461, 5, 2687, 0, 0, 0, 335, 335, 335, 335, 0, 0, 4489, -44, -34, 34, -1578, 522, 15030, 595, 0, 0, 0, 0, 0
3, 14287461, 5, 2687, 0, 0, 0, 335, 335, 335, 335, 0, 0, 4493, -44, -32, 34, -1588, 500, 15062, 595, 0, 0, 0, 0, 0
4, 14297426, 5, 2687, 0, 0, 0, 335, 335, 335, 335, 0, 0, 4496, -44, -33, 34, -1576, 522, 15018, 595, 0, 0, 0, 0, 0
5, 14307405, 5, 2687, 0, 0, 0, 335, 335, 335, 335, 0, 0, 4499, -44, -32, 34, -1572, 514, 15048, 595, 0, 0, 0, 0, 0
6, 14317401, 5, 2687, 0, 0, 0, 335, 335, 335, 335, 0, 0, 4502, -44, -32, 33, -1576, 528, 15046, 595, 0, 0, 0, 0, 0
7, 14327369, 5, 2687, 0, 0, 0, 335, 335, 335, 335, 0, 0, 4506, -44, -33, 34, -1578, 542, 15066, 595, 0, 0, 0, 0, 0
8, 14337340, 5, 2687, 0, 0, 0, 335, 335, 335, 335, 0, 0, 4509, -44, -33, 33, -1578, 522, 15066, 595, 0, 0, 0, 0, 0
9, 14347343, 5, 2687, 0, 0, 0, 335, 335, 335, 335, 0, 0, 4512, -44, -33, 34, -1584, 504, 15070, 595, 0, 0, 0, 0, 0
10, 14357315, 5, 2687, 0, 0, 0, 335, 335, 335, 335, 0, 0, 4515, -44, -32, 34, -1596, 522, 15088, 595, 0, 0, 0, 0, 0
11, 14367293, 5, 2687, 0, 0, 0, 335, 335, 335, 335, 0, 0, 4519, -44, -33, 34, -1608, 520, 15082, 595, 0, 0, 0, 0, 0
12, 14377257, 5, 2687, 0, 0, 0, 335, 335, 335, 335, 0, 0, 4522, -44, -32, 34, -1602, 508, 15072, 595, 0, 0, 0, 0, 0
13, 14387237, 5, 2687, 0, 0, 0, 335, 335, 335, 335, 0, 0, 4525, -44, -32, 35, -1602, 510, 15062, 595, 0, 0, 0, 0, 0
14, 14397227, 5, 2687, 0, 0, 0, 335, 335, 335, 335, 0, 0, 4529, -44, -32, 34, -1584, 516, 15048, 595, 0, 0, 0, 0, 0
15, 14407198, 5, 2687, 0, 0, 0, 335, 335, 335, 335, 0, 0, 4532, -44, -32, 34, -1592, 532, 15068, 595, 0, 0, 0, 0, 0
16, 14417185, 5, 2687, 0, 0, 0, 335, 335, 335, 335, 0, 0, 4535, -44, -32, 34, -1588, 526, 15018, 595, 0, 0, 0, 0, 0
17, 14427151, 5, 2687, 0, 0, 0, 335, 335, 335, 335, 0, 0, 4538, -44, -32, 34, -1594, 546, 15036, 595, 0, 0, 0, 0, 0
18, 14437148, 5, 2687, 0, 0, 0, 335, 335, 335, 335, 0, 0, 4542, -44, -32, 33, -1582, 530, 15046, 595, 0, 0, 0, 0, 0
19, 14447123, 5, 2687, 0, 0, 0, 335, 335, 335, 335, 0, 0, 4545, -44, -32, 33, -1584, 528, 15034, 595, 0, 0, 0, 0, 0
20, 14457103, 5, 2687, 0, 0, 0, 335, 335, 335, 335, 0, 0, 4548, -44, -32, 34, -1580, 506, 15026, 595, 0, 0, 0, 0, 0
21, 14467083, 5, 2687, 0, 0, 0, 335, 335, 335, 335, 0, 0, 4551, -43, -33, 34, -1586, 504, 15010, 595, 0, 0, 0, 0, 0
22, 14477052, 5, 2687, 0, 0, 0, 335, 335, 335, 335, 0, 0, 4555, -43, -33, 34, -1590, 504, 15018, 595, 0, 0, 0, 0, 0
23, 14487041, 5, 2687, 0, 0, 0, 335, 335, 335, 335, 0, 0, 4558, -43, -33, 34, -1582, 504, 15048, 595, 0, 0, 0, 0, 0
24, 14497174, 5, 2687, 0, 0, 0, 335, 335, 335, 335, 0, 0, 4561, -44, -33, 34, -1582, 514, 15052, 595, 0, 0, 0, 0, 0
25, 14507007, 5, 2687, 0, 0, 0, 335, 335, 335, 335, 0, 0, 4564, -44, -33, 34, -1592, 504, 15042, 595, 0, 0, 0, 0, 0
26, 14516983, 5, 2687, 0, 0, 0, 335, 335, 335, 335, 0, 0, 4568, -44, -33, 34, -1586, 502, 15058, 595, 0, 0, 0, 0, 0
27, 14526956, 5, 2687, 0, 0, 0, 335, 335, 335, 335, 0, 0, 4571, -44, -32, 34, -1582, 488, 15080, 595, 0, 0, 0, 0, 0
28, 14536946, 5, 2687, 0, 0, 0, 335, 335, 335, 335, 0, 0, 4574, -44, -33, 34, -1576, 504, 15072, 595, 0, 0, 0, 0, 0
29, 14546937, 5, 2687, 0, 0, 0, 335, 335, 335, 335, 0, 0, 4578, -44, -33, 34, -1582, 500, 15078, 595, 0, 0, 0, 0, 0
30, 14556902, 5, 2687, 0, 0, 0, 335, 335, 335, 335, 0, 0, 4581, -44, -33, 34, -1572, 522, 15030, 595, 0, 0, 0, 0, 0
31, 14566885, 5, 2687, 0, 0, 0, 335, 335, 335, 335, 0, 0, 4584, -44, -33, 34, -1594, 534, 15034, 595, 0, 0, 0, 0, 0
32, 14576870, 5, 2687, 0, 0, 0, 335, 335, 335, 335, 0, 0, 4587, -44, -33, 34, -1576, 522, 15062, 595, 0, 0, 0, 0, 0
33, 14586847, 5, 2687, 0, 0, 0, 335, 335, 335, 335, 0, 0, 4591, -44, -33, 34, -1594, 522, 15082, 595, 0, 0, 0, 0, 0
34, 14596820, 5, 2687, 0, 0, 0, 335, 335, 335, 335, 0, 0, 4594, -44, -33, 34, -1584, 506, 15088, 595, 0, 0, 0, 0, 0
35, 14606828, 5, 2687, 0, 0, 0, 335, 335, 335, 335, 0, 0, 4597, -44, -33, 34, -1594, 498, 15098, 602, 0, 0, 0, 0, 0
36, 14616789, 5, 2687, 0, 0, 0, 335, 335, 335, 335, 0, 0, 4601, -45, -33, 34, -1572, 490, 15100, 602, 0, 0, 0, 0, 0
37, 14626763, 5, 2687, 0, 0, 0, 335, 335, 335, 335, 0, 0, 4604, -44, -33, 34, -1576, 508, 15084, 602, 0, 0, 0, 0, 0
38, 14636746, 5, 2687, 0, 0, 0, 335, 335, 335, 335, 0, 0, 4607, -44, -34, 34, -1566, 540, 15108, 602, 0, 0, 0, 0, 0
39, 14646731, 5, 2687, 0, 0, 0, 335, 335, 335, 335, 0, 0, 4610, -44, -34, 34, -1574, 536, 15082, 602, 0, 0, 0, 0, 0
40, 14656710, 5, 2687, 0, 0, 0, 335, 335, 335, 335, 0, 0, 4614, -44, -34, 34, -1566, 530, 15076, 595, 0, 0, 0, 0, 0
41, 14666699, 5, 2687, 0, 0, 0, 335, 335, 335, 335, 0, 0, 4617, -44, -34, 34, -1552, 506, 15056, 595, 0, 0, 0, 0, 0
42, 14676670, 5, 2687, 0, 0, 0, 335, 335, 335, 335, 0, 0, 4620, -45, -33, 34, -1554, 518, 15064, 595, 0, 0, 0, 0, 0
43, 14686646, 5, 2687, 0, 0, 0, 335, 335, 335, 335, 0, 0, 4623, -44, -32, 34, -1558, 536, 15092, 595, 0, 0, 0, 0, 0
44, 14696636, 5, 2687, 0, 0, 0, 335, 335, 335, 335, 0, 0, 4627, -44, -33, 34, -1584, 548, 15062, 595, 0, 0, 0, 0, 0
45, 14706610, 5, 2687, 0, 0, 0, 335, 335, 335, 335, 0, 0, 4630, -44, -33, 34, -1626, 546, 15064, 602, 0, 0, 0, 0, 0
46, 14716585, 5, 2687, 0, 0, 0, 335, 335, 335, 335, 0, 0, 4633, -44, -33, 34, -1630, 540, 15050, 602, 0, 0, 0, 0, 0
47, 14726566, 5, 2687, 0, 0, 0, 335, 335, 335, 335, 0, 0, 4636, -44, -33, 33, -1602, 518, 15050, 602, 0, 0, 0, 0, 0
48, 14736554, 5, 2687, 0, 0, 0, 335, 335, 335, 335, 0, 0, 4640, -44, -33, 33, -1602, 518, 15056, 602, 0, 0, 0, 0, 0
49, 14746543, 5, 2687, 0, 0, 0, 335, 335, 335, 335, 0, 0, 4643, -44, -33, 34, -1592, 514, 15090, 602, 0, 0, 0, 0, 0
50, 14756517, 5, 2687, 0, 0, 0, 335, 335, 335, 335, 0, 0, 4646, -44, -33, 34, -1576, 490, 15068, 595, 0, 0, 0, 0, 0
51, 14766490, 5, 2687, 0, 0, 0, 335, 335, 335, 335, 0, 0, 4649, -44, -34, 34, -1578, 488, 15088, 595, 0, 0, 0, 0, 0
52, 14776483, 5, 2687, 0, 0, 0, 335, 335, 335, 335, 0, 0, 4653, -44, -33, 34, -1560, 490, 15090, 595, 0, 0, 0, 0, 0
53, 14786446, 5, 2687, 0, 0, 0, 335, 335, 335, 335, 0, 0, 4656, -44, -33, 34, -1570, 502, 15086, 595, 0, 0, 0, 0, 0
54, 14796423, 5, 2687, 0, 0, 0, 335, 335, 335, 335, 0, 0, 4659, -44, -33, 34, -1586, 514, 15062, 595, 0, 0, 0, 0, 0
55, 14806415, 5, 2687, 0, 0, 0, 335, 335, 335, 335, 0, 0, 4663, -44, -33, 34, -1586, 530, 15058, 602, 0, 0, 0, 0, 0
56, 14816393, 5, 2687, 0, 0, 0, 335, 335, 335, 335, 0, 0, 4666, -44, -33, 34, -1594, 530, 15050, 602, 0, 0, 0, 0, 0
57, 14826362, 5, 2687, 0, 0, 0, 335, 335, 335, 335, 0, 0, 4669, -44, -33, 33, -1590, 528, 15064, 602, 0, 0, 0, 0, 0
58, 14836357, 5, 2687, 0, 0, 0, 335, 335, 335, 335, 0, 0, 4672, -44, -33, 34, -1594, 510, 15062, 602, 0, 0, 0, 0, 0
59, 14846345, 5, 2687, 0, 0, 0, 335, 335, 335, 335, 0, 0, 4675, -44, -33, 33, -1586, 510, 15052, 602, 0, 0, 0, 0, 0
60, 14856314, 5, 2687, 0, 0, 0, 335, 335, 335, 335, 0, 0, 4675, -2, -1, 1, -1582, 508, 15036, 595, 0, 0, 0, 0, 0
61, 14866302, 5, 2687, 0, 0, 0, 335, 335, 335, 335, 0, 0, 4675, -2, -1, 1, -1576, 506, 15048, 595, 0, 0, 0, 0, 0
62, 14876273, 5, 2687, 0, 0, 0, 335, 335, 335, 335, 0, 0, 4675, -2, -1, 0, -1572, 522, 15062, 595, 0, 0, 0, 0, 0
63, 14886262, 5, 2687, 0, 0, 0, 335, 335, 335, 335, 0, 0, 4674, -2, -2, 1, -1574, 508, 15076, 595, 0, 0, 0, 0, 0
64, 14896240, 5, 2687, 0, 0, 0, 335, 335, 335, 335, 0, 0, 4674, -2, -1, 1, -1576, 500, 15068, 595, 0, 0, 0, 0, 0
65, 14906224, 5, 2687, 0, 0, 0, 335, 335, 335, 335, 0, 0, 4674, -2, -1, 1, -1558, 520, 15086, 602, 0, 0, 0, 0, 0
66, 14916200, 5, 2687, 0, 0, 0, 335, 335, 335, 335, 0, 0, 4673, -2, -2, 1, -1564, 532, 15054, 602, 0, 0, 0, 0, 0
67, 14926188, 5, 2687, 0, 0, 0, 335, 335, 335, 335, 0, 0, 4673, -2, -2, 1, -1578, 518, 15044, 602, 0, 0, 0, 0, 0
68, 14936157, 5, 2687, 0, 0, 0, 335, 335, 335, 335, 0, 0, 4673, -1, -2, 1, -1574, 502, 15080, 602, 0, 0, 0, 0, 0
69, 14946156, 5, 2687, 0, 0, 0, 335, 335, 335, 335, 0, 0, 4673, -2, -2, 1, -1576, 502, 15076, 602, 0, 0, 0, 0, 0
70, 14956152, 5, 2687, 0, 0, 0, 335, 335, 335, 335, 0, 0, 4673, -2, -2, 1, -1564, 510, 15066, 595, 0, 0, 0, 0, 0
71, 14966085, 5, 2687, 0, 0, 0, 335, 335, 335, 335, 0, 0, 4672, -2, -2, 1, -1550, 510, 15088, 595, 0, 0, 0, 0, 0
72, 14976056, 5, 2687, 0, 0, 0, 335, 335, 335, 335, 0, 0, 4672, -1, -2, 1, -1572, 508, 15060, 595, 0, 0, 0, 0, 0
73, 14986023, 5, 2687, 0, 0, 0, 335, 335, 335, 335, 0, 0, 4672, -2, -1, 1, -1582, 526, 15086, 595, 0, 0, 0, 0, 0
74, 14996013, 5, 2687, 0, 0, 0, 335, 335, 335, 335, 0, 0, 4672, -2, -1, 1, -1604, 508, 15078, 595, 0, 0, 0, 0, 0
75, 15006030, 5, 2687, 0, 0, 0, 335, 335, 335, 335, 0, 0, 4671, -2, -1, 1, -1618, 530, 15092, 602, 0, 0, 0, 0, 0
76, 15015977, 5, 2687, 0, 0, 0, 335, 335, 335, 335, 0, 0, 4671, -2, -1, 1, -1610, 510, 15076, 602, 0, 0, 0, 0, 0
77, 15025960, 5, 2687, 0, 0, 0, 335, 335, 335, 335, 0, 0, 4671, -2, -2, 1, -1606, 510, 15074, 602, 0, 0, 0, 0, 0
78, 15035958, 5, 2687, 0, 0, 0, 335, 335, 335, 335, 0, 0, 4671, -2, -1, 1, -1592, 504, 15054, 602, 0, 0, 0, 0, 0
79, 15045922, 5, 2687, 0, 0, 0, 335, 335, 335, 335, 0, 0, 4670, -2, -1, 0, -1586, 516, 15046, 602, 0, 0, 0, 0, 0
80, 15055951, 5, 2687, 0, 0, 0, 335, 335, 335, 335, 0, 0, 4670, -1, -2, 1, -1568, 518, 15060, 595, 0, 0, 0, 0, 0
81, 15065882, 5, 2687, 0, 0, 0, 335, 335, 335, 335, 0, 0, 4670, -2, -2, 1, -1576, 520, 15048, 595, 0, 0, 0, 0, 0
82, 15075860, 5, 2687, 0, 0, 0, 335, 335, 335, 335, 0, 0, 4669, -2, -2, 1, -1574, 522, 15070, 595, 0, 0, 0, 0, 0
83, 15085837, 5, 2687, 0, 0, 0, 335, 335, 335, 335, 0, 0, 4669, -2, -2, 1, -1590, 536, 15078, 595, 0, 0, 0, 0, 0
84, 15095810, 5, 2687, 0, 0, 0, 335, 335, 335, 335, 0, 0, 4669, -2, -2, 1, -1592, 536, 15084, 595, 0, 0, 0, 0, 0
85, 15105973, 5, 2687, 0, 0, 0, 335, 335, 335, 335, 0, 0, 4669, -2, -1, 1, -1598, 512, 15078, 602, 0, 0, 0, 0, 0
86, 15115772, 5, 2687, 0, 0, 0, 335, 335, 335, 335, 0, 0, 4669, -2, -2, 1, -1584, 504, 15092, 602, 0, 0, 0, 0, 0
87, 15125767, 5, 2687, 0, 0, 0, 335, 335, 335, 335, 0, 0, 4668, -2, -1, 1, -1570, 498, 15074, 602, 0, 0, 0, 0, 0
88, 15135749, 5, 2687, 0, 0, 0, 335, 335, 335, 335, 0, 0, 4668, -2, -2, 0, -1532, 482, 14984, 602, 0, 0, 0, 0, 0
89, 15145724, 5, 2687, 0, 0, 0, 335, 335, 335, 335, 0, 0, 4668, -2, -1, 1, -1586, 472, 15128, 602, 0, 0, 0, 0, 0
90, 15155773, 5, 2687, 0, 0, 0, 335, 335, 335, 335, 0, 0, 4668, -1, -1, 1, -1576, 520, 15114, 595, 0, 0, 0, 0, 0
91, 15165684, 5, 2687, 0, 0, 0, 335, 335, 335, 335, 0, 0, 4667, -1, -1, 1, -1584, 546, 15062, 595, 0, 0, 0, 0, 0
92, 15175670, 5, 2687, 0, 0, 0, 335, 335, 335, 335, 0, 0, 4667, -2, -1, 1, -1598, 518, 15062, 595, 0, 0, 0, 0, 0
93, 15185651, 5, 2687, 0, 0, 0, 335, 335, 335, 335, 0, 0, 4667, -2, -2, 1, -1622, 534, 15044, 595, 0, 0, 0, 0, 0
94, 15195625, 5, 2687, 0, 0, 0, 335, 335, 335, 335, 0, 0, 4667, -3, -2, 1, -1614, 512, 15056, 595, 0, 0, 0, 0, 0
95, 15205696, 5, 2687, 0, 0, 0, 335, 335, 335, 335, 0, 0, 4666, -2, -2, 1, -1602, 524, 15090, 602, 0, 0, 0, 0, 0
96, 15215582, 5, 2687, 0, 0, 0, 335, 335, 335, 335, 0, 0, 4666, -2, -3, 1, -1584, 500, 15068, 602, 0, 0, 0, 0, 0
97, 15225577, 5, 2687, 0, 0, 0, 335, 335, 335, 335, 0, 0, 4666, -2, -1, 0, -1576, 484, 15086, 602, 0, 0, 0, 0, 0
98, 15235543, 5, 2687, 0, 0, 0, 335, 335, 335, 335, 0, 0, 4666, -2, -2, 0, -1566, 514, 15078, 602, 0, 0, 0, 0, 0
99, 15245527, 5, 2687, 0, 0, 0, 335, 335, 335, 335, 0, 0, 4665, -2, -1, 1, -1560, 528, 15080, 602, 0, 0, 0, 0, 0
100, 15255617, 5, 2687, 0, 0, 0, 335, 335, 335, 335, 0, 0, 4665, -2, -1, 1, -1580, 534, 15098, 595, 0, 0, 0, 0, 0
101, 15265476, 5, 2687, 0, 0, 0, 335, 335, 335, 335, 0, 0, 4665, -2, -2, 1, -1570, 536, 15086, 595, 0, 0, 0, 0, 0
102, 15275459, 5, 2687, 0, 0, 0, 335, 335, 335, 335, 0, 0, 4665, -2, -2, 0, -1570, 518, 15062, 595, 0, 0, 0, 0, 0
103, 15285443, 5, 2687, 0, 0, 0, 335, 335, 335, 335, 0, 0, 4664, -2, -2, 1, -1580, 524, 15054, 595, 0, 0, 0, 0, 0
104, 15295420, 5, 2687, 0, 0, 0, 335, 335, 335, 335, 0, 0, 4664, -2, -2, 1, -1576, 520, 15056, 595, 0, 0, 0, 0, 0
105, 15305524, 5, 2687, 0, 0, 0, 335, 335, 335, 335, 0, 0, 4664, -2, -2, 1, -1568, 512, 15054, 602, 0, 0, 0, 0, 0
106, 15315384, 5, 2687, 0, 0, 0, 335, 335, 335, 335, 0, 0, 4664, -2, -1, 0, -1572, 516, 15058, 602, 0, 0, 0, 0, 0
107, 15325366, 5, 2687, 0, 0, 0, 335, 335, 335, 335, 0, 0, 4663, -2, -2, 1, -1566, 516, 15058, 602, 0, 0, 0, 0, 0
108, 15335350, 5, 2687, 0, 0, 0, 335, 335, 335, 335, 0, 0, 4663, -2, -1, 0, -1544, 522, 15040, 602, 0, 0, 0, 0, 0
109, 15345322, 5, 2687, 0, 0, 0, 335, 335, 335, 335, 0, 0, 4663, -1, -2, 1, -1570, 536, 15026, 602, 0, 0, 0, 0, 0
110, 15355471, 5, 2687, 0, 0, 0, 335, 335, 335, 335, 0, 0, 4663, -2, -2, 1, -1558, 522, 15034, 595, 0, 0, 0, 0, 0
111, 15365285, 5, 2687, 0, 0, 0, 335, 335, 335, 335, 0, 0, 4662, -2, -1, 1, -1562, 512, 15058, 595, 0, 0, 0, 0, 0
112, 15375259, 5, 2687, 0, 0, 0, 335, 335, 335, 335, 0, 0, 4662, -2, -1, 1, -1576, 520, 15078, 595, 0, 0, 0, 0, 0
113, 15385243, 5, 2687, 0, 0, 0, 335, 335, 335, 335, 0, 0, 4662, -3, -2, 1, -1568, 514, 15056, 595, 0, 0, 0, 0, 0
114, 15395236, 5, 2687, 0, 0, 0, 335, 335, 335, 335, 0, 0, 4662, -2, -2, 1, -1564, 518, 15068, 595, 0, 0, 0, 0, 0
115, 15405322, 5, 2687, 0, 0, 0, 335, 335, 335, 335, 0, 0, 4662, -2, -2, 1, -1584, 508, 15076, 602, 0, 0, 0, 0, 0
116, 15415186, 5, 2687, 0, 0, 0, 335, 335, 335, 335, 0, 0, 4661, -2, -1, 1, -1582, 510, 15076, 602, 0, 0, 0, 0, 0
117, 15425179, 5, 2687, 0, 0, 0, 335, 335, 335, 335, 0, 0, 4661, -2, -2, 2, -1580, 496, 15090, 602, 0, 0, 0, 0, 0
118, 15435151, 5, 2687, 0, 0, 0, 335, 335, 335, 335, 0, 0, 4661, -2, -2, 1, -1586, 528, 15066, 602, 0, 0, 0, 0, 0
119, 15445127, 5, 2687, 0, 0, 0, 335, 335, 335, 335, 0, 0, 4661, -2, -1, 1, -1610, 538, 15118, 602, 0, 0, 0, 0, 0
120, 15455286, 5, 2687, 0, 0, 0, 335, 335, 335, 335, 0, 0, 4661, -2, -2, 1, -1588, 530, 15076, 595, 0, 0, 0, 0, 0
121, 15465097, 5, 2687, 0, 0, 0, 335, 335, 335, 335, 0, 0, 4660, -2, -2, 1, -1580, 514, 15084, 595, 0, 0, 0, 0, 0
122, 15475076, 5, 2687, 0, 0, 0, 335, 335, 335, 335, 0, 0, 4660, -2, -2, 1, -1564, 514, 15038, 595, 0, 0, 0, 0, 0
123, 15485046, 5, 2687, 0, 0, 0, 335, 335, 335, 335, 0, 0, 4660, -2, -1, 1, -1554, 484, 15100, 595, 0, 0, 0, 0, 0
124, 15495027, 5, 2687, 0, 0, 0, 335, 335, 335, 335, 0, 0, 4660, -2, -1, 1, -1576, 464, 15092, 595, 0, 0, 0, 0, 0
125, 15505142, 5, 2687, 0, 0, 0, 335, 335, 335, 335, 0, 0, 4660, -2, -1, 1, -1580, 484, 15074, 602, 0, 0, 0, 0, 0
126, 15514990, 5, 2687, 0, 0, 0, 335, 335, 335, 335, 0, 0, 4659, -2, -2, 1, -1598, 516, 15082, 602, 0, 0, 0, 0, 0
127, 15524967, 5, 2687, 0, 0, 0, 335, 335, 335, 335, 0, 0, 4659, -2, -2, 1, -1600, 544, 15078, 602, 0, 0, 0, 0, 0
128, 15534963, 5, 2687, 0, 0, 0, 335, 335, 335, 335, 0, 0, 4659, -2, -2, 1, -1598, 568, 15056, 602, 0, 0, 0, 0, 0
129, 15544929, 5, 2687, 0, 0, 0, 335, 335, 335, 335, 0, 0, 4659, -2, -2, 1, -1596, 574, 15036, 602, 0, 0, 0, 0, 0
130, 15555090, 5, 2687, 0, 0, 0, 335, 335, 335, 335, 0, 0, 4659, -1, -2, 1, -1600, 552, 15086, 595, 0, 0, 0, 0, 0
131, 15564886, 5, 2687, 0, 0, 0, 335, 335, 335, 335, 0, 0, 4658, -2, -1, 1, -1586, 512, 15092, 595, 0, 0, 0, 0, 0
132, 15574877, 5, 2687, 0, 0, 0, 335, 335, 335, 335, 0, 0, 4658, -2, -1, 1, -1584, 490, 15060, 595, 0, 0, 0, 0, 0
133, 15584856, 5, 2687, 0, 0, 0, 335, 335, 335, 335, 0, 0, 4658, -2, -2, 1, -1576, 494, 15034, 595, 0, 0, 0, 0, 0
134, 15594829, 5, 2687, 0, 0, 0, 335, 335, 335, 335, 0, 0, 4658, -2, -2, 1, -1584, 500, 15034, 595, 0, 0, 0, 0, 0
135, 15604985, 5, 2687, 0, 0, 0, 335, 335, 335, 335, 0, 0, 4658, -2, -1, 0, -1572, 528, 15068, 595, 0, 0, 0, 0, 0
136, 15614777, 5, 2687, 0, 0, 0, 335, 335, 335, 335, 0, 0, 4657, -2, -1, 1, -1582, 562, 15064, 595, 0, 0, 0, 0, 0
137, 15624760, 5, 2687, 0, 0, 0, 335, 335, 335, 335, 0, 0, 4657, -2, -1, 0, -1590, 570, 15048, 595, 0, 0, 0, 0, 0
138, 15634745, 5, 2687, 0, 0, 0, 335, 335, 335, 335, 0, 0, 4657, -2, -2, 1, -1578, 546, 15054, 595, 0, 0, 0, 0, 0
139, 15644707, 5, 2687, 0, 0, 0, 335, 335, 335, 335, 0, 0, 4657, -2, -2, 0, -1570, 522, 15034, 595, 0, 0, 0, 0, 0
140, 15654917, 5, 2687, 0, 0, 0, 335, 335, 335, 335, 0, 0, 4656, -2, -2, 1, -1568, 528, 15046, 595, 0, 0, 0, 0, 0
141, 15664693, 5, 2687, 0, 0, 0, 335, 335, 335, 335, 0, 0, 4656, -2, -2, 1, -1562, 504, 15006, 595, 0, 0, 0, 0, 0
142, 15674655, 5, 2687, 0, 0, 0, 335, 335, 335, 335, 0, 0, 4656, -2, -2, 1, -1566, 506, 15020, 595, 0, 0, 0, 0, 0
143, 15684641, 5, 2687, 0, 0, 0, 335, 335, 335, 335, 0, 0, 4656, -2, -1, 1, -1566, 526, 15048, 595, 0, 0, 0, 0, 0
144, 15694621, 5, 2687, 0, 0, 0, 335, 335, 335, 335, 0, 0, 4656, -2, -1, 1, -1566, 528, 15056, 595, 0, 0, 0, 0, 0
145, 15704814, 5, 2687, 0, 0, 0, 335, 335, 335, 335, 0, 0, 4655, -2, -2, 1, -1566, 518, 15040, 602, 0, 0, 0, 0, 0
146, 15714741, 5, 2687, 0, 0, 0, 335, 335, 335, 335, 0, 0, 4655, -2, -1, 1, -1586, 492, 15042, 602, 0, 0, 0, 0, 0
147, 15724555, 5, 2687, 0, 0, 0, 335, 335, 335, 335, 0, 0, 4655, -2, -1, 1, -1602, 492, 15038, 602, 0, 0, 0, 0, 0
148, 15734532, 5, 2687, 0, 0, 0, 335, 335, 335, 335, 0, 0, 4655, -2, -1, 1, -1600, 494, 15046, 602, 0, 0, 0, 0, 0
149, 15744520, 5, 2687, 0, 0, 0, 335, 335, 335, 335, 0, 0, 4655, -2, -1, 1, -1596, 496, 15062, 602, 0, 0, 0, 0, 0
150, 15754719, 5, 2687, 0, 0, 0, 335, 335, 335, 335, 0, 0, 4654, -2, -2, 0, -1576, 506, 15050, 595, 0, 0, 0, 0, 0
151, 15764482, 5, 2687, 0, 0, 0, 335, 335, 335, 335, 0, 0, 4654, -2, -2, 0, -1584, 510, 15080, 595, 0, 0, 0, 0, 0
152, 15774468, 5, 2687, 0, 0, 0, 335, 335, 335, 335, 0, 0, 4654, -2, -2, 1, -1566, 518, 15096, 595, 0, 0, 0, 0, 0
153, 15784435, 5, 2687, 0, 0, 0, 335, 335, 335, 335, 0, 0, 4654, -2, -1, 1, -1560, 518, 15088, 595, 0, 0, 0, 0, 0
154, 15794434, 5, 2687, 0, 0, 0, 335, 335, 335, 335, 0, 0, 4654, -2, -1, 1, -1564, 492, 15074, 595, 0, 0, 0, 0, 0
155, 15804696, 5, 2687, 0, 0, 0, 335, 335, 335, 335, 0, 0, 4653, -2, -1, 1, -1560, 506, 15074, 602, 0, 0, 0, 0, 0
156, 15814399, 5, 2687, 0, 0, 0, 335, 335, 335, 335, 0, 0, 4653, -2, -1, 1, -1572, 498, 15056, 602, 0, 0, 0, 0, 0
157, 15824371, 5, 2687, 0, 0, 0, 335, 335, 335, 335, 0, 0, 4653, -2, -1, 1, -1592, 520, 15084, 602, 0, 0, 0, 0, 0
158, 15834345, 5, 2687, 0, 0, 0, 335, 335, 335, 335, 0, 0, 4653, -2, -2, 1, -1574, 502, 15058, 602, 0, 0, 0, 0, 0
159, 15844333, 5, 2687, 0, 0, 0, 335, 335, 335, 335, 0, 0, 4653, -1, -2, 1, -1574, 494, 15052, 602, 0, 0, 0, 0, 0
160, 15854564, 5, 2687, 0, 0, 0, 335, 335, 335, 335, 0, 0, 4653, -2, -2, 1, -1576, 502, 15048, 595, 0, 0, 0, 0, 0
161, 15864293, 5, 2687, 0, 0, 0, 335, 335, 335, 335, 0, 0, 4652, -1, -2, 1, -1582, 500, 15044, 595, 0, 0, 0, 0, 0
162, 15874281, 5, 2687, 0, 0, 0, 335, 335, 335, 335, 0, 0, 4652, -1, -1, 1, -1580, 500, 15064, 595, 0, 0, 0, 0, 0
163, 15884250, 5, 2687, 0, 0, 0, 335, 335, 335, 335, 0, 0, 4652, -1, -1, 1, -1588, 514, 15042, 595, 0, 0, 0, 0, 0
164, 15894213, 5, 2687, 0, 0, 0, 335, 335, 335, 335, 0, 0, 4652, -2, -1, 1, -1576, 526, 15054, 595, 0, 0, 0, 0, 0
165, 15904487, 5, 2687, 0, 0, 0, 335, 335, 335, 335, 0, 0, 4652, -1, -2, 1, -1562, 526, 15042, 602, 0, 0, 0, 0, 0
166, 15914166, 5, 2687, 0, 0, 0, 335, 335, 335, 335, 0, 0, 4652, -2, -2, 1, -1568, 520, 15044, 602, 0, 0, 0, 0, 0
167, 15924178, 5, 2687, 0, 0, 0, 335, 335, 335, 335, 0, 0, 4651, -2, -1, 1, -1566, 530, 15058, 602, 0, 0, 0, 0, 0
168, 15934151, 5, 2687, 0, 0, 0, 335, 335, 335, 335, 0, 0, 4651, -2, -1, 1, -1588, 512, 15038, 602, 0, 0, 0, 0, 0
169, 15944137, 5, 2687, 0, 0, 0, 335, 335, 335, 335, 0, 0, 4651, -2, -1, 1, -1582, 512, 15046, 602, 0, 0, 0, 0, 0
170, 15954400, 5, 2687, 0, 0, 0, 335, 335, 335, 335, 0, 0, 4651, -2, -1, 0, -1580, 516, 15040, 595, 0, 0, 0, 0, 0
171, 15964095, 5, 2687, 0, 0, 0, 335, 335, 335, 335, 0, 0, 4651, -2, -1, 1, -1570, 532, 15070, 595, 0, 0, 0, 0, 0
172, 15974064, 5, 2687, 0, 0, 0, 335, 335, 335, 335, 0, 0, 4651, -2, -1, 1, -1584, 540, 15054, 595, 0, 0, 0, 0, 0
173, 15984067, 5, 2687, 0, 0, 0, 335, 335, 335, 335, 0, 0, 4650, -2, -2, 1, -1592, 546, 15070, 595, 0, 0, 0, 0, 0
174, 15994047, 5, 2687, 0, 0, 0, 335, 335, 335, 335, 0, 0, 4650, -2, -1, 1, -1584, 546, 15042, 595, 0, 0, 0, 0, 0
175, 16004328, 5, 2687, 0, 0, 0, 335, 335, 335, 335, 0, 0, 4650, -1, -1, 0, -1562, 532, 15076, 602, 0, 0, 0, 0, 0
176, 16014000, 5, 2687, 0, 0, 0, 335, 335, 335, 335, 0, 0, 4650, -1, -2, 0, -1576, 544, 15072, 602, 0, 0, 0, 0, 0
177, 16023982, 5, 2687, 0, 0, 0, 335, 335, 335, 335, 0, 0, 4650, -2, -2, 1, -1590, 544, 15072, 602, 0, 0, 0, 0, 0
178, 16033963, 5, 2687, 0, 0, 0, 335, 335, 335, 335, 0, 0, 4649, -2, -1, 1, -1576, 524, 15062, 602, 0, 0, 0, 0, 0
179, 16043944, 5, 2687, 0, 0, 0, 335, 335, 335, 335, 0, 0, 4649, -2, -1, 1, -1570, 534, 15068, 602, 0, 0, 0, 0, 0
180, 16054254, 5, 2687, 0, 0, 0, 335, 335, 335, 335, 0, 0, 4649, -2, -1, 1, -1592, 526, 15060, 595, 0, 0, 0, 0, 0
181, 16063906, 5, 2687, 0, 0, 0, 335, 335, 335, 335, 0, 0, 4649, -2, -1, 1, -1574, 504, 15072, 595, 0, 0, 0, 0, 0
182, 16073884, 5, 2687, 0, 0, 0, 335, 335, 335, 335, 0, 0, 4649, -2, -2, 1, -1588, 516, 15086, 595, 0, 0, 0, 0, 0
183, 16083853, 5, 2687, 0, 0, 0, 335, 335, 335, 335, 0, 0, 4649, -2, -2, 1, -1578, 518, 15096, 595, 0, 0, 0, 0, 0
184, 16093838, 5, 2687, 0, 0, 0, 335, 335, 335, 335, 0, 0, 4648, -2, -2, 1, -1578, 530, 15072, 595, 0, 0, 0, 0, 0
185, 16104138, 5, 2687, 0, 0, 0, 335, 335, 335, 335, 0, 0, 4648, -2, -1, 1, -1566, 518, 15056, 602, 0, 0, 0, 0, 0
186, 16113793, 5, 2687, 0, 0, 0, 335, 335, 335, 335, 0, 0, 4648, -2, -1, 1, -1580, 514, 15056, 602, 0, 0, 0, 0, 0
187, 16123788, 5, 2687, 0, 0, 0, 335, 335, 335, 335, 0, 0, 4648, -2, -1, 1, -1580, 516, 15080, 602, 0, 0, 0, 0, 0
188, 16133767, 5, 2687, 0, 0, 0, 335, 335, 335, 335, 0, 0, 4648, -2, -2, 1, -1564, 516, 15084, 602, 0, 0, 0, 0, 0
189, 16143734, 5, 2687, 0, 0, 0, 335, 335, 335, 335, 0, 0, 4648, -2, -2, 1, -1576, 506, 15082, 602, 0, 0, 0, 0, 0
190, 16154090, 5, 2687, 0, 0, 0, 335, 335, 335, 335, 0, 0, 4648, -2, -2, 1, -1568, 510, 15082, 595, 0, 0, 0, 0, 0
191, 16163711, 5, 2687, 0, 0, 0, 335, 335, 335, 335, 0, 0, 4647, -2, -2, 1, -1578, 514, 15058, 595, 0, 0, 0, 0, 0
192, 16173690, 5, 2687, 0, 0, 0, 335, 335, 335, 335, 0, 0, 4647, -2, -2, 1, -1580, 530, 15052, 595, 0, 0, 0, 0, 0
193, 16183662, 5, 2687, 0, 0, 0, 335, 335, 335, 335, 0, 0, 4647, -2, -2, 1, -1578, 522, 15068, 595, 0, 0, 0, 0, 0
194, 16193637, 5, 2687, 0, 0, 0, 335, 335, 335, 335, 0, 0, 4647, -2, -2, 1, -1564, 518, 15064, 595, 0, 0, 0, 0, 0
195, 16204007, 5, 2687, 0, 0, 0, 335, 335, 335, 335, 0, 0, 4647, -2, -2, 1, -1578, 532, 15074, 602, 0, 0, 0, 0, 0
196, 16213609, 5, 2687, 0, 0, 0, 335, 335, 335, 335, 0, 0, 4647, -1, -1, 1, -1584, 528, 15104, 602, 0, 0, 0, 0, 0
197, 16223564, 5, 2687, 0, 0, 0, 335, 335, 335, 335, 0, 0, 4647, -2, -2, 1, -1566, 524, 15064, 602, 0, 0, 0, 0, 0
198, 16233552, 5, 2687, 0, 0, 0, 335, 335, 335, 335, 0, 0, 4646, -3, -2, 1, -1576, 500, 15058, 602, 0, 0, 0, 0, 0
199, 16243530, 5, 2687, 0, 0, 0, 335, 335, 335, 335, 0, 0, 4646, -2, -2, 1, -1576, 514, 15054, 602, 0, 0, 0, 0, 0
200, 16253917, 5, 2687, 0, 0, 0, 335, 335, 335, 335, 0, 0, 4646, -2, -2, 1, -1578, 506, 15064, 595, 0, 0, 0, 0, 0
201, 16263483, 5, 2687, 0, 0, 0, 335, 335, 335, 335, 0, 0, 4646, -3, -2, 1, -1578, 506, 15056, 595, 0, 0, 0, 0, 0
202, 16273465, 5, 2687, 0, 0, 0, 335, 335, 335, 335, 0, 0, 4646, -3, -2, 0, -1572, 522, 15068, 595, 0, 0, 0, 0, 0
203, 16283457, 5, 2687, 0, 0, 0, 335, 335, 335, 335, 0, 0, 4646, -2, -2, 1, -1574, 518, 15062, 595, 0, 0, 0, 0, 0
204, 16293420, 5, 2687, 0, 0, 0, 335, 335, 335, 335, 0, 0, 4646, -3, -2, 1, -1578, 500, 15070, 595, 0, 0, 0, 0, 0
205, 16303816, 5, 2687, 0, 0, 0, 335, 335, 335, 335, 0, 0, 4646, -3, -2, 1, -1564, 508, 15070, 602, 0, 0, 0, 0, 0
206, 16313400, 5, 2687, 0, 0, 0, 335, 335, 335, 335, 0, 0, 4645, -2, -2, 1, -1586, 516, 15078, 602, 0, 0, 0, 0, 0
207, 16323542, 5, 2687, 0, 0, 0, 335, 335, 335, 335, 0, 0, 4645, -2, -2, 1, -1600, 528, 15054, 602, 0, 0, 0, 0, 0
208, 16333348, 5, 2687, 0, 0, 0, 335, 335, 335, 335, 0, 0, 4645, -2, -2, 1, -1600, 502, 15038, 602, 0, 0, 0, 0, 0
209, 16343351, 5, 2687, 0, 0, 0, 335, 335, 335, 335, 0, 0, 4645, -2, -2, 1, -1598, 506, 15054, 602, 0, 0, 0, 0, 0
210, 16353807, 5, 2687, 0, 0, 0, 335, 335, 335, 335, 0, 0, 4645, -2, -2, 1, -1590, 520, 15058, 595, 0, 0, 0, 0, 0
211, 16363293, 5, 2687, 0, 0, 0, 335, 335, 335, 335, 0, 0, 4645, -2, -2, 1, -1588, 516, 15076, 595, 0, 0, 0, 0, 0
212, 16373272, 5, 2687, 0, 0, 0, 335, 335, 335, 335, 0, 0, 4645, -2, -2, 1, -1594, 514, 15066, 595, 0, 0, 0, 0, 0
213, 16383269, 5, 2687, 0, 0, 0, 335, 335, 335, 335, 0, 0, 4645, -2, -2, 1, -1584, 512, 15056, 595, 0, 0, 0, 0, 0
214, 16393238, 5, 2687, 0, 0, 0, 335, 335, 335, 335, 0, 0, 4644, -2, -3, 1, -1572, 512, 15060, 595, 0, 0, 0, 0, 0
215, 16403788, 5, 2687, 0, 0, 0, 335, 335, 335, 335, 0, 0, 4644, -2, -2, 1, -1590, 510, 15052, 602, 0, 0, 0, 0, 0
216, 16413197, 5, 2687, 0, 0, 0, 335, 335, 335, 335, 0, 0, 4644, -2, -2, 1, -1578, 538, 15042, 602, 0, 0, 0, 0, 0
217, 16423174, 5, 2687, 0, 0, 0, 335, 335, 335, 335, 0, 0, 4644, -2, -3, 1, -1566, 544, 15056, 602, 0, 0, 0, 0, 0
218, 16433162, 5, 2687, 0, 0, 0, 335, 335, 335, 335, 0, 0, 4644, -3, -2, 1, -1584, 532, 15084, 602, 0, 0, 0, 0, 0
219, 16443143, 5, 2687, 0, 0, 0, 335, 335, 335, 335, 0, 0, 4644, -2, -2, 1, -1562, 526, 15096, 602, 0, 0, 0, 0, 0
220, 16453773, 5, 2687, 0, 0, 0, 335, 335, 335, 335, 0, 0, 4644, -2, -2, 1, -1568, 506, 15092, 595, 0, 0, 0, 0, 0
221, 16463110, 5, 2687, 0, 0, 0, 335, 335, 335, 335, 0, 0, 4644, -2, -2, 1, -1576, 504, 15058, 595, 0, 0, 0, 0, 0
222, 16473086, 5, 2687, 0, 0, 0, 335, 335, 335, 335, 0, 0, 4643, -2, -2, 1, -1588, 518, 15074, 595, 0, 0, 0, 0, 0
223, 16483055, 5, 2687, 0, 0, 0, 335, 335, 335, 335, 0, 0, 4643, -2, -2, 1, -1596, 516, 15066, 595, 0, 0, 0, 0, 0
224, 16493050, 5, 2687, 0, 0, 0, 335, 335, 335, 335, 0, 0, 4643, -3, -2, 1, -1608, 532, 15056, 595, 0, 0, 0, 0, 0
225, 16503024, 5, 2687, 0, 0, 0, 335, 335, 335, 335, 0, 0, 4643, -2, -2, 1, -1582, 520, 15076, 595, 0, 0, 0, 0, 0
226, 16513004, 5, 2687, 0, 0, 0, 335, 335, 335, 335, 0, 0, 4643, -2, -2, 1, -1572, 508, 15068, 602, 0, 0, 0, 0, 0
227, 16522985, 5, 2687, 0, 0, 0, 335, 335, 335, 335, 0, 0, 4643, -2, -2, 1, -1566, 530, 15078, 602, 0, 0, 0, 0, 0
228, 16532971, 5, 2687, 0, 0, 0, 335, 335, 335, 335, 0, 0, 4643, -2, -2, 1, -1576, 504, 15088, 602, 0, 0, 0, 0, 0
229, 16542948, 5, 2687, 0, 0, 0, 335, 335, 335, 335, 0, 0, 4643, -2, -2, 1, -1570, 518, 15088, 602, 0, 0, 0, 0, 0
230, 16552935, 5, 2687, 0, 0, 0, 335, 335, 335, 335, 0, 0, 4643, -2, -1, 1, -1582, 516, 15092, 602, 0, 0, 0, 0, 0
231, 16562907, 5, 2687, 0, 0, 0, 335, 335, 335, 335, 0, 0, 4643, -2, -1, 1, -1590, 518, 15058, 595, 0, 0, 0, 0, 0
232, 16572900, 5, 2687, 0, 0, 0, 335, 335, 335, 335, 0, 0, 4642, -2, -2, 1, -1576, 522, 15056, 595, 0, 0, 0, 0, 0
233, 16582867, 5, 2687, 0, 0, 0, 335, 335, 335, 335, 0, 0, 4642, -2, -2, 1, -1564, 524, 15052, 595, 0, 0, 0, 0, 0
234, 16592856, 5, 2687, 0, 0, 0, 335, 335, 335, 335, 0, 0, 4642, -2, -2, 1, -1584, 512, 15070, 595, 0, 0, 0, 0, 0
235, 16602834, 5, 2687, 0, 0, 0, 335, 335, 335, 335, 0, 0, 4642, -2, -2, 1, -1576, 524, 15066, 595, 0, 0, 0, 0, 0
236, 16612815, 5, 2687, 0, 0, 0, 335, 335, 335, 335, 0, 0, 4642, -2, -2, 1, -1594, 524, 15064, 602, 0, 0, 0, 0, 0
237, 16622792, 5, 2687, 0, 0, 0, 335, 335, 335, 335, 0, 0, 4642, -2, -2, 1, -1588, 502, 15078, 602, 0, 0, 0, 0, 0
238, 16632779, 5, 2687, 0, 0, 0, 335, 335, 335, 335, 0, 0, 4642, -2, -2, 1, -1596, 498, 15094, 602, 0, 0, 0, 0, 0
239, 16642750, 5, 2687, 0, 0, 0, 335, 335, 335, 335, 0, 0, 4642, -2, -1, 1, -1592, 500, 15104, 602, 0, 0, 0, 0, 0
240, 16652741, 5, 2687, 0, 0, 0, 335, 335, 335, 335, 0, 0, 4642, -2, -1, 1, -1592, 510, 15082, 602, 0, 0, 0, 0, 0
241, 16662721, 5, 2687, 0, 0, 0, 335, 335, 335, 335, 0, 0, 4642, -2, -1, 1, -1590, 516, 15084, 595, 0, 0, 0, 0, 0
242, 16672693, 5, 2687, 0, 0, 0, 335, 335, 335, 335, 0, 0, 4641, -2, -2, 1, -1602, 536, 15090, 595, 0, 0, 0, 0, 0
243, 16682662, 5, 2687, 0, 0, 0, 335, 335, 335, 335, 0, 0, 4641, -3, -2, 1, -1600, 530, 15070, 595, 0, 0, 0, 0, 0
244, 16692642, 5, 2687, 0, 0, 0, 335, 335, 335, 335, 0, 0, 4641, -3, -1, 1, -1592, 536, 15078, 595, 0, 0, 0, 0, 0
245, 16702634, 5, 2687, 0, 0, 0, 335, 335, 335, 335, 0, 0, 4641, -2, -1, 1, -1590, 534, 15084, 595, 0, 0, 0, 0, 0
246, 16712616, 5, 2687, 0, 0, 0, 335, 335, 335, 335, 0, 0, 4641, -2, -1, 1, -1580, 524, 15090, 602, 0, 0, 0, 0, 0
247, 16722586, 5, 2687, 0, 0, 0, 335, 335, 335, 335, 0, 0, 4641, -2, -1, 1, -1578, 516, 15074, 602, 0, 0, 0, 0, 0
248, 16732568, 5, 2687, 0, 0, 0, 335, 335, 335, 335, 0, 0, 4641, -1, -1, 1, -1578, 512, 15060, 602, 0, 0, 0, 0, 0
249, 16742561, 5, 2687, 0, 0, 0, 335, 335, 335, 335, 0, 0, 4641, -1, 0, 0, -1584, 518, 15068, 602, 0, 0, 0, 0, 0
250, 16752529, 5, 2687, 0, 0, 0, 335, 335, 335, 335, 0, 0, 4641, -2, -1, 1, -1572, 522, 15052, 602, 0, 0, 0, 0, 0
251, 16762511, 5, 2687, 0, 0, 0, 335, 335, 335, 335, 0, 0, 4640, -2, -1, 1, -1550, 518, 15072, 595, 0, 0, 0, 0, 0
252, 16772495, 5, 2687, 0, 0, 0, 335, 335, 335, 335, 0, 0, 4640, -2, -1, 1, -1550, 542, 15078, 595, 0, 0, 0, 0, 0
253, 16782471, 5, 2687, 0, 0, 0, 335, 335, 335, 335, 0, 0, 4640, -2, -1, 0, -1552, 534, 15100, 595, 0, 0, 0, 0, 0
254, 16792452, 5, 2687, 0, 0, 0, 335, 335, 335, 335, 0, 0, 4640, -2, -1, 1, -1564, 538, 15110, 595, 0, 0, 0, 0, 0
255, 16802418, 5, 2687, 0, 0, 0, 335, 335, 335, 335, 0, 0, 4640, -2, -2, 1, -1570, 546, 15058, 595, 0, 0, 0, 0, 0
256, 16812406, 5, 2687, 0, 0, 0, 335, 335, 335, 335, 0, 0, 4640, -2, -2, 1, -1582, 550, 15074, 602, 0, 0, 0, 0, 0
257, 16822387, 5, 2687, 0, 0, 0, 335, 335, 335, 335, 0, 0, 4640, -2, -1, 1, -1600, 564, 15046, 602, 0, 0, 0, 0, 0
258, 16832363, 5, 2687, 0, 0, 0, 335, 335, 335, 335, 0, 0, 4640, -2, -1, 1, -1600, 556, 15028, 602, 0, 0, 0, 0, 0
259, 16842348, 5, 2687, 0, 0, 0, 335, 335, 335, 335, 0, 0, 4639, -2, -1, 1, -1606, 548, 15064, 602, 0, 0, 0, 0, 0
260, 16852336, 5, 2687, 0, 0, 0, 335, 335, 335, 335, 0, 0, 4639, -2, -2, 1, -1580, 524, 15060, 602, 0, 0, 0, 0, 0
261, 16862301, 5, 2687, 0, 0, 0, 335, 335, 335, 335, 0, 0, 4639, -2, -2, 1, -1570, 504, 15060, 595, 0, 0, 0, 0, 0
262, 16872294, 5, 2687, 0, 0, 0, 335, 335, 335, 335, 0, 0, 4639, -2, -1, 1, -1570, 516, 15076, 595, 0, 0, 0, 0, 0
263, 16882278, 5, 2687, 0, 0, 0, 335, 335, 335, 335, 0, 0, 4639, -2, -1, 1, -1574, 522, 15084, 595, 0, 0, 0, 0, 0
264, 16892253, 5, 2687, 0, 0, 0, 335, 335, 335, 335, 0, 0, 4639, -3, -2, 1, -1590, 516, 15094, 595, 0, 0, 0, 0, 0
265, 16902218, 5, 2687, 0, 0, 0, 335, 335, 335, 335, 0, 0, 4639, -3, -2, 1, -1602, 526, 15070, 595, 0, 0, 0, 0, 0
266, 16912205, 5, 2687, 0, 0, 0, 335, 335, 335, 335, 0, 0, 4639, -3, -2, 1, -1590, 526, 15066, 602, 0, 0, 0, 0, 0
267, 16922185, 5, 2687, 0, 0, 0, 335, 335, 335, 335, 0, 0, 4639, -3, -1, 1, -1576, 500, 15060, 602, 0, 0, 0, 0, 0
268, 16932327, 5, 2687, 0, 0, 0, 335, 335, 335, 335, 0, 0, 4639, -2, -1, 1, -1588, 506, 15038, 602, 0, 0, 0, 0, 0
269, 16942139, 5, 2687, 0, 0, 0, 335, 335, 335, 335, 0, 0, 4639, -2, -1, 1, -1588, 516, 15050, 602, 0, 0, 0, 0, 0
270, 16952130, 5, 2687, 0, 0, 0, 335, 335, 335, 335, 0, 0, 4639, -2, -1, 1, -1584, 510, 15082, 602, 0, 0, 0, 0, 0
271, 16962093, 5, 2687, 0, 0, 0, 335, 335, 335, 335, 0, 0, 4638, -2, -1, 1, -1550, 498, 15060, 595, 0, 0, 0, 0, 0
272, 16972079, 5, 2687, 0, 0, 0, 335, 335, 335, 335, 0, 0, 4638, -2, -2, 1, -1556, 512, 15064, 595, 0, 0, 0, 0, 0
273, 16982071, 5, 2687, 0, 0, 0, 335, 335, 335, 335, 0, 0, 4638, -2, -2, 1, -1560, 514, 15056, 595, 0, 0, 0, 0, 0
274, 16992049, 5, 2687, 0, 0, 0, 335, 335, 335, 335, 0, 0, 4638, -2, -1, 1, -1562, 508, 15072, 595, 0, 0, 0, 0, 0
275, 17002024, 5, 2687, 0, 0, 0, 335, 335, 335, 335, 0, 0, 4638, -2, -1, 1, -1576, 510, 15052, 595, 0, 0, 0, 0, 0
276, 17011998, 5, 2687, 0, 0, 0, 335, 335, 335, 335, 0, 0, 4638, -2, -1, 1, -1582, 514, 15070, 602, 0, 0, 0, 0, 0
277, 17021986, 5, 2687, 0, 0, 0, 335, 335, 335, 335, 0, 0, 4638, -2, -1, 1, -1574, 512, 15068, 602, 0, 0, 0, 0, 0
278, 17031971, 5, 2687, 0, 0, 0, 335, 335, 335, 335, 0, 0, 4638, -2, -1, 0, -1584, 510, 15044, 602, 0, 0, 0, 0, 0
279, 17041958, 5, 2687, 0, 0, 0, 335, 335, 335, 335, 0, 0, 4638, -2, -1, 1, -1602, 492, 15042, 602, 0, 0, 0, 0, 0
280, 17051945, 5, 2687, 0, 0, 0, 335, 335, 335, 335, 0, 0, 4638, -2, -1, 1, -1596, 490, 15046, 602, 0, 0, 0, 0, 0
281, 17061917, 5, 2687, 0, 0, 0, 335, 335, 335, 335, 0, 0, 4638, -2, -1, 1, -1576, 506, 15068, 595, 0, 0, 0, 0, 0
282, 17071896, 5, 2687, 0, 0, 0, 335, 335, 335, 335, 0, 0, 4638, -2, -1, 1, -1580, 520, 15088, 595, 0, 0, 0, 0, 0
283, 17081882, 5, 2687, 0, 0, 0, 335, 335, 335, 335, 0, 0, 4638, -2, -2, 1, -1586, 516, 15082, 595, 0, 0, 0, 0, 0
284, 17091869, 5, 2687, 0, 0, 0, 335, 335, 335, 335, 0, 0, 4638, -2, -2, 1, -1586, 496, 15080, 595, 0, 0, 0, 0, 0
285, 17101835, 5, 2687, 0, 0, 0, 335, 335, 335, 335, 0, 0, 4637, -2, -2, 1, -1578, 492, 15082, 595, 0, 0, 0, 0, 0
286, 17111814, 5, 2687, 0, 0, 0, 335, 335, 335, 335, 0, 0, 4637, -2, -2, 0, -1578, 490, 15058, 602, 0, 0, 0, 0, 0
287, 17121813, 5, 2687, 0, 0, 0, 335, 335, 335, 335, 0, 0, 4637, -2, -1, 1, -1558, 496, 15054, 602, 0, 0, 0, 0, 0
288, 17131772, 5, 2687, 0, 0, 0, 335, 335, 335, 335, 0, 0, 4637, -2, -2, 0, -1570, 512, 15072, 602, 0, 0, 0, 0, 0
289, 17141767, 5, 2687, 0, 0, 0, 335, 335, 335, 335, 0, 0, 4637, -2, -1, 1, -1586, 522, 15058, 602, 0, 0, 0, 0, 0
290, 17151758, 5, 2687, 0, 0, 0, 335, 335, 335, 335, 0, 0, 4637, -2, -1, 1, -1592, 536, 15078, 602, 0, 0, 0, 0, 0
291, 17161730, 5, 2687, 0, 0, 0, 335, 335, 335, 335, 0, 0, 4637, -2, -1, 1, -1590, 528, 15064, 595, 0, 0, 0, 0, 0
292, 17171700, 5, 2687, 0, 0, 0, 335, 335, 335, 335, 0, 0, 4637, -1, -1, 1, -1596, 524, 15072, 595, 0, 0, 0, 0, 0
293, 17181675, 5, 2687, 0, 0, 0, 335, 335, 335, 335, 0, 0, 4637, -2, -2, 1, -1584, 498, 15064, 595, 0, 0, 0, 0, 0
294, 17191663, 5, 2687, 0, 0, 0, 335, 335, 335, 335, 0, 0, 4637, -2, -2, 1, -1582, 492, 15082, 595, 0, 0, 0, 0, 0
295, 17201636, 5, 2687, 0, 0, 0, 335, 335, 335, 335, 0, 0, 4637, -2, -2, 0, -1584, 504, 15078, 595, 0, 0, 0, 0, 0
296, 17211622, 5, 2687, 0, 0, 0, 335, 335, 335, 335, 0, 0, 4637, -2, -2, 1, -1576, 522, 15072, 602, 0, 0, 0, 0, 0
297, 17221602, 5, 2687, 0, 0, 0, 335, 335, 335, 335, 0, 0, 4636, -2, -2, 0, -1578, 516, 15074, 602, 0, 0, 0, 0, 0
298, 17231589, 5, 2687, 0, 0, 0, 335, 335, 335, 335, 0, 0, 4636, -2, -2, 0, -1592, 508, 15064, 602, 0, 0, 0, 0, 0
299, 17241558, 5, 2687, 0, 0, 0, 335, 335, 335, 335, 0, 0, 4636, -2, -2, 1, -1588, 502, 15054, 602, 0, 0, 0, 0, 0
300, 17251548, 5, 2687, 0, 0, 0, 335, 335, 335, 335, 0, 0, 4636, -2, -1, 1, -1592, 526, 15050, 602, 0, 0, 0, 0, 0
301, 17261520, 5, 2687, 0, 0, 0, 335, 335, 335, 335, 0, 0, 4636, -2, -1, 1, -1582, 526, 15034, 595, 0, 0, 0, 0, 0
302, 17271501, 5, 2687, 0, 0, 0, 335, 335, 335, 335, 0, 0, 4636, -2, -1, 0, -1574, 514, 15048, 595, 0, 0, 0, 0, 0
303, 17281495, 5, 2687, 0, 0, 0, 335, 335, 335, 335, 0, 0, 4636, -2, -1, 0, -1572, 512, 15068, 595, 0, 0, 0, 0, 0
304, 17291461, 5, 2687, 0, 0, 0, 335, 335, 335, 335, 0, 0, 4636, -2, -1, 1, -1568, 538, 15070, 595, 0, 0, 0, 0, 0
305, 17301454, 5, 2687, 0, 0, 0, 335, 335, 335, 335, 0, 0, 4636, -2, -1, 1, -1572, 540, 15076, 595, 0, 0, 0, 0, 0
306, 17311416, 5, 2687, 0, 0, 0, 335, 335, 335, 335, 0, 0, 4635, -2, -2, 1, -1586, 544, 15068, 602, 0, 0, 0, 0, 0
307, 17321409, 5, 2687, 0, 0, 0, 335, 335, 335, 335, 0, 0, 4635, -2, -2, 1, -1574, 550, 15074, 602, 0, 0, 0, 0, 0
308, 17331387, 5, 2687, 0, 0, 0, 335, 335, 335, 335, 0, 0, 4635, -1, -2, 1, -1590, 550, 15086, 602, 0, 0, 0, 0, 0
309, 17341362, 5, 2687, 0, 0, 0, 335, 335, 335, 335, 0, 0, 4635, -2, -2, 1, -1590, 548, 15086, 602, 0, 0, 0, 0, 0
310, 17351341, 5, 2687, 0, 0, 0, 335, 335, 335, 335, 0, 0, 4635, -2, -2, 0, -1584, 536, 15064, 602, 0, 0, 0, 0, 0
311, 17361329, 5, 2687, 0, 0, 0, 335, 335, 335, 335, 0, 0, 4635, -2, -2, 0, -1598, 528, 15076, 595, 0, 0, 0, 0, 0
312, 17371302, 5, 2687, 0, 0, 0, 335, 335, 335, 335, 0, 0, 4635, -2, -2, 1, -1600, 508, 15044, 595, 0, 0, 0, 0, 0
313, 17381284, 5, 2687, 0, 0, 0, 335, 335, 335, 335, 0, 0, 4635, -2, -2, 1, -1598, 512, 15074, 595, 0, 0, 0, 0, 0
314, 17391263, 5, 2687, 0, 0, 0, 335, 335, 335, 335, 0, 0, 4635, -2, -2, 1, -1602, 512, 15090, 595, 0, 0, 0, 0, 0
315, 17401254, 5, 2687, 0, 0, 0, 335, 335, 335, 335, 0, 0, 4635, -2, -2, 1, -1584, 544, 15086, 595, 0, 0, 0, 0, 0
316, 17411226, 5, 2687, 0, 0, 0, 335, 335, 335, 335, 0, 0, 4635, -2, -2, 1, -1560, 548, 15078, 602, 0, 0, 0, 0, 0
317, 17421203, 5, 2687, 0, 0, 0, 335, 335, 335, 335, 0, 0, 4635, -2, -2, 1, -1560, 538, 15054, 602, 0, 0, 0, 0, 0
318, 17431177, 5, 2687, 0, 0, 0, 335, 335, 335, 335, 0, 0, 4635, -2, -1, 1, -1586, 530, 15034, 602, 0, 0, 0, 0, 0
319, 17441169, 5, 2687, 0, 0, 0, 335, 335, 335, 335, 0, 0, 4635, -2, -2, 1, -1592, 532, 15062, 602, 0, 0, 0, 0, 0
320, 17451149, 5, 2687, 0, 0, 0, 335, 335, 335, 335, 0, 0, 4634, -2, -2, 1, -1580, 506, 15056, 602, 0, 0, 0, 0, 0
321, 17461122, 5, 2687, 0, 0, 0, 335, 335, 335, 335, 0, 0, 4634, -2, -2, 1, -1574, 522, 15034, 595, 0, 0, 0, 0, 0
322, 17471108, 5, 2687, 0, 0, 0, 335, 335, 335, 335, 0, 0, 4634, -2, -2, 1, -1578, 492, 15016, 595, 0, 0, 0, 0, 0
323, 17481086, 5, 2687, 0, 0, 0, 335, 335, 335, 335, 0, 0, 4634, -2, -2, 1, -1588, 498, 15058, 595, 0, 0, 0, 0, 0
324, 17491038, 5, 2687, 0, 0, 0, 335, 335, 335, 335, 0, 0, 4634, -2, -2, 1, -1578, 496, 15042, 595, 0, 0, 0, 0, 0
325, 17501029, 5, 2687, 0, 0, 0, 335, 335, 335, 335, 0, 0, 4634, -2, -2, 1, -1582, 512, 15072, 595, 0, 0, 0, 0, 0
326, 17511015, 5, 2687, 0, 0, 0, 335, 335, 335, 335, 0, 0, 4634, -2, -2, 1, -1578, 510, 15094, 602, 0, 0, 0, 0, 0
327, 17520989, 5, 2687, 0, 0, 0, 335, 335, 335, 335, 0, 0, 4634, -2, -2, 1, -1592, 516, 15066, 602, 0, 0, 0, 0, 0
328, 17530970, 5, 2687, 0, 0, 0, 335, 335, 335, 335, 0, 0, 4634, -2, -2, 1, -1582, 526, 15098, 602, 0, 0, 0, 0, 0
329, 17541119, 5, 2687, 0, 0, 0, 335, 335, 335, 335, 0, 0, 4634, -2, -2, 1, -1576, 532, 15064, 602, 0, 0, 0, 0, 0
330, 17550940, 5, 2687, 0, 0, 0, 335, 335, 335, 335, 0, 0, 4634, -2, -2, 1, -1578, 512, 15052, 602, 0, 0, 0, 0, 0
331, 17560914, 5, 2687, 0, 0, 0, 335, 335, 335, 335, 0, 0, 4634, -2, -2, 1, -1580, 524, 15042, 595, 0, 0, 0, 0, 0
332, 17570884, 5, 2687, 0, 0, 0, 335, 335, 335, 335, 0, 0, 4634, -2, -1, 1, -1572, 520, 15058, 595, 0, 0, 0, 0, 0
333, 17580877, 5, 2687, 0, 0, 0, 335, 335, 335, 335, 0, 0, 4634, -2, -1, 0, -1584, 506, 15030, 595, 0, 0, 0, 0, 0
334, 17590859, 5, 2687, 0, 0, 0, 335, 335, 335, 335, 0, 0, 4634, -2, -1, 1, -1574, 528, 15052, 595, 0, 0, 0, 0, 0
335, 17600834, 5, 2687, 0, 0, 0, 335, 335, 335, 335, 0, 0, 4634, -2, -1, 1, -1576, 540, 15040, 595, 0, 0, 0, 0, 0
336, 17610815, 5, 2687, 0, 0, 0, 335, 335, 335, 335, 0, 0, 4634, -2, -1, 1, -1568, 532, 15032, 602, 0, 0, 0, 0, 0
337, 17620801, 5, 2687, 0, 0, 0, 335, 335, 335, 335, 0, 0, 4634, -2, -1, 1, -1594, 528, 15030, 602, 0, 0, 0, 0, 0
338, 17630779, 5, 2687, 0, 0, 0, 335, 335, 335, 335, 0, 0, 4634, -2, -1, 1, -1578, 520, 15056, 602, 0, 0, 0, 0, 0
339, 17640751, 5, 2687, 0, 0, 0, 335, 335, 335, 335, 0, 0, 4634, -2, -2, 1, -1584, 530, 15052, 602, 0, 0, 0, 0, 0
340, 17650746, 5, 2687, 0, 0, 0, 335, 335, 335, 335, 0, 0, 4633, -2, -2, 1, -1586, 544, 15076, 602, 0, 0, 0, 0, 0
341, 17660726, 5, 2687, 0, 0, 0, 335, 335, 335, 335, 0, 0, 4633, -2, -2, 1, -1584, 540, 15060, 595, 0, 0, 0, 0, 0
342, 17670710, 5, 2687, 0, 0, 0, 335, 335, 335, 335, 0, 0, 4633, -2, -2, 1, -1576, 532, 15060, 595, 0, 0, 0, 0, 0
343, 17680675, 5, 2687, 0, 0, 0, 335, 335, 335, 335, 0, 0, 4633, -2, -2, 1, -1564, 520, 15060, 595, 0, 0, 0, 0, 0
344, 17690659, 5, 2687, 0, 0, 0, 335, 335, 335, 335, 0, 0, 4633, -2, -2, 1, -1572, 514, 15078, 595, 0, 0, 0, 0, 0
345, 17700652, 5, 2687, 0, 0, 0, 335, 335, 335, 335, 0, 0, 4633, -2, -2, 1, -1562, 514, 15080, 595, 0, 0, 0, 0, 0
346, 17710621, 5, 2687, 0, 0, 0, 335, 335, 335, 335, 0, 0, 4633, -2, -2, 1, -1576, 506, 15064, 602, 0, 0, 0, 0, 0
347, 17720602, 5, 2687, 0, 0, 0, 335, 335, 335, 335, 0, 0, 4633, -2, -2, 1, -1570, 516, 15060, 602, 0, 0, 0, 0, 0
348, 17730590, 5, 2687, 0, 0, 0, 335, 335, 335, 335, 0, 0, 4633, -2, -2, 1, -1576, 512, 15066, 602, 0, 0, 0, 0, 0
349, 17740567, 5, 2687, 0, 0, 0, 335, 335, 335, 335, 0, 0, 4633, -2, -1, 1, -1554, 514, 15094, 602, 0, 0, 0, 0, 0
350, 17750543, 5, 2687, 0, 0, 0, 335, 335, 335, 335, 0, 0, 4633, -2, -2, 1, -1568, 524, 15074, 602, 0, 0, 0, 0, 0
351, 17760549, 5, 2687, 0, 0, 0, 335, 335, 335, 335, 0, 0, 4633, -2, -2, 1, -1576, 514, 15058, 595, 0, 0, 0, 0, 0
352, 17770504, 5, 2687, 0, 0, 0, 335, 335, 335, 335, 0, 0, 4633, -2, -2, 1, -1578, 510, 15060, 595, 0, 0, 0, 0, 0
353, 17780489, 5, 2687, 0, 0, 0, 335, 335, 335, 335, 0, 0, 4633, -2, -2, 1, -1578, 496, 15076, 595, 0, 0, 0, 0, 0
354, 17790467, 5, 2687, 0, 0, 0, 335, 335, 335, 335, 0, 0, 4633, -2, -1, 1, -1576, 504, 15096, 595, 0, 0, 0, 0, 0
355, 17800449, 5, 2687, 0, 0, 0, 335, 335, 335, 335, 0, 0, 4633, -2, -2, 1, -1588, 514, 15060, 595, 0, 0, 0, 0, 0
356, 17810431, 5, 2687, 0, 0, 0, 335, 335, 335, 335, 0, 0, 4633, -2, -2, 0, -1586, 496, 15064, 602, 0, 0, 0, 0, 0
357, 17820417, 5, 2687, 0, 0, 0, 335, 335, 335, 335, 0, 0, 4633, -2, -2, 1, -1594, 514, 15062, 602, 0, 0, 0, 0, 0
358, 17830385, 5, 2687, 0, 0, 0, 335, 335, 335, 335, 0, 0, 4633, -2, -1, 1, -1614, 494, 15078, 602, 0, 0, 0, 0, 0
359, 17840359, 5, 2687, 0, 0, 0, 335, 335, 335, 335, 0, 0, 4633, -2, -1, 2, -1592, 522, 15064, 602, 0, 0, 0, 0, 0
360, 17850352, 5, 2687, 0, 0, 0, 335, 335, 335, 335, 0, 0, 4633, -2, -1, 1, -1590, 514, 15060, 602, 0, 0, 0, 0, 0
361, 17860320, 5, 2687, 0, 0, 0, 335, 335, 335, 335, 0, 0, 4633, -2, -1, 1, -1600, 526, 15068, 595, 0, 0, 0, 0, 0
362, 17870313, 5, 2687, 0, 0, 0, 335, 335, 335, 335, 0, 0, 4633, -2, -1, 1, -1592, 520, 15038, 595, 0, 0, 0, 0, 0
363, 17880293, 5, 2687, 0, 0, 0, 335, 335, 335, 335, 0, 0, 4633, -2, -1, 1, -1592, 504, 15044, 595, 0, 0, 0, 0, 0
364, 17890268, 5, 2687, 0, 0, 0, 335, 335, 335, 335, 0, 0, 4633, -2, -1, 1, -1584, 508, 15070, 595, 0, 0, 0, 0, 0
365, 17900260, 5, 2687, 0, 0, 0, 335, 335, 335, 335, 0, 0, 4633, -2, -1, 1, -1566, 504, 15102, 595, 0, 0, 0, 0, 0
366, 17910232, 5, 2687, 0, 0, 0, 335, 335, 335, 335, 0, 0, 4633, -2, -1, 1, -1566, 514, 15082, 602, 0, 0, 0, 0, 0
367, 17920211, 5, 2687, 0, 0, 0, 335, 335, 335, 335, 0, 0, 4633, -2, -2, 1, -1564, 520, 15078, 602, 0, 0, 0, 0, 0
368, 17930201, 5, 2687, 0, 0, 0, 335, 335, 335, 335, 0, 0, 4633, -2, -1, 1, -1576, 532, 15086, 602, 0, 0, 0, 0, 0
369, 17940179, 5, 2687, 0, 0, 0, 335, 335, 335, 335, 0, 0, 4633, -2, -1, 1, -1600, 532, 15074, 602, 0, 0, 0, 0, 0
370, 17950149, 5, 2687, 0, 0, 0, 335, 335, 335, 335, 0, 0, 4633, -2, -1, 1, -1612, 514, 15054, 602, 0, 0, 0, 0, 0
371, 17960129, 5, 2687, 0, 0, 0, 335, 335, 335, 335, 0, 0, 4633, -2, -1, 1, -1588, 512, 15056, 595, 0, 0, 0, 0, 0
372, 17970110, 5, 2687, 0, 0, 0, 335, 335, 335, 335, 0, 0, 4633, -1, -1, 1, -1556, 498, 15078, 595, 0, 0, 0, 0, 0
373, 17980097, 5, 2687, 0, 0, 0, 335, 335, 335, 335, 0, 0, 4633, -2, -1, 1, -1560, 494, 15082, 595, 0, 0, 0, 0, 0
374, 17990060, 5, 2687, 0, 0, 0, 335, 335, 335, 335, 0, 0, 4632, -2, -2, 1, -1586, 506, 15080, 595, 0, 0, 0, 0, 0
375, 18000048, 5, 2687, 0, 0, 0, 335, 335, 335, 335, 0, 0, 4632, -2, -1, 1, -1584, 490, 15068, 595, 0, 0, 0, 0, 0
376, 18010040, 5, 2687, 0, 0, 0, 335, 335, 335, 335, 0, 0, 4632, -2, -1, 1, -1576, 506, 15060, 602, 0, 0, 0, 0, 0
377, 18020016, 5, 2687, 0, 0, 0, 335, 335, 335, 335, 0, 0, 4632, -2, -1, 1, -1556, 528, 15050, 602, 0, 0, 0, 0, 0
378, 18029994, 5, 2687, 0, 0, 0, 335, 335, 335, 335, 0, 0, 4632, -2, -1, 1, -1572, 522, 15086, 602, 0, 0, 0, 0, 0
379, 18039980, 5, 2687, 0, 0, 0, 335, 335, 335, 335, 0, 0, 4632, -1, -1, 1, -1576, 512, 15082, 602, 0, 0, 0, 0, 0
380, 18049958, 5, 2687, 0, 0, 0, 335, 335, 335, 335, 0, 0, 4632, -2, -1, 1, -1582, 512, 15068, 602, 0, 0, 0, 0, 0
381, 18059932, 5, 2687, 0, 0, 0, 335, 335, 335, 335, 0, 0, 4632, -2, -1, 1, -1576, 504, 15074, 595, 0, 0, 0, 0, 0
382, 18069902, 5, 2687, 0, 0, 0, 335, 335, 335, 335, 0, 0, 4632, -2, -1, 1, -1580, 532, 15048, 595, 0, 0, 0, 0, 0
383, 18079883, 5, 2687, 0, 0, 0, 335, 335, 335, 335, 0, 0, 4632, -1, -2, 1, -1588, 528, 15040, 595, 0, 0, 0, 0, 0
384, 18089874, 5, 2687, 0, 0, 0, 335, 335, 335, 335, 0, 0, 4632, -2, -2, 1, -1568, 528, 15028, 595, 0, 0, 0, 0, 0
385, 18099848, 5, 2687, 0, 0, 0, 335, 335, 335, 335, 0, 0, 4632, -2, -2, 1, -1584, 524, 15050, 595, 0, 0, 0, 0, 0
386, 18109817, 5, 2687, 0, 0, 0, 335, 335, 335, 335, 0, 0, 4632, -2, -2, 1, -1578, 512, 15058, 602, 0, 0, 0, 0, 0
387, 18119809, 5, 2687, 0, 0, 0, 335, 335, 335, 335, 0, 0, 4632, -2, -2, 1, -1576, 486, 15056, 602, 0, 0, 0, 0, 0
388, 18129784, 5, 2687, 0, 0, 0, 335, 335, 335, 335, 0, 0, 4632, -2, -1, 1, -1566, 500, 15044, 602, 0, 0, 0, 0, 0
389, 18139764, 5, 2687, 0, 0, 0, 335, 335, 335, 335, 0, 0, 4632, -2, -1, 1, -1562, 526, 15054, 602, 0, 0, 0, 0, 0
390, 18149907, 5, 2687, 0, 0, 0, 335, 335, 335, 335, 0, 0, 4632, -2, -1, 1, -1556, 516, 15082, 602, 0, 0, 0, 0, 0
