index_log, time_stamp, mode, thrust, roll, pitch, yaw, ae[0], ae[1], ae[2], ae[3], phi, theta, psi, sp, sq, sr, sax, say, saz, bat_volt, P, P1, P2, temperature, pressure
0, 148974528, 0, 0, 0, 0, 0, 0, 0, 0, 0, 418, 177, 4500, 286, 297, -2, -1608, 560, 14892, 595, 0, 0, 0, 0, 0
1, 148978396, 0, 0, 0, 0, 0, 0, 0, 0, 0, 418, 177, 4500, 285, 295, -1, -1644, 592, 15080, 595, 0, 0, 0, 0, 0
2, 148982264, 0, 0, 0, 0, 0, 0, 0, 0, 0, 418, 177, 4500, 285, 297, -1, -1604, 552, 14804, 595, 0, 0, 0, 0, 0
3, 148986177, 0, 0, 0, 0, 0, 0, 0, 0, 0, 418, 177, 4500, 288, 297, -3, -1560, 508, 15068, 595, 0, 0, 0, 0, 0
4, 148990004, 0, 0, 0, 0, 0, 0, 0, 0, 0, 418, 177, 4500, 288, 293, 0, -1628, 508, 14884, 595, 0, 0, 0, 0, 0
5, 148993890, 0, 0, 0, 0, 0, 0, 0, 0, 0, 418, 178, 4500, 286, 298, 0, -1528, 536, 14932, 595, 0, 0, 0, 0, 0
6, 148997749, 0, 0, 0, 0, 0, 0, 0, 0, 0, 419, 178, 4500, 285, 298, 0, -1556, 612, 15032, 595, 0, 0, 0, 0, 0
7, 149001639, 0, 0, 0, 0, 0, 0, 0, 0, 0, 419, 179, 4500, 283, 295, 1, -1492, 532, 14884, 595, 0, 0, 0, 0, 0
8, 149005470, 0, 0, 0, 0, 0, 0, 0, 0, 0, 419, 180, 4500, 287, 296, 0, -1532, 548, 15020, 595, 0, 0, 0, 0, 0
9, 149009352, 0, 0, 0, 0, 0, 0, 0, 0, 0, 419, 180, 4500, 285, 295, -3, -1652, 504, 14988, 595, 0, 0, 0, 0, 0
10, 149013223, 0, 0, 0, 0, 0, 0, 0, 0, 0, 419, 180, 4500, 287, 296, -1, -1588, 588, 14816, 595, 0, 0, 0, 0, 0
11, 149017121, 0, 0, 0, 0, 0, 0, 0, 0, 0, 419, 180, 4500, 284, 296, -3, -1640, 528, 14988, 595, 0, 0, 0, 0, 0
12, 149020943, 0, 0, 0, 0, 0, 0, 0, 0, 0, 418, 179, 4500, 286, 296, 3, -1712, 448, 15008, 595, 0, 0, 0, 0, 0
13, 149024811, 0, 0, 0, 0, 0, 0, 0, 0, 0, 418, 178, 4500, 287, 298, 1, -1708, 528, 14808, 595, 0, 0, 0, 0, 0
14, 149028679, 0, 0, 0, 0, 0, 0, 0, 0, 0, 418, 177, 4500, 287, 297, -1, -1692, 524, 14968, 595, 0, 0, 0, 0, 0
15, 149032547, 0, 0, 0, 0, 0, 0, 0, 0, 0, 418, 177, 4500, 285, 297, -2, -1676, 516, 14928, 595, 0, 0, 0, 0, 0
16, 149036419, 0, 0, 0, 0, 0, 0, 0, 0, 0, 418, 176, 4500, 287, 295, -2, -1728, 548, 14896, 595, 0, 0, 0, 0, 0
17, 149040279, 0, 0, 0, 0, 0, 0, 0, 0, 0, 417, 176, 4500, 286, 294, -3, -1640, 456, 15032, 595, 0, 0, 0, 0, 0
18, 149044141, 0, 0, 0, 0, 0, 0, 0, 0, 0, 417, 176, 4500, 286, 294, -1, -1584, 496, 14692, 595, 0, 0, 0, 0, 0
19, 149048073, 0, 0, 0, 0, 0, 0, 0, 0, 0, 417, 176, 4500, 288, 301, -1, -1660, 564, 14872, 595, 0, 0, 0, 0, 0
20, 149051889, 0, 0, 0, 0, 0, 0, 0, 0, 0, 417, 176, 4500, 287, 297, 0, -1648, 532, 15124, 595, 0, 0, 0, 0, 0
21, 149055773, 0, 0, 0, 0, 0, 0, 0, 0, 0, 417, 176, 4500, 287, 289, 1, -1648, 532, 14896, 595, 0, 0, 0, 0, 0
22, 149059616, 0, 0, 0, 0, 0, 0, 0, 0, 0, 417, 176, 4500, 285, 298, 0, -1652, 496, 14900, 595, 0, 0, 0, 0, 0
23, 149063484, 0, 0, 0, 0, 0, 0, 0, 0, 0, 417, 175, 4500, 285, 301, -3, -1700, 504, 14900, 595, 0, 0, 0, 0, 0
24, 149067352, 0, 0, 0, 0, 0, 0, 0, 0, 0, 417, 175, 4500, 285, 291, 0, -1628, 588, 14992, 595, 0, 0, 0, 0, 0
25, 149071220, 0, 0, 0, 0, 0, 0, 0, 0, 0, 416, 176, 4500, 286, 294, -4, -1524, 456, 14784, 595, 0, 0, 0, 0, 0
26, 149075085, 0, 0, 0, 0, 0, 0, 0, 0, 0, 416, 176, 4500, 287, 299, 0, -1588, 536, 14860, 595, 0, 0, 0, 0, 0
27, 149079002, 0, 0, 0, 0, 0, 0, 0, 0, 0, 416, 176, 4500, 287, 293, -3, -1588, 576, 14964, 595, 0, 0, 0, 0, 0
28, 149082830, 0, 0, 0, 0, 0, 0, 0, 0, 0, 416, 176, 4500, 287, 291, 1, -1604, 492, 14800, 595, 0, 0, 0, 0, 0
29, 149086703, 0, 0, 0, 0, 0, 0, 0, 0, 0, 416, 176, 4500, 285, 299, 1, -1592, 536, 14896, 595, 0, 0, 0, 0, 0
30, 149090560, 0, 0, 0, 0, 0, 0, 0, 0, 0, 416, 176, 4500, 287, 294, -1, -1580, 536, 14964, 595, 0, 0, 0, 0, 0
31, 149094426, 0, 0, 0, 0, 0, 0, 0, 0, 0, 416, 176, 4500, 287, 291, -2, -1556, 572, 14752, 595, 0, 0, 0, 0, 0
32, 149098317, 0, 0, 0, 0, 0, 0, 0, 0, 0, 415, 177, 4500, 287, 296, 1, -1484, 436, 14772, 595, 0, 0, 0, 0, 0
33, 149102197, 0, 0, 0, 0, 0, 0, 0, 0, 0, 416, 177, 4500, 285, 295, -3, -1584, 604, 14936, 595, 0, 0, 0, 0, 0
34, 149106030, 0, 0, 0, 0, 0, 0, 0, 0, 0, 416, 177, 4500, 285, 295, -1, -1660, 548, 14896, 595, 0, 0, 0, 0, 0
35, 149109942, 0, 0, 0, 0, 0, 0, 0, 0, 0, 417, 178, 4500, 286, 294, -1, -1520, 608, 14868, 595, 0, 0, 0, 0, 0
36, 149113773, 0, 0, 0, 0, 0, 0, 0, 0, 0, 417, 178, 4500, 285, 300, 0, -1576, 584, 14928, 595, 0, 0, 0, 0, 0
37, 149117632, 0, 0, 0, 0, 0, 0, 0, 0, 0, 417, 178, 4500, 287, 297, -1, -1600, 476, 14948, 595, 0, 0, 0, 0, 0
38, 149121501, 0, 0, 0, 0, 0, 0, 0, 0, 0, 417, 178, 4500, 285, 295, -3, -1644, 552, 14904, 595, 0, 0, 0, 0, 0
39, 149125366, 0, 0, 0, 0, 0, 0, 0, 0, 0, 417, 178, 4500, 286, 296, -2, -1628, 528, 14916, 595, 0, 0, 0, 0, 0
40, 149129236, 0, 0, 0, 0, 0, 0, 0, 0, 0, 417, 178, 4500, 286, 295, 0, -1580, 560, 14836, 595, 0, 0, 0, 0, 0
41, 149133102, 0, 0, 0, 0, 0, 0, 0, 0, 0, 417, 178, 4500, 285, 296, -1, -1660, 552, 14784, 595, 0, 0, 0, 0, 0
42, 149136970, 0, 0, 0, 0, 0, 0, 0, 0, 0, 417, 178, 4500, 285, 297, -1, -1660, 476, 14912, 595, 0, 0, 0, 0, 0
43, 149140885, 0, 0, 0, 0, 0, 0, 0, 0, 0, 417, 178, 4500, 286, 297, 0, -1624, 488, 14940, 595, 0, 0, 0, 0, 0
44, 149144702, 0, 0, 0, 0, 0, 0, 0, 0, 0, 417, 179, 4500, 284, 295, -2, -1548, 504, 14944, 595, 0, 0, 0, 0, 0
45, 149148697, 0, 0, 0, 0, 0, 0, 0, 0, 0, 417, 178, 4500, 287, 299, -1, -1716, 548, 15008, 595, 0, 0, 0, 0, 0
46, 149152437, 0, 0, 0, 0, 0, 0, 0, 0, 0, 416, 178, 4500, 286, 295, -1, -1604, 460, 15060, 595, 0, 0, 0, 0, 0
47, 149156311, 0, 0, 0, 0, 0, 0, 0, 0, 0, 417, 178, 4500, 286, 295, 0, -1636, 608, 14856, 595, 0, 0, 0, 0, 0
48, 149160190, 0, 0, 0, 0, 0, 0, 0, 0, 0, 417, 178, 4500, 285, 295, 0, -1648, 544, 14796, 595, 0, 0, 0, 0, 0
49, 149164050, 0, 0, 0, 0, 0, 0, 0, 0, 0, 416, 178, 4500, 287, 298, -2, -1560, 452, 14812, 595, 0, 0, 0, 0, 0
50, 149167913, 0, 0, 0, 0, 0, 0, 0, 0, 0, 417, 178, 4500, 285, 296, -2, -1656, 628, 14944, 595, 0, 0, 0, 0, 0
51, 149171821, 0, 0, 0, 0, 0, 0, 0, 0, 0, 417, 178, 4500, 285, 294, 1, -1592, 516, 14808, 595, 0, 0, 0, 0, 0
52, 149175637, 0, 0, 0, 0, 0, 0, 0, 0, 0, 417, 178, 4500, 286, 297, 1, -1596, 496, 14812, 595, 0, 0, 0, 0, 0
53, 149179512, 0, 0, 0, 0, 0, 0, 0, 0, 0, 416, 178, 4500, 287, 293, -1, -1632, 424, 14848, 595, 0, 0, 0, 0, 0
54, 149183379, 0, 0, 0, 0, 0, 0, 0, 0, 0, 415, 178, 4500, 289, 297, 0, -1556, 444, 14852, 595, 0, 0, 0, 0, 0
55, 149187248, 0, 0, 0, 0, 0, 0, 0, 0, 0, 415, 178, 4500, 287, 295, 1, -1600, 504, 14928, 595, 0, 0, 0, 0, 0
56, 149191115, 0, 0, 0, 0, 0, 0, 0, 0, 0, 415, 178, 4500, 285, 297, -3, -1552, 484, 14808, 595, 0, 0, 0, 0, 0
57, 149194984, 0, 0, 0, 0, 0, 0, 0, 0, 0, 415, 178, 4500, 285, 295, 0, -1652, 508, 14928, 595, 0, 0, 0, 0, 0
58, 149198876, 0, 0, 0, 0, 0, 0, 0, 0, 0, 415, 178, 4500, 285, 296, 1, -1576, 520, 14952, 595, 0, 0, 0, 0, 0
59, 149202802, 0, 0, 0, 0, 0, 0, 0, 0, 0, 416, 178, 4500, 284, 294, -1, -1588, 600, 14836, 595, 0, 0, 0, 0, 0
60, 149206582, 0, 0, 0, 0, 0, 0, 0, 0, 0, 416, 178, 4500, 286, 296, -1, -1596, 520, 14880, 595, 0, 0, 0, 0, 0
61, 149210462, 0, 0, 0, 0, 0, 0, 0, 0, 0, 416, 179, 4500, 287, 295, 0, -1548, 564, 14912, 595, 0, 0, 0, 0, 0
62, 149214318, 0, 0, 0, 0, 0, 0, 0, 0, 0, 415, 179, 4500, 286, 296, 2, -1592, 424, 14904, 595, 0, 0, 0, 0, 0
63, 149218192, 0, 0, 0, 0, 0, 0, 0, 0, 0, 415, 179, 4500, 283, 295, -1, -1660, 560, 14920, 595, 0, 0, 0, 0, 0
64, 149222054, 0, 0, 0, 0, 0, 0, 0, 0, 0, 415, 179, 4500, 286, 294, 0, -1648, 476, 14876, 595, 0, 0, 0, 0, 0
65, 149225920, 0, 0, 0, 0, 0, 0, 0, 0, 0, 415, 179, 4500, 283, 294, -2, -1640, 536, 14920, 595, 0, 0, 0, 0, 0
66, 149229787, 0, 0, 0, 0, 0, 0, 0, 0, 0, 415, 179, 4500, 287, 295, 0, -1656, 540, 14812, 595, 0, 0, 0, 0, 0
67, 149233700, 0, 0, 0, 0, 0, 0, 0, 0, 0, 416, 179, 4500, 286, 293, -3, -1644, 672, 14896, 595, 0, 0, 0, 0, 0
68, 149237523, 0, 0, 0, 0, 0, 0, 0, 0, 0, 416, 179, 4500, 284, 297, -2, -1620, 520, 14984, 595, 0, 0, 0, 0, 0
69, 149241390, 0, 0, 0, 0, 0, 0, 0, 0, 0, 416, 179, 4500, 287, 296, 1, -1612, 516, 14796, 595, 0, 0, 0, 0, 0
70, 149245281, 0, 0, 0, 0, 0, 0, 0, 0, 0, 416, 179, 4500, 288, 294, 0, -1652, 568, 14892, 595, 0, 0, 0, 0, 0
71, 149249147, 0, 0, 0, 0, 0, 0, 0, 0, 0, 416, 179, 4500, 287, 293, -1, -1588, 512, 14872, 595, 0, 0, 0, 0, 0
72, 149252993, 0, 0, 0, 0, 0, 0, 0, 0, 0, 416, 179, 4500, 287, 297, 0, -1600, 508, 14916, 595, 0, 0, 0, 0, 0
73, 149256867, 0, 0, 0, 0, 0, 0, 0, 0, 0, 416, 179, 4500, 286, 293, 0, -1620, 536, 14872, 595, 0, 0, 0, 0, 0
74, 149260729, 0, 0, 0, 0, 0, 0, 0, 0, 0, 416, 179, 4500, 288, 294, 0, -1604, 556, 14804, 595, 0, 0, 0, 0, 0
75, 149264643, 0, 0, 0, 0, 0, 0, 0, 0, 0, 415, 179, 4500, 288, 296, -1, -1616, 444, 14868, 595, 0, 0, 0, 0, 0
76, 149268465, 0, 0, 0, 0, 0, 0, 0, 0, 0, 415, 179, 4500, 285, 294, -2, -1564, 576, 14784, 595, 0, 0, 0, 0, 0
77, 149272334, 0, 0, 0, 0, 0, 0, 0, 0, 0, 415, 179, 4500, 287, 296, -3, -1628, 540, 14916, 595, 0, 0, 0, 0, 0
78, 149276201, 0, 0, 0, 0, 0, 0, 0, 0, 0, 416, 179, 4500, 284, 298, 2, -1676, 620, 14908, 595, 0, 0, 0, 0, 0
79, 149280063, 0, 0, 0, 0, 0, 0, 0, 0, 0, 417, 179, 4500, 288, 293, 0, -1624, 604, 14764, 595, 0, 0, 0, 0, 0
80, 149283939, 0, 0, 0, 0, 0, 0, 0, 0, 0, 417, 179, 4500, 287, 293, -2, -1552, 564, 14884, 595, 0, 0, 0, 0, 0
81, 149287803, 0, 0, 0, 0, 0, 0, 0, 0, 0, 417, 179, 4500, 288, 297, 0, -1636, 544, 14996, 595, 0, 0, 0, 0, 0
82, 149291664, 0, 0, 0, 0, 0, 0, 0, 0, 0, 417, 179, 4500, 284, 300, -1, -1660, 520, 14968, 595, 0, 0, 0, 0, 0
83, 149295581, 0, 0, 0, 0, 0, 0, 0, 0, 0, 417, 179, 4500, 286, 296, -3, -1580, 520, 14876, 595, 0, 0, 0, 0, 0
84, 149299442, 0, 0, 0, 0, 0, 0, 0, 0, 0, 417, 180, 4500, 288, 297, 1, -1496, 508, 14764, 595, 0, 0, 0, 0, 0
85, 149303269, 0, 0, 0, 0, 0, 0, 0, 0, 0, 418, 179, 4500, 287, 297, 1, -1696, 608, 14796, 595, 0, 0, 0, 0, 0
86, 149307144, 0, 0, 0, 0, 0, 0, 0, 0, 0, 418, 179, 4500, 284, 298, -1, -1580, 572, 14808, 595, 0, 0, 0, 0, 0
87, 149311007, 0, 0, 0, 0, 0, 0, 0, 0, 0, 418, 179, 4500, 286, 294, -1, -1660, 556, 14820, 595, 0, 0, 0, 0, 0
88, 149314875, 0, 0, 0, 0, 0, 0, 0, 0, 0, 418, 179, 4500, 286, 298, -2, -1660, 500, 14892, 595, 0, 0, 0, 0, 0
89, 149318752, 0, 0, 0, 0, 0, 0, 0, 0, 0, 418, 180, 4500, 285, 298, 0, -1544, 528, 15032, 595, 0, 0, 0, 0, 0
90, 149322605, 0, 0, 0, 0, 0, 0, 0, 0, 0, 418, 179, 4500, 284, 300, -2, -1676, 480, 15024, 595, 0, 0, 0, 0, 0
91, 149326525, 0, 0, 0, 0, 0, 0, 0, 0, 0, 418, 179, 4500, 285, 294, 0, -1644, 536, 14844, 595, 0, 0, 0, 0, 0
92, 149330350, 0, 0, 0, 0, 0, 0, 0, 0, 0, 418, 179, 4500, 286, 297, -1, -1600, 588, 14956, 595, 0, 0, 0, 0, 0
93, 149334209, 0, 0, 0, 0, 0, 0, 0, 0, 0, 418, 179, 4500, 287, 299, -1, -1652, 480, 14944, 595, 0, 0, 0, 0, 0
94, 149338081, 0, 0, 0, 0, 0, 0, 0, 0, 0, 418, 178, 4500, 286, 295, 0, -1684, 572, 14820, 595, 0, 0, 0, 0, 0
95, 149341946, 0, 0, 0, 0, 0, 0, 0, 0, 0, 419, 178, 4500, 286, 295, -2, -1612, 616, 14868, 595, 0, 0, 0, 0, 0
96, 149345809, 0, 0, 0, 0, 0, 0, 0, 0, 0, 419, 178, 4500, 286, 296, -1, -1632, 488, 14884, 595, 0, 0, 0, 0, 0
97, 149349698, 0, 0, 0, 0, 0, 0, 0, 0, 0, 419, 178, 4500, 285, 295, 0, -1584, 564, 14848, 595, 0, 0, 0, 0, 0
98, 149353547, 0, 0, 0, 0, 0, 0, 0, 0, 0, 419, 178, 4500, 285, 296, -2, -1592, 480, 14900, 595, 0, 0, 0, 0, 0
99, 149357461, 0, 0, 0, 0, 0, 0, 0, 0, 0, 419, 178, 4500, 287, 298, 0, -1668, 480, 14884, 595, 0, 0, 0, 0, 0
100, 149361283, 0, 0, 0, 0, 0, 0, 0, 0, 0, 419, 178, 4500, 285, 298, 0, -1560, 496, 14952, 595, 0, 0, 0, 0, 0
101, 149365148, 0, 0, 0, 0, 0, 0, 0, 0, 0, 419, 178, 4500, 284, 296, -3, -1584, 516, 14924, 595, 0, 0, 0, 0, 0
102, 149369024, 0, 0, 0, 0, 0, 0, 0, 0, 0, 419, 178, 4500, 287, 298, -2, -1636, 556, 15028, 595, 0, 0, 0, 0, 0
103, 149372887, 0, 0, 0, 0, 0, 0, 0, 0, 0, 419, 178, 4500, 286, 296, -2, -1616, 496, 14804, 595, 0, 0, 0, 0, 0
104, 149376752, 0, 0, 0, 0, 0, 0, 0, 0, 0, 419, 178, 4500, 285, 298, -3, -1552, 580, 14836, 595, 0, 0, 0, 0, 0
105, 149380625, 0, 0, 0, 0, 0, 0, 0, 0, 0, 419, 178, 4500, 287, 295, -1, -1660, 544, 14896, 595, 0, 0, 0, 0, 0
106, 149384487, 0, 0, 0, 0, 0, 0, 0, 0, 0, 419, 178, 4500, 283, 297, 1, -1652, 484, 14952, 595, 0, 0, 0, 0, 0
107, 149388400, 0, 0, 0, 0, 0, 0, 0, 0, 0, 419, 177, 4500, 286, 297, -2, -1684, 520, 14900, 595, 0, 0, 0, 0, 0
108, 149392243, 0, 0, 0, 0, 0, 0, 0, 0, 0, 419, 176, 4500, 286, 294, -1, -1688, 504, 14884, 595, 0, 0, 0, 0, 0
109, 149396090, 0, 0, 0, 0, 0, 0, 0, 0, 0, 419, 176, 4500, 289, 295, 0, -1588, 520, 14944, 595, 0, 0, 0, 0, 0
110, 149399974, 0, 0, 0, 0, 0, 0, 0, 0, 0, 419, 176, 4500, 287, 295, -1, -1608, 552, 14788, 595, 0, 0, 0, 0, 0
111, 149403834, 0, 0, 0, 0, 0, 0, 0, 0, 0, 419, 177, 4500, 287, 295, 0, -1540, 504, 14800, 595, 0, 0, 0, 0, 0
112, 149407693, 0, 0, 0, 0, 0, 0, 0, 0, 0, 419, 178, 4500, 285, 295, 0, -1524, 504, 14976, 595, 0, 0, 0, 0, 0
113, 149411559, 0, 0, 0, 0, 0, 0, 0, 0, 0, 419, 178, 4500, 287, 298, 0, -1628, 576, 15000, 595, 0, 0, 0, 0, 0
114, 149415435, 0, 0, 0, 0, 0, 0, 0, 0, 0, 419, 177, 4500, 286, 295, -1, -1708, 484, 14816, 595, 0, 0, 0, 0, 0
115, 149419349, 0, 0, 0, 0, 0, 0, 0, 0, 0, 419, 177, 4500, 283, 295, 0, -1620, 532, 14900, 595, 0, 0, 0, 0, 0
116, 149423159, 0, 0, 0, 0, 0, 0, 0, 0, 0, 419, 177, 4500, 286, 296, -1, -1676, 520, 14872, 595, 0, 0, 0, 0, 0
117, 149427028, 0, 0, 0, 0, 0, 0, 0, 0, 0, 420, 177, 4500, 285, 294, 0, -1624, 628, 14944, 595, 0, 0, 0, 0, 0
118, 149430896, 0, 0, 0, 0, 0, 0, 0, 0, 0, 420, 177, 4500, 286, 296, -2, -1616, 572, 14840, 595, 0, 0, 0, 0, 0
119, 149434766, 0, 0, 0, 0, 0, 0, 0, 0, 0, 420, 177, 4500, 286, 296, 0, -1676, 564, 14896, 595, 0, 0, 0, 0, 0
120, 149438634, 0, 0, 0, 0, 0, 0, 0, 0, 0, 420, 177, 4500, 287, 297, 0, -1676, 576, 14812, 595, 0, 0, 0, 0, 0
121, 149442502, 0, 0, 0, 0, 0, 0, 0, 0, 0, 421, 177, 4500, 288, 295, -2, -1672, 636, 14880, 595, 0, 0, 0, 0, 0
122, 149446370, 0, 0, 0, 0, 0, 0, 0, 0, 0, 421, 178, 4500, 286, 292, -3, -1536, 496, 14848, 595, 0, 0, 0, 0, 0
123, 149450309, 0, 0, 0, 0, 0, 0, 0, 0, 0, 421, 178, 4500, 284, 295, 0, -1664, 508, 14796, 602, 0, 0, 0, 0, 0
124, 149454113, 0, 0, 0, 0, 0, 0, 0, 0, 0, 421, 178, 4500, 286, 295, 0, -1616, 540, 14776, 602, 0, 0, 0, 0, 0
125, 149457972, 0, 0, 0, 0, 0, 0, 0, 0, 0, 421, 178, 4500, 286, 297, -1, -1588, 484, 14940, 602, 0, 0, 0, 0, 0
126, 149461847, 0, 0, 0, 0, 0, 0, 0, 0, 0, 420, 178, 4500, 285, 296, -1, -1644, 456, 14968, 602, 0, 0, 0, 0, 0
127, 149465706, 0, 0, 0, 0, 0, 0, 0, 0, 0, 420, 178, 4500, 285, 297, 0, -1572, 600, 14940, 602, 0, 0, 0, 0, 0
128, 149469574, 0, 0, 0, 0, 0, 0, 0, 0, 0, 420, 178, 4500, 285, 296, -1, -1588, 556, 14768, 602, 0, 0, 0, 0, 0
129, 149473442, 0, 0, 0, 0, 0, 0, 0, 0, 0, 421, 179, 4500, 284, 298, -1, -1524, 656, 14784, 602, 0, 0, 0, 0, 0
130, 149477309, 0, 0, 0, 0, 0, 0, 0, 0, 0, 421, 179, 4500, 285, 297, -2, -1664, 592, 14964, 602, 0, 0, 0, 0, 0
131, 149481222, 0, 0, 0, 0, 0, 0, 0, 0, 0, 422, 178, 4500, 283, 300, 1, -1684, 652, 14908, 602, 0, 0, 0, 0, 0
132, 149485045, 0, 0, 0, 0, 0, 0, 0, 0, 0, 422, 178, 4500, 285, 294, 2, -1624, 572, 14912, 602, 0, 0, 0, 0, 0
133, 149488913, 0, 0, 0, 0, 0, 0, 0, 0, 0, 422, 178, 4500, 286, 294, -2, -1656, 572, 14872, 602, 0, 0, 0, 0, 0
134, 149492778, 0, 0, 0, 0, 0, 0, 0, 0, 0, 422, 178, 4500, 287, 294, -2, -1620, 544, 14788, 602, 0, 0, 0, 0, 0
135, 149496672, 0, 0, 0, 0, 0, 0, 0, 0, 0, 422, 178, 4500, 284, 295, 0, -1588, 540, 14876, 602, 0, 0, 0, 0, 0
136, 149500527, 0, 0, 0, 0, 0, 0, 0, 0, 0, 421, 177, 4500, 286, 293, 1, -1688, 464, 14808, 595, 0, 0, 0, 0, 0
137, 149504376, 0, 0, 0, 0, 0, 0, 0, 0, 0, 420, 177, 4500, 284, 295, -1, -1620, 436, 14800, 595, 0, 0, 0, 0, 0
138, 149508248, 0, 0, 0, 0, 0, 0, 0, 0, 0, 419, 177, 4500, 286, 297, -1, -1556, 436, 14668, 595, 0, 0, 0, 0, 0
139, 149512162, 0, 0, 0, 0, 0, 0, 0, 0, 0, 419, 177, 4500, 285, 298, 0, -1600, 544, 14920, 595, 0, 0, 0, 0, 0
140, 149515984, 0, 0, 0, 0, 0, 0, 0, 0, 0, 419, 177, 4500, 286, 296, -1, -1568, 504, 14716, 595, 0, 0, 0, 0, 0
141, 149519847, 0, 0, 0, 0, 0, 0, 0, 0, 0, 419, 177, 4500, 289, 294, -1, -1588, 480, 14844, 595, 0, 0, 0, 0, 0
142, 149523720, 0, 0, 0, 0, 0, 0, 0, 0, 0, 419, 176, 4500, 286, 299, -2, -1704, 488, 14804, 595, 0, 0, 0, 0, 0
143, 149527582, 0, 0, 0, 0, 0, 0, 0, 0, 0, 419, 176, 4500, 286, 294, 0, -1600, 596, 14868, 595, 0, 0, 0, 0, 0
144, 149531449, 0, 0, 0, 0, 0, 0, 0, 0, 0, 418, 176, 4500, 287, 293, 2, -1592, 456, 14752, 595, 0, 0, 0, 0, 0
145, 149535326, 0, 0, 0, 0, 0, 0, 0, 0, 0, 418, 176, 4500, 286, 297, 0, -1584, 520, 14792, 595, 0, 0, 0, 0, 0
146, 149539209, 0, 0, 0, 0, 0, 0, 0, 0, 0, 418, 176, 4500, 286, 296, 0, -1628, 516, 14804, 595, 0, 0, 0, 0, 0
147, 149543100, 0, 0, 0, 0, 0, 0, 0, 0, 0, 418, 177, 4500, 286, 298, 1, -1540, 540, 14872, 595, 0, 0, 0, 0, 0
148, 149546923, 0, 0, 0, 0, 0, 0, 0, 0, 0, 418, 177, 4500, 285, 296, -4, -1644, 504, 14956, 595, 0, 0, 0, 0, 0
149, 149550819, 0, 0, 0, 0, 0, 0, 0, 0, 0, 418, 177, 4500, 286, 297, -1, -1588, 516, 14988, 595, 0, 0, 0, 0, 0
150, 149554659, 0, 0, 0, 0, 0, 0, 0, 0, 0, 418, 178, 4500, 286, 295, 1, -1508, 508, 14836, 595, 0, 0, 0, 0, 0
151, 149558532, 0, 0, 0, 0, 0, 0, 0, 0, 0, 418, 178, 4500, 285, 296, -2, -1620, 576, 14900, 595, 0, 0, 0, 0, 0
152, 149562394, 0, 0, 0, 0, 0, 0, 0, 0, 0, 417, 177, 4500, 285, 294, -3, -1680, 436, 14908, 595, 0, 0, 0, 0, 0
153, 149566270, 0, 0, 0, 0, 0, 0, 0, 0, 0, 417, 177, 4500, 285, 298, 0, -1576, 596, 14764, 595, 0, 0, 0, 0, 0
154, 149570129, 0, 0, 0, 0, 0, 0, 0, 0, 0, 417, 177, 4500, 284, 294, -2, -1632, 500, 14936, 595, 0, 0, 0, 0, 0
155, 149574048, 0, 0, 0, 0, 0, 0, 0, 0, 0, 416, 177, 4500, 282, 293, -1, -1560, 460, 14924, 595, 0, 0, 0, 0, 0
156, 149577861, 0, 0, 0, 0, 0, 0, 0, 0, 0, 416, 177, 4500, 287, 295, -1, -1624, 516, 14852, 595, 0, 0, 0, 0, 0
157, 149581729, 0, 0, 0, 0, 0, 0, 0, 0, 0, 416, 177, 4500, 285, 295, -3, -1592, 476, 14732, 595, 0, 0, 0, 0, 0
158, 149585595, 0, 0, 0, 0, 0, 0, 0, 0, 0, 416, 177, 4500, 287, 296, -2, -1668, 484, 14948, 595, 0, 0, 0, 0, 0
159, 149589463, 0, 0, 0, 0, 0, 0, 0, 0, 0, 416, 177, 4500, 289, 291, 1, -1616, 484, 14824, 595, 0, 0, 0, 0, 0
160, 149593337, 0, 0, 0, 0, 0, 0, 0, 0, 0, 416, 177, 4500, 285, 297, 0, -1672, 504, 14796, 595, 0, 0, 0, 0, 0
161, 149597199, 0, 0, 0, 0, 0, 0, 0, 0, 0, 416, 177, 4500, 289, 294, 0, -1636, 580, 14864, 595, 0, 0, 0, 0, 0
162, 149601115, 0, 0, 0, 0, 0, 0, 0, 0, 0, 416, 177, 4500, 284, 300, 0, -1652, 576, 15020, 595, 0, 0, 0, 0, 0
163, 149604978, 0, 0, 0, 0, 0, 0, 0, 0, 0, 416, 177, 4500, 286, 296, 0, -1660, 520, 14784, 595, 0, 0, 0, 0, 0
164, 149608804, 0, 0, 0, 0, 0, 0, 0, 0, 0, 416, 177, 4500, 285, 296, -2, -1628, 564, 14848, 595, 0, 0, 0, 0, 0
165, 149612669, 0, 0, 0, 0, 0, 0, 0, 0, 0, 416, 177, 4500, 288, 295, -1, -1636, 504, 14912, 595, 0, 0, 0, 0, 0
166, 149616541, 0, 0, 0, 0, 0, 0, 0, 0, 0, 416, 177, 4500, 286, 298, 0, -1564, 560, 14980, 595, 0, 0, 0, 0, 0
167, 149620406, 0, 0, 0, 0, 0, 0, 0, 0, 0, 416, 177, 4500, 287, 294, -1, -1676, 564, 14960, 595, 0, 0, 0, 0, 0
168, 149624279, 0, 0, 0, 0, 0, 0, 0, 0, 0, 416, 177, 4500, 287, 296, 0, -1644, 576, 14860, 595, 0, 0, 0, 0, 0
169, 149628135, 0, 0, 0, 0, 0, 0, 0, 0, 0, 416, 177, 4500, 286, 295, -3, -1624, 580, 14908, 595, 0, 0, 0, 0, 0
170, 149632004, 0, 0, 0, 0, 0, 0, 0, 0, 0, 416, 177, 4500, 285, 296, 2, -1644, 520, 14784, 595, 0, 0, 0, 0, 0
171, 149635917, 0, 0, 0, 0, 0, 0, 0, 0, 0, 417, 178, 4500, 286, 295, -2, -1516, 640, 14908, 595, 0, 0, 0, 0, 0
172, 149639740, 0, 0, 0, 0, 0, 0, 0, 0, 0, 418, 178, 4500, 285, 295, 0, -1572, 620, 14816, 595, 0, 0, 0, 0, 0
173, 149643626, 0, 0, 0, 0, 0, 0, 0, 0, 0, 419, 178, 4500, 287, 295, -2, -1668, 620, 14736, 595, 0, 0, 0, 0, 0
174, 149647473, 0, 0, 0, 0, 0, 0, 0, 0, 0, 420, 178, 4500, 285, 296, -1, -1580, 620, 14908, 595, 0, 0, 0, 0, 0
175, 149651355, 0, 0, 0, 0, 0, 0, 0, 0, 0, 420, 178, 4500, 285, 292, -1, -1556, 568, 14840, 595, 0, 0, 0, 0, 0
176, 149655207, 0, 0, 0, 0, 0, 0, 0, 0, 0, 420, 178, 4500, 285, 296, 0, -1576, 540, 15028, 595, 0, 0, 0, 0, 0
177, 149659075, 0, 0, 0, 0, 0, 0, 0, 0, 0, 420, 178, 4500, 284, 297, 0, -1592, 560, 14988, 595, 0, 0, 0, 0, 0
178, 149662954, 0, 0, 0, 0, 0, 0, 0, 0, 0, 420, 178, 4500, 287, 294, 0, -1612, 484, 15016, 595, 0, 0, 0, 0, 0
179, 149666863, 0, 0, 0, 0, 0, 0, 0, 0, 0, 420, 178, 4500, 287, 296, -1, -1628, 500, 14844, 595, 0, 0, 0, 0, 0
180, 149670685, 0, 0, 0, 0, 0, 0, 0, 0, 0, 420, 179, 4500, 286, 296, 0, -1540, 496, 14800, 595, 0, 0, 0, 0, 0
181, 149674547, 0, 0, 0, 0, 0, 0, 0, 0, 0, 420, 179, 4500, 286, 297, -1, -1636, 548, 14672, 595, 0, 0, 0, 0, 0
182, 149678415, 0, 0, 0, 0, 0, 0, 0, 0, 0, 420, 180, 4500, 285, 294, 0, -1488, 564, 14940, 595, 0, 0, 0, 0, 0
183, 149682286, 0, 0, 0, 0, 0, 0, 0, 0, 0, 419, 181, 4500, 289, 296, -2, -1532, 452, 15000, 595, 0, 0, 0, 0, 0
184, 149686159, 0, 0, 0, 0, 0, 0, 0, 0, 0, 418, 180, 4500, 285, 298, -1, -1696, 440, 14892, 595, 0, 0, 0, 0, 0
185, 149690014, 0, 0, 0, 0, 0, 0, 0, 0, 0, 418, 180, 4500, 286, 296, -2, -1572, 492, 15104, 595, 0, 0, 0, 0, 0
186, 149693883, 0, 0, 0, 0, 0, 0, 0, 0, 0, 417, 180, 4500, 288, 296, 0, -1572, 468, 14876, 595, 0, 0, 0, 0, 0
187, 149697797, 0, 0, 0, 0, 0, 0, 0, 0, 0, 417, 179, 4500, 283, 294, 0, -1680, 544, 14860, 595, 0, 0, 0, 0, 0
188, 149701663, 0, 0, 0, 0, 0, 0, 0, 0, 0, 417, 179, 4500, 287, 296, 0, -1664, 508, 14992, 595, 0, 0, 0, 0, 0
189, 149705496, 0, 0, 0, 0, 0, 0, 0, 0, 0, 417, 180, 4500, 285, 297, 0, -1548, 560, 14916, 595, 0, 0, 0, 0, 0
190, 149709359, 0, 0, 0, 0, 0, 0, 0, 0, 0, 417, 180, 4500, 284, 296, 0, -1616, 524, 14988, 595, 0, 0, 0, 0, 0
191, 149713222, 0, 0, 0, 0, 0, 0, 0, 0, 0, 417, 180, 4500, 286, 297, -1, -1592, 500, 14800, 595, 0, 0, 0, 0, 0
192, 149717084, 0, 0, 0, 0, 0, 0, 0, 0, 0, 417, 180, 4500, 285, 296, -2, -1604, 556, 14900, 595, 0, 0, 0, 0, 0
193, 149720951, 0, 0, 0, 0, 0, 0, 0, 0, 0, 418, 180, 4500, 286, 296, -2, -1620, 648, 14988, 595, 0, 0, 0, 0, 0
194, 149724820, 0, 0, 0, 0, 0, 0, 0, 0, 0, 418, 180, 4500, 285, 297, -4, -1628, 588, 14800, 595, 0, 0, 0, 0, 0
195, 149728743, 0, 0, 0, 0, 0, 0, 0, 0, 0, 418, 180, 4500, 285, 294, -2, -1620, 536, 14872, 595, 0, 0, 0, 0, 0
196, 149732557, 0, 0, 0, 0, 0, 0, 0, 0, 0, 418, 180, 4500, 285, 295, -3, -1584, 520, 14928, 595, 0, 0, 0, 0, 0
197, 149736433, 0, 0, 0, 0, 0, 0, 0, 0, 0, 418, 180, 4500, 284, 296, 1, -1672, 520, 14896, 595, 0, 0, 0, 0, 0
198, 149740296, 0, 0, 0, 0, 0, 0, 0, 0, 0, 418, 180, 4500, 285, 296, -2, -1672, 572, 14816, 595, 0, 0, 0, 0, 0
199, 149744159, 0, 0, 0, 0, 0, 0, 0, 0, 0, 418, 179, 4500, 286, 295, -1, -1684, 552, 14772, 595, 0, 0, 0, 0, 0
200, 149748072, 0, 0, 0, 0, 0, 0, 0, 0, 0, 418, 180, 4500, 286, 295, -3, -1488, 508, 14732, 595, 0, 0, 0, 0, 0
201, 149751905, 0, 0, 0, 0, 0, 0, 0, 0, 0, 418, 179, 4500, 286, 296, -3, -1716, 540, 14768, 595, 0, 0, 0, 0, 0
202, 149755759, 0, 0, 0, 0, 0, 0, 0, 0, 0, 418, 179, 4500, 286, 294, 1, -1644, 592, 14824, 595, 0, 0, 0, 0, 0
203, 149759673, 0, 0, 0, 0, 0, 0, 0, 0, 0, 418, 179, 4500, 288, 296, 0, -1576, 520, 14892, 595, 0, 0, 0, 0, 0
204, 149763495, 0, 0, 0, 0, 0, 0, 0, 0, 0, 419, 179, 4500, 287, 294, 3, -1676, 644, 14876, 595, 0, 0, 0, 0, 0
205, 149767363, 0, 0, 0, 0, 0, 0, 0, 0, 0, 419, 179, 4500, 286, 296, -3, -1644, 528, 14956, 595, 0, 0, 0, 0, 0
206, 149771239, 0, 0, 0, 0, 0, 0, 0, 0, 0, 418, 179, 4500, 285, 296, 2, -1568, 424, 14864, 595, 0, 0, 0, 0, 0
207, 149775097, 0, 0, 0, 0, 0, 0, 0, 0, 0, 419, 179, 4500, 285, 297, 0, -1608, 612, 14916, 595, 0, 0, 0, 0, 0
208, 149778965, 0, 0, 0, 0, 0, 0, 0, 0, 0, 419, 179, 4500, 284, 295, 0, -1616, 588, 14812, 595, 0, 0, 0, 0, 0
209, 149782830, 0, 0, 0, 0, 0, 0, 0, 0, 0, 419, 180, 4500, 284, 293, -1, -1548, 496, 14972, 595, 0, 0, 0, 0, 0
210, 149786702, 0, 0, 0, 0, 0, 0, 0, 0, 0, 418, 180, 4500, 287, 295, -1, -1612, 436, 14856, 595, 0, 0, 0, 0, 0
211, 149790657, 0, 0, 0, 0, 0, 0, 0, 0, 0, 418, 179, 4500, 287, 296, 0, -1684, 508, 14948, 595, 0, 0, 0, 0, 0
212, 149794432, 0, 0, 0, 0, 0, 0, 0, 0, 0, 418, 178, 4500, 288, 294, -1, -1688, 476, 14704, 595, 0, 0, 0, 0, 0
213, 149798304, 0, 0, 0, 0, 0, 0, 0, 0, 0, 417, 178, 4500, 285, 294, 0, -1584, 428, 14960, 595, 0, 0, 0, 0, 0
214, 149802208, 0, 0, 0, 0, 0, 0, 0, 0, 0, 417, 178, 4500, 285, 296, -1, -1644, 568, 14832, 595, 0, 0, 0, 0, 0
215, 149806039, 0, 0, 0, 0, 0, 0, 0, 0, 0, 417, 178, 4500, 285, 294, -1, -1644, 544, 15044, 595, 0, 0, 0, 0, 0
216, 149809907, 0, 0, 0, 0, 0, 0, 0, 0, 0, 417, 177, 4500, 288, 298, -2, -1692, 516, 15024, 595, 0, 0, 0, 0, 0
217, 149813772, 0, 0, 0, 0, 0, 0, 0, 0, 0, 417, 177, 4500, 289, 298, 3, -1628, 548, 14944, 595, 0, 0, 0, 0, 0
218, 149817637, 0, 0, 0, 0, 0, 0, 0, 0, 0, 417, 177, 4500, 286, 300, -2, -1552, 492, 14864, 595, 0, 0, 0, 0, 0
219, 149821550, 0, 0, 0, 0, 0, 0, 0, 0, 0, 417, 177, 4500, 285, 293, -1, -1652, 496, 14840, 595, 0, 0, 0, 0, 0
220, 149825376, 0, 0, 0, 0, 0, 0, 0, 0, 0, 417, 177, 4500, 285, 299, -1, -1656, 548, 14940, 595, 0, 0, 0, 0, 0
221, 149829241, 0, 0, 0, 0, 0, 0, 0, 0, 0, 417, 177, 4500, 284, 296, -1, -1632, 588, 14840, 595, 0, 0, 0, 0, 0
222, 149833113, 0, 0, 0, 0, 0, 0, 0, 0, 0, 417, 177, 4500, 286, 296, 1, -1640, 492, 14856, 595, 0, 0, 0, 0, 0
223, 149836977, 0, 0, 0, 0, 0, 0, 0, 0, 0, 416, 177, 4500, 284, 297, 0, -1568, 460, 14956, 595, 0, 0, 0, 0, 0
224, 149840850, 0, 0, 0, 0, 0, 0, 0, 0, 0, 416, 177, 4500, 285, 297, -2, -1600, 524, 14968, 595, 0, 0, 0, 0, 0
225, 149844710, 0, 0, 0, 0, 0, 0, 0, 0, 0, 416, 177, 4500, 285, 297, 0, -1644, 588, 14852, 595, 0, 0, 0, 0, 0
226, 149848691, 0, 0, 0, 0, 0, 0, 0, 0, 0, 416, 176, 4500, 287, 294, 1, -1688, 528, 14876, 595, 0, 0, 0, 0, 0
227, 149852511, 0, 0, 0, 0, 0, 0, 0, 0, 0, 416, 176, 4500, 285, 295, -1, -1552, 516, 14848, 595, 0, 0, 0, 0, 0
228, 149856321, 0, 0, 0, 0, 0, 0, 0, 0, 0, 415, 175, 4500, 285, 294, 2, -1680, 396, 14848, 595, 0, 0, 0, 0, 0
229, 149860180, 0, 0, 0, 0, 0, 0, 0, 0, 0, 415, 175, 4500, 282, 292, -3, -1628, 564, 14908, 595, 0, 0, 0, 0, 0
230, 149864045, 0, 0, 0, 0, 0, 0, 0, 0, 0, 414, 175, 4500, 288, 297, 0, -1604, 460, 14748, 595, 0, 0, 0, 0, 0
231, 149867925, 0, 0, 0, 0, 0, 0, 0, 0, 0, 414, 176, 4500, 285, 295, -2, -1488, 476, 14956, 595, 0, 0, 0, 0, 0
232, 149871783, 0, 0, 0, 0, 0, 0, 0, 0, 0, 414, 175, 4500, 284, 295, -1, -1700, 528, 14836, 595, 0, 0, 0, 0, 0
233, 149875649, 0, 0, 0, 0, 0, 0, 0, 0, 0, 414, 175, 4500, 286, 295, -1, -1632, 540, 14896, 595, 0, 0, 0, 0, 0
234, 149879516, 0, 0, 0, 0, 0, 0, 0, 0, 0, 414, 174, 4500, 286, 297, -3, -1712, 596, 14828, 595, 0, 0, 0, 0, 0
235, 149883430, 0, 0, 0, 0, 0, 0, 0, 0, 0, 414, 174, 4500, 287, 292, 0, -1660, 592, 14800, 595, 0, 0, 0, 0, 0
236, 149887253, 0, 0, 0, 0, 0, 0, 0, 0, 0, 414, 174, 4500, 284, 294, -1, -1640, 584, 14812, 595, 0, 0, 0, 0, 0
237, 149891119, 0, 0, 0, 0, 0, 0, 0, 0, 0, 414, 174, 4500, 286, 295, 0, -1620, 556, 14784, 595, 0, 0, 0, 0, 0
238, 149895033, 0, 0, 0, 0, 0, 0, 0, 0, 0, 414, 174, 4500, 285, 297, -2, -1616, 544, 14940, 595, 0, 0, 0, 0, 0
239, 149898883, 0, 0, 0, 0, 0, 0, 0, 0, 0, 415, 175, 4500, 286, 295, -1, -1536, 600, 14752, 595, 0, 0, 0, 0, 0
240, 149902730, 0, 0, 0, 0, 0, 0, 0, 0, 0, 414, 175, 4500, 286, 298, -1, -1592, 456, 14876, 595, 0, 0, 0, 0, 0
241, 149906589, 0, 0, 0, 0, 0, 0, 0, 0, 0, 414, 175, 4500, 288, 295, 0, -1656, 484, 14908, 595, 0, 0, 0, 0, 0
242, 149910456, 0, 0, 0, 0, 0, 0, 0, 0, 0, 415, 175, 4500, 287, 295, -2, -1628, 604, 14812, 595, 0, 0, 0, 0, 0
243, 149914370, 0, 0, 0, 0, 0, 0, 0, 0, 0, 415, 175, 4500, 287, 295, -1, -1664, 532, 14940, 595, 0, 0, 0, 0, 0
244, 149918191, 0, 0, 0, 0, 0, 0, 0, 0, 0, 415, 175, 4500, 286, 293, 0, -1580, 548, 14968, 595, 0, 0, 0, 0, 0
245, 149922058, 0, 0, 0, 0, 0, 0, 0, 0, 0, 415, 175, 4500, 287, 296, 1, -1608, 544, 14888, 595, 0, 0, 0, 0, 0
246, 149925926, 0, 0, 0, 0, 0, 0, 0, 0, 0, 415, 175, 4500, 287, 297, -3, -1620, 504, 14868, 595, 0, 0, 0, 0, 0
247, 149929794, 0, 0, 0, 0, 0, 0, 0, 0, 0, 415, 176, 4500, 288, 294, 0, -1524, 512, 14888, 595, 0, 0, 0, 0, 0
248, 149933661, 0, 0, 0, 0, 0, 0, 0, 0, 0, 415, 176, 4500, 286, 295, -3, -1640, 492, 14740, 595, 0, 0, 0, 0, 0
249, 149937555, 0, 0, 0, 0, 0, 0, 0, 0, 0, 415, 176, 4500, 285, 296, 0, -1572, 596, 14728, 595, 0, 0, 0, 0, 0
250, 149941403, 0, 0, 0, 0, 0, 0, 0, 0, 0, 415, 176, 4500, 284, 298, -1, -1644, 492, 14964, 595, 0, 0, 0, 0, 0
251, 149945313, 0, 0, 0, 0, 0, 0, 0, 0, 0, 415, 175, 4500, 286, 295, -2, -1764, 592, 14884, 595, 0, 0, 0, 0, 0
252, 149949141, 0, 0, 0, 0, 0, 0, 0, 0, 0, 415, 175, 4500, 283, 295, 0, -1560, 560, 15000, 595, 0, 0, 0, 0, 0
253, 149953002, 0, 0, 0, 0, 0, 0, 0, 0, 0, 415, 176, 4500, 286, 294, 0, -1532, 572, 14840, 595, 0, 0, 0, 0, 0
254, 149956862, 0, 0, 0, 0, 0, 0, 0, 0, 0, 415, 175, 4500, 286, 299, -3, -1680, 476, 14820, 595, 0, 0, 0, 0, 0
255, 149960728, 0, 0, 0, 0, 0, 0, 0, 0, 0, 415, 175, 4500, 285, 294, -1, -1576, 524, 14860, 595, 0, 0, 0, 0, 0
256, 149964597, 0, 0, 0, 0, 0, 0, 0, 0, 0, 414, 175, 4500, 285, 296, -1, -1668, 460, 14876, 595, 0, 0, 0, 0, 0
257, 149968468, 0, 0, 0, 0, 0, 0, 0, 0, 0, 414, 174, 4500, 286, 296, -3, -1692, 584, 14856, 595, 0, 0, 0, 0, 0
258, 149972336, 0, 0, 0, 0, 0, 0, 0, 0, 0, 414, 174, 4500, 286, 295, -2, -1660, 592, 14964, 595, 0, 0, 0, 0, 0
259, 149976257, 0, 0, 0, 0, 0, 0, 0, 0, 0, 413, 174, 4500, 290, 299, 1, -1612, 440, 14864, 595, 0, 0, 0, 0, 0
260, 149980089, 0, 0, 0, 0, 0, 0, 0, 0, 0, 413, 174, 4500, 284, 294, 0, -1616, 512, 14956, 595, 0, 0, 0, 0, 0
261, 149983934, 0, 0, 0, 0, 0, 0, 0, 0, 0, 413, 174, 4500, 286, 297, 0, -1600, 548, 15056, 595, 0, 0, 0, 0, 0
262, 149987812, 0, 0, 0, 0, 0, 0, 0, 0, 0, 413, 173, 4500, 287, 298, 0, -1684, 512, 14940, 595, 0, 0, 0, 0, 0
263, 149991669, 0, 0, 0, 0, 0, 0, 0, 0, 0, 414, 172, 4500, 286, 295, -2, -1696, 604, 14896, 595, 0, 0, 0, 0, 0
264, 149995540, 0, 0, 0, 0, 0, 0, 0, 0, 0, 414, 172, 4500, 287, 297, -2, -1644, 484, 14884, 595, 0, 0, 0, 0, 0
265, 149999463, 0, 0, 0, 0, 0, 0, 0, 0, 0, 415, 172, 4500, 284, 297, 1, -1676, 628, 15008, 595, 0, 0, 0, 0, 0
266, 150003275, 0, 0, 0, 0, 0, 0, 0, 0, 0, 415, 172, 4500, 285, 296, -2, -1576, 536, 14896, 595, 0, 0, 0, 0, 0
267, 150007189, 0, 0, 0, 0, 0, 0, 0, 0, 0, 415, 173, 4500, 287, 294, -2, -1540, 520, 14820, 595, 0, 0, 0, 0, 0
268, 150011010, 0, 0, 0, 0, 0, 0, 0, 0, 0, 415, 174, 4500, 286, 293, -2, -1524, 564, 14836, 595, 0, 0, 0, 0, 0
269, 150014878, 0, 0, 0, 0, 0, 0, 0, 0, 0, 415, 174, 4500, 286, 294, -3, -1568, 524, 15032, 595, 0, 0, 0, 0, 0
270, 150018752, 0, 0, 0, 0, 0, 0, 0, 0, 0, 415, 174, 4500, 288, 298, 0, -1568, 528, 14916, 595, 0, 0, 0, 0, 0
271, 150022613, 0, 0, 0, 0, 0, 0, 0, 0, 0, 416, 174, 4500, 286, 296, -1, -1588, 612, 14988, 595, 0, 0, 0, 0, 0
272, 150026487, 0, 0, 0, 0, 0, 0, 0, 0, 0, 416, 175, 4500, 286, 296, 1, -1548, 512, 14972, 595, 0, 0, 0, 0, 0
273, 150030346, 0, 0, 0, 0, 0, 0, 0, 0, 0, 416, 175, 4500, 286, 299, 0, -1572, 560, 14916, 595, 0, 0, 0, 0, 0
274, 150034223, 0, 0, 0, 0, 0, 0, 0, 0, 0, 415, 175, 4500, 287, 297, -1, -1560, 464, 14904, 595, 0, 0, 0, 0, 0
275, 150038124, 0, 0, 0, 0, 0, 0, 0, 0, 0, 415, 175, 4500, 286, 297, -1, -1572, 520, 14964, 595, 0, 0, 0, 0, 0
276, 150041967, 0, 0, 0, 0, 0, 0, 0, 0, 0, 415, 175, 4500, 285, 297, -1, -1624, 532, 15048, 595, 0, 0, 0, 0, 0
277, 150045810, 0, 0, 0, 0, 0, 0, 0, 0, 0, 415, 175, 4500, 286, 294, -1, -1652, 532, 14848, 595, 0, 0, 0, 0, 0
278, 150049683, 0, 0, 0, 0, 0, 0, 0, 0, 0, 415, 175, 4500, 283, 295, -3, -1652, 508, 14776, 595, 0, 0, 0, 0, 0
279, 150053549, 0, 0, 0, 0, 0, 0, 0, 0, 0, 416, 175, 4500, 288, 298, -2, -1588, 624, 14856, 595, 0, 0, 0, 0, 0
280, 150057417, 0, 0, 0, 0, 0, 0, 0, 0, 0, 416, 175, 4500, 288, 296, -1, -1640, 476, 14968, 595, 0, 0, 0, 0, 0
281, 150061294, 0, 0, 0, 0, 0, 0, 0, 0, 0, 416, 175, 4500, 284, 295, 1, -1628, 512, 14972, 595, 0, 0, 0, 0, 0
282, 150065150, 0, 0, 0, 0, 0, 0, 0, 0, 0, 416, 175, 4500, 286, 293, -2, -1616, 492, 14824, 595, 0, 0, 0, 0, 0
283, 150069069, 0, 0, 0, 0, 0, 0, 0, 0, 0, 416, 175, 4500, 283, 297, 0, -1596, 552, 15000, 595, 0, 0, 0, 0, 0
284, 150072896, 0, 0, 0, 0, 0, 0, 0, 0, 0, 416, 175, 4500, 288, 294, -1, -1620, 576, 14764, 595, 0, 0, 0, 0, 0
285, 150076755, 0, 0, 0, 0, 0, 0, 0, 0, 0, 416, 175, 4500, 283, 295, -3, -1632, 484, 14856, 595, 0, 0, 0, 0, 0
286, 150080620, 0, 0, 0, 0, 0, 0, 0, 0, 0, 416, 174, 4500, 285, 294, 0, -1720, 500, 14744, 595, 0, 0, 0, 0, 0
287, 150084521, 0, 0, 0, 0, 0, 0, 0, 0, 0, 415, 175, 4500, 287, 294, -2, -1548, 436, 14904, 595, 0, 0, 0, 0, 0
288, 150088360, 0, 0, 0, 0, 0, 0, 0, 0, 0, 415, 175, 4500, 286, 297, 2, -1584, 592, 15088, 595, 0, 0, 0, 0, 0
289, 150092221, 0, 0, 0, 0, 0, 0, 0, 0, 0, 415, 175, 4500, 287, 296, -2, -1588, 536, 14996, 595, 0, 0, 0, 0, 0
290, 150096089, 0, 0, 0, 0, 0, 0, 0, 0, 0, 414, 175, 4500, 284, 297, 0, -1560, 464, 14976, 595, 0, 0, 0, 0, 0
291, 150100018, 0, 0, 0, 0, 0, 0, 0, 0, 0, 414, 176, 4500, 289, 294, -1, -1544, 576, 14908, 595, 0, 0, 0, 0, 0
292, 150103826, 0, 0, 0, 0, 0, 0, 0, 0, 0, 414, 176, 4500, 285, 293, -2, -1640, 560, 14980, 595, 0, 0, 0, 0, 0
293, 150107692, 0, 0, 0, 0, 0, 0, 0, 0, 0, 414, 175, 4500, 287, 296, 0, -1692, 564, 14932, 595, 0, 0, 0, 0, 0
294, 150111568, 0, 0, 0, 0, 0, 0, 0, 0, 0, 414, 174, 4500, 284, 296, -3, -1688, 532, 14836, 595, 0, 0, 0, 0, 0
295, 150115426, 0, 0, 0, 0, 0, 0, 0, 0, 0, 415, 174, 4500, 283, 298, -2, -1664, 608, 14872, 595, 0, 0, 0, 0, 0
296, 150119295, 0, 0, 0, 0, 0, 0, 0, 0, 0, 415, 174, 4500, 286, 296, 0, -1652, 584, 14916, 595, 0, 0, 0, 0, 0
297, 150123176, 0, 0, 0, 0, 0, 0, 0, 0, 0, 416, 174, 4500, 286, 296, -1, -1668, 636, 14908, 595, 0, 0, 0, 0, 0
298, 150127046, 0, 0, 0, 0, 0, 0, 0, 0, 0, 416, 174, 4500, 284, 294, 2, -1620, 492, 14956, 595, 0, 0, 0, 0, 0
299, 150130944, 0, 0, 0, 0, 0, 0, 0, 0, 0, 416, 174, 4500, 287, 296, -1, -1668, 596, 15068, 595, 0, 0, 0, 0, 0
300, 150134765, 0, 0, 0, 0, 0, 0, 0, 0, 0, 416, 174, 4500, 287, 295, 0, -1588, 560, 14848, 595, 0, 0, 0, 0, 0
301, 150138632, 0, 0, 0, 0, 0, 0, 0, 0, 0, 416, 173, 4500, 284, 296, 2, -1692, 476, 14900, 595, 0, 0, 0, 0, 0
302, 150142504, 0, 0, 0, 0, 0, 0, 0, 0, 0, 416, 173, 4500, 288, 294, -1, -1596, 520, 14840, 595, 0, 0, 0, 0, 0
303, 150146385, 0, 0, 0, 0, 0, 0, 0, 0, 0, 416, 173, 4500, 285, 296, 0, -1652, 584, 14896, 595, 0, 0, 0, 0, 0
304, 150150265, 0, 0, 0, 0, 0, 0, 0, 0, 0, 415, 173, 4500, 287, 296, -1, -1648, 452, 14900, 595, 0, 0, 0, 0, 0
305, 150154101, 0, 0, 0, 0, 0, 0, 0, 0, 0, 415, 173, 4500, 287, 296, 1, -1612, 576, 14888, 595, 0, 0, 0, 0, 0
306, 150157980, 0, 0, 0, 0, 0, 0, 0, 0, 0, 416, 173, 4500, 284, 297, 0, -1632, 600, 14892, 595, 0, 0, 0, 0, 0
307, 150161887, 0, 0, 0, 0, 0, 0, 0, 0, 0, 416, 173, 4500, 287, 294, 0, -1588, 564, 14896, 595, 0, 0, 0, 0, 0
308, 150165715, 0, 0, 0, 0, 0, 0, 0, 0, 0, 416, 173, 4500, 288, 294, -1, -1576, 572, 14968, 595, 0, 0, 0, 0, 0
309, 150169576, 0, 0, 0, 0, 0, 0, 0, 0, 0, 417, 174, 4500, 284, 298, 0, -1516, 624, 14876, 595, 0, 0, 0, 0, 0
310, 150173443, 0, 0, 0, 0, 0, 0, 0, 0, 0, 416, 174, 4500, 286, 297, 2, -1600, 460, 14912, 595, 0, 0, 0, 0, 0
311, 150177309, 0, 0, 0, 0, 0, 0, 0, 0, 0, 416, 175, 4500, 288, 294, -1, -1536, 496, 14836, 595, 0, 0, 0, 0, 0
312, 150181177, 0, 0, 0, 0, 0, 0, 0, 0, 0, 416, 175, 4500, 285, 295, 1, -1556, 508, 14908, 595, 0, 0, 0, 0, 0
313, 150185045, 0, 0, 0, 0, 0, 0, 0, 0, 0, 416, 176, 4500, 286, 296, 0, -1528, 528, 14784, 595, 0, 0, 0, 0, 0
314, 150188933, 0, 0, 0, 0, 0, 0, 0, 0, 0, 415, 176, 4500, 288, 298, -1, -1624, 464, 14852, 595, 0, 0, 0, 0, 0
315, 150192823, 0, 0, 0, 0, 0, 0, 0, 0, 0, 414, 177, 4500, 285, 296, 0, -1524, 400, 14932, 595, 0, 0, 0, 0, 0
316, 150196640, 0, 0, 0, 0, 0, 0, 0, 0, 0, 414, 177, 4500, 286, 296, -4, -1572, 584, 14948, 595, 0, 0, 0, 0, 0
317, 150200541, 0, 0, 0, 0, 0, 0, 0, 0, 0, 414, 177, 4500, 287, 294, 0, -1596, 532, 14896, 595, 0, 0, 0, 0, 0
318, 150204377, 0, 0, 0, 0, 0, 0, 0, 0, 0, 414, 177, 4500, 286, 296, -1, -1584, 476, 14792, 595, 0, 0, 0, 0, 0
319, 150208247, 0, 0, 0, 0, 0, 0, 0, 0, 0, 414, 178, 4500, 287, 296, 0, -1492, 476, 14896, 595, 0, 0, 0, 0, 0
320, 150212115, 0, 0, 0, 0, 0, 0, 0, 0, 0, 414, 179, 4500, 286, 295, 1, -1536, 508, 14844, 595, 0, 0, 0, 0, 0
321, 150215983, 0, 0, 0, 0, 0, 0, 0, 0, 0, 414, 178, 4500, 286, 296, 0, -1724, 496, 14876, 595, 0, 0, 0, 0, 0
322, 150219849, 0, 0, 0, 0, 0, 0, 0, 0, 0, 414, 178, 4500, 283, 294, -1, -1584, 592, 14820, 595, 0, 0, 0, 0, 0
323, 150223766, 0, 0, 0, 0, 0, 0, 0, 0, 0, 414, 178, 4500, 286, 295, 1, -1612, 572, 14876, 595, 0, 0, 0, 0, 0
324, 150227586, 0, 0, 0, 0, 0, 0, 0, 0, 0, 413, 178, 4500, 286, 295, -2, -1600, 420, 14964, 595, 0, 0, 0, 0, 0
325, 150231510, 0, 0, 0, 0, 0, 0, 0, 0, 0, 412, 178, 4500, 286, 297, -2, -1648, 456, 14812, 595, 0, 0, 0, 0, 0
326, 150235321, 0, 0, 0, 0, 0, 0, 0, 0, 0, 412, 177, 4500, 289, 297, 0, -1708, 560, 14952, 595, 0, 0, 0, 0, 0
327, 150239192, 0, 0, 0, 0, 0, 0, 0, 0, 0, 413, 176, 4500, 286, 295, 0, -1684, 600, 15212, 595, 0, 0, 0, 0, 0
328, 150243059, 0, 0, 0, 0, 0, 0, 0, 0, 0, 413, 176, 4500, 287, 297, 3, -1628, 540, 14864, 595, 0, 0, 0, 0, 0
329, 150246921, 0, 0, 0, 0, 0, 0, 0, 0, 0, 413, 177, 4500, 287, 295, 2, -1504, 504, 14932, 595, 0, 0, 0, 0, 0
330, 150250831, 0, 0, 0, 0, 0, 0, 0, 0, 0, 412, 177, 4500, 285, 295, 0, -1636, 456, 14796, 595, 0, 0, 0, 0, 0
331, 150254700, 0, 0, 0, 0, 0, 0, 0, 0, 0, 412, 177, 4500, 284, 298, -2, -1584, 572, 15036, 595, 0, 0, 0, 0, 0
332, 150258522, 0, 0, 0, 0, 0, 0, 0, 0, 0, 412, 176, 4500, 286, 295, 0, -1688, 540, 14968, 595, 0, 0, 0, 0, 0
333, 150262390, 0, 0, 0, 0, 0, 0, 0, 0, 0, 412, 175, 4500, 284, 294, 0, -1692, 516, 14952, 595, 0, 0, 0, 0, 0
334, 150266267, 0, 0, 0, 0, 0, 0, 0, 0, 0, 412, 174, 4500, 284, 299, 0, -1700, 520, 14824, 595, 0, 0, 0, 0, 0
335, 150270125, 0, 0, 0, 0, 0, 0, 0, 0, 0, 412, 174, 4500, 287, 296, 0, -1664, 572, 14768, 595, 0, 0, 0, 0, 0
336, 150273994, 0, 0, 0, 0, 0, 0, 0, 0, 0, 412, 174, 4500, 285, 297, -2, -1640, 468, 14904, 595, 0, 0, 0, 0, 0
337, 150277865, 0, 0, 0, 0, 0, 0, 0, 0, 0, 412, 174, 4500, 286, 297, -1, -1568, 548, 14920, 595, 0, 0, 0, 0, 0
338, 150281724, 0, 0, 0, 0, 0, 0, 0, 0, 0, 412, 174, 4500, 286, 292, 0, -1568, 552, 14840, 595, 0, 0, 0, 0, 0
339, 150285639, 0, 0, 0, 0, 0, 0, 0, 0, 0, 412, 174, 4500, 286, 295, 0, -1592, 492, 14968, 595, 0, 0, 0, 0, 0
340, 150289462, 0, 0, 0, 0, 0, 0, 0, 0, 0, 412, 174, 4500, 287, 293, 0, -1576, 584, 14920, 595, 0, 0, 0, 0, 0
341, 150293377, 0, 0, 0, 0, 0, 0, 0, 0, 0, 412, 174, 4500, 288, 296, -1, -1604, 520, 14860, 595, 0, 0, 0, 0, 0
342, 150297200, 0, 0, 0, 0, 0, 0, 0, 0, 0, 412, 173, 4500, 285, 298, 0, -1728, 540, 14892, 595, 0, 0, 0, 0, 0
343, 150301105, 0, 0, 0, 0, 0, 0, 0, 0, 0, 411, 172, 4500, 285, 295, -2, -1692, 456, 14988, 595, 0, 0, 0, 0, 0
344, 150304929, 0, 0, 0, 0, 0, 0, 0, 0, 0, 411, 173, 4500, 284, 291, 1, -1544, 560, 14904, 595, 0, 0, 0, 0, 0
345, 150308802, 0, 0, 0, 0, 0, 0, 0, 0, 0, 411, 174, 4500, 286, 293, -2, -1532, 536, 14752, 595, 0, 0, 0, 0, 0
346, 150312667, 0, 0, 0, 0, 0, 0, 0, 0, 0, 411, 173, 4500, 285, 301, -1, -1756, 540, 15060, 595, 0, 0, 0, 0, 0
347, 150316583, 0, 0, 0, 0, 0, 0, 0, 0, 0, 411, 173, 4500, 286, 295, 2, -1664, 548, 15020, 595, 0, 0, 0, 0, 0
348, 150320403, 0, 0, 0, 0, 0, 0, 0, 0, 0, 410, 174, 4500, 284, 294, -1, -1552, 420, 14884, 595, 0, 0, 0, 0, 0
349, 150324275, 0, 0, 0, 0, 0, 0, 0, 0, 0, 410, 175, 4500, 285, 298, 1, -1512, 536, 14744, 595, 0, 0, 0, 0, 0
350, 150328138, 0, 0, 0, 0, 0, 0, 0, 0, 0, 410, 175, 4500, 284, 296, 0, -1652, 472, 14912, 595, 0, 0, 0, 0, 0
351, 150332007, 0, 0, 0, 0, 0, 0, 0, 0, 0, 409, 175, 4500, 285, 293, 0, -1632, 408, 14944, 595, 0, 0, 0, 0, 0
352, 150335921, 0, 0, 0, 0, 0, 0, 0, 0, 0, 409, 175, 4500, 286, 298, -1, -1604, 512, 14964, 595, 0, 0, 0, 0, 0
353, 150339737, 0, 0, 0, 0, 0, 0, 0, 0, 0, 409, 175, 4500, 286, 300, 1, -1576, 588, 14876, 595, 0, 0, 0, 0, 0
354, 150343608, 0, 0, 0, 0, 0, 0, 0, 0, 0, 409, 175, 4500, 287, 294, 1, -1608, 524, 14764, 595, 0, 0, 0, 0, 0
355, 150347522, 0, 0, 0, 0, 0, 0, 0, 0, 0, 409, 175, 4500, 287, 294, -2, -1576, 516, 14708, 595, 0, 0, 0, 0, 0
356, 150351362, 0, 0, 0, 0, 0, 0, 0, 0, 0, 409, 175, 4500, 285, 293, -3, -1612, 560, 14896, 595, 0, 0, 0, 0, 0
357, 150355217, 0, 0, 0, 0, 0, 0, 0, 0, 0, 409, 175, 4500, 286, 294, 2, -1608, 560, 14904, 595, 0, 0, 0, 0, 0
358, 150359078, 0, 0, 0, 0, 0, 0, 0, 0, 0, 410, 175, 4500, 286, 297, -2, -1636, 600, 14860, 595, 0, 0, 0, 0, 0
359, 150362949, 0, 0, 0, 0, 0, 0, 0, 0, 0, 410, 175, 4500, 286, 299, -2, -1576, 580, 14716, 595, 0, 0, 0, 0, 0
360, 150366805, 0, 0, 0, 0, 0, 0, 0, 0, 0, 411, 175, 4500, 287, 297, -1, -1604, 608, 14848, 595, 0, 0, 0, 0, 0
361, 150370684, 0, 0, 0, 0, 0, 0, 0, 0, 0, 411, 175, 4500, 286, 296, 0, -1604, 588, 14964, 595, 0, 0, 0, 0, 0
362, 150374544, 0, 0, 0, 0, 0, 0, 0, 0, 0, 411, 175, 4500, 286, 294, 1, -1632, 536, 14844, 595, 0, 0, 0, 0, 0
363, 150378497, 0, 0, 0, 0, 0, 0, 0, 0, 0, 411, 175, 4500, 286, 296, -3, -1620, 580, 14848, 595, 0, 0, 0, 0, 0
364, 150676234, 0, 0, 0, 0, 0, 0, 0, 0, 0, 414, 176, 4500, 286, 292, 0, -1576, 580, 14924, 595, 0, 0, 0, 0, 0
365, 150680092, 0, 0, 0, 0, 0, 0, 0, 0, 0, 415, 176, 4500, 284, 293, -1, -1660, 616, 14920, 595, 0, 0, 0, 0, 0
366, 150683959, 0, 0, 0, 0, 0, 0, 0, 0, 0, 415, 177, 4500, 286, 293, 0, -1544, 536, 14800, 595, 0, 0, 0, 0, 0
367, 150687867, 0, 0, 0, 0, 0, 0, 0, 0, 0, 415, 177, 4500, 284, 295, -1, -1612, 552, 14884, 595, 0, 0, 0, 0, 0
368, 150691694, 0, 0, 0, 0, 0, 0, 0, 0, 0, 415, 177, 4500, 286, 295, -1, -1640, 592, 14960, 595, 0, 0, 0, 0, 0
369, 150695561, 0, 0, 0, 0, 0, 0, 0, 0, 0, 415, 177, 4500, 284, 295, -3, -1564, 528, 14788, 595, 0, 0, 0, 0, 0
370, 150699467, 0, 0, 0, 0, 0, 0, 0, 0, 0, 416, 177, 4500, 286, 296, 1, -1616, 624, 14956, 595, 0, 0, 0, 0, 0
371, 150703291, 0, 0, 0, 0, 0, 0, 0, 0, 0, 416, 177, 4500, 285, 295, 0, -1556, 568, 14832, 595, 0, 0, 0, 0, 0
372, 150707166, 0, 0, 0, 0, 0, 0, 0, 0, 0, 416, 176, 4500, 285, 300, -1, -1696, 500, 15004, 595, 0, 0, 0, 0, 0
373, 150711033, 0, 0, 0, 0, 0, 0, 0, 0, 0, 416, 176, 4500, 285, 297, 0, -1648, 524, 14728, 595, 0, 0, 0, 0, 0
374, 150714897, 0, 0, 0, 0, 0, 0, 0, 0, 0, 416, 176, 4500, 287, 296, -1, -1612, 516, 14836, 595, 0, 0, 0, 0, 0
375, 150718816, 0, 0, 0, 0, 0, 0, 0, 0, 0, 416, 176, 4500, 288, 297, -3, -1620, 584, 14864, 595, 0, 0, 0, 0, 0
376, 150722636, 0, 0, 0, 0, 0, 0, 0, 0, 0, 415, 176, 4500, 285, 296, -1, -1644, 456, 14996, 595, 0, 0, 0, 0, 0
377, 150726504, 0, 0, 0, 0, 0, 0, 0, 0, 0, 415, 176, 4500, 287, 296, 1, -1664, 492, 14996, 595, 0, 0, 0, 0, 0
378, 150730370, 0, 0, 0, 0, 0, 0, 0, 0, 0, 415, 176, 4500, 287, 294, 3, -1644, 580, 14752, 595, 0, 0, 0, 0, 0
379, 150734246, 0, 0, 0, 0, 0, 0, 0, 0, 0, 415, 175, 4500, 286, 295, 0, -1680, 544, 14768, 595, 0, 0, 0, 0, 0
380, 150738110, 0, 0, 0, 0, 0, 0, 0, 0, 0, 414, 175, 4500, 287, 297, -1, -1600, 448, 14844, 595, 0, 0, 0, 0, 0
381, 150741972, 0, 0, 0, 0, 0, 0, 0, 0, 0, 414, 175, 4500, 285, 296, -2, -1608, 480, 14812, 595, 0, 0, 0, 0, 0
382, 150745839, 0, 0, 0, 0, 0, 0, 0, 0, 0, 414, 175, 4500, 285, 296, -2, -1624, 576, 14812, 595, 0, 0, 0, 0, 0
383, 150749780, 0, 0, 0, 0, 0, 0, 0, 0, 0, 413, 176, 4500, 286, 296, 0, -1532, 456, 14908, 595, 0, 0, 0, 0, 0
384, 150753577, 0, 0, 0, 0, 0, 0, 0, 0, 0, 413, 177, 4500, 285, 293, 0, -1532, 524, 14856, 595, 0, 0, 0, 0, 0
385, 150757445, 0, 0, 0, 0, 0, 0, 0, 0, 0, 413, 177, 4500, 284, 296, -1, -1580, 528, 14888, 595, 0, 0, 0, 0, 0
386, 150761313, 0, 0, 0, 0, 0, 0, 0, 0, 0, 413, 177, 4500, 287, 297, 1, -1584, 540, 14956, 595, 0, 0, 0, 0, 0
387, 150765185, 0, 0, 0, 0, 0, 0, 0, 0, 0, 413, 177, 4500, 286, 295, -1, -1632, 484, 14964, 595, 0, 0, 0, 0, 0
388, 150769058, 0, 0, 0, 0, 0, 0, 0, 0, 0, 413, 177, 4500, 287, 299, 0, -1616, 504, 14852, 595, 0, 0, 0, 0, 0
389, 150772916, 0, 0, 0, 0, 0, 0, 0, 0, 0, 413, 177, 4500, 288, 294, 0, -1592, 516, 14852, 595, 0, 0, 0, 0, 0
390, 150776836, 0, 0, 0, 0, 0, 0, 0, 0, 0, 414, 177, 4500, 286, 297, -1, -1652, 632, 14804, 595, 0, 0, 0, 0, 0
391, 150780706, 0, 0, 0, 0, 0, 0, 0, 0, 0, 413, 178, 4500, 286, 295, 0, -1524, 452, 14932, 595, 0, 0, 0, 0, 0
392, 150784522, 0, 0, 0, 0, 0, 0, 0, 0, 0, 413, 178, 4500, 284, 293, -2, -1660, 544, 14992, 595, 0, 0, 0, 0, 0
393, 150788388, 0, 0, 0, 0, 0, 0, 0, 0, 0, 413, 179, 4500, 286, 293, -1, -1536, 592, 14944, 595, 0, 0, 0, 0, 0
394, 150792256, 0, 0, 0, 0, 0, 0, 0, 0, 0, 413, 180, 4500, 284, 297, 0, -1548, 536, 14860, 595, 0, 0, 0, 0, 0
395, 150796123, 0, 0, 0, 0, 0, 0, 0, 0, 0, 413, 180, 4500, 288, 295, -1, -1668, 488, 14932, 595, 0, 0, 0, 0, 0
396, 150800018, 0, 0, 0, 0, 0, 0, 0, 0, 0, 413, 180, 4500, 285, 297, 1, -1556, 552, 14852, 595, 0, 0, 0, 0, 0
397, 150803867, 0, 0, 0, 0, 0, 0, 0, 0, 0, 413, 180, 4500, 283, 297, 0, -1616, 560, 14800, 595, 0, 0, 0, 0, 0
398, 150807734, 0, 0, 0, 0, 0, 0, 0, 0, 0, 413, 179, 4500, 288, 296, -2, -1684, 520, 14956, 595, 0, 0, 0, 0, 0
399, 150811636, 0, 0, 0, 0, 0, 0, 0, 0, 0, 413, 179, 4500, 285, 297, -1, -1580, 516, 14864, 595, 0, 0, 0, 0, 0
400, 150815470, 0, 0, 0, 0, 0, 0, 0, 0, 0, 413, 178, 4500, 286, 299, 1, -1708, 560, 14880, 595, 0, 0, 0, 0, 0
401, 150819351, 0, 0, 0, 0, 0, 0, 0, 0, 0, 413, 177, 4500, 287, 294, -1, -1704, 508, 14872, 595, 0, 0, 0, 0, 0
402, 150823203, 0, 0, 0, 0, 0, 0, 0, 0, 0, 413, 176, 4500, 285, 296, -2, -1692, 472, 14980, 595, 0, 0, 0, 0, 0
403, 150827065, 0, 0, 0, 0, 0, 0, 0, 0, 0, 413, 176, 4500, 286, 295, 1, -1632, 492, 14944, 595, 0, 0, 0, 0, 0
404, 150830933, 0, 0, 0, 0, 0, 0, 0, 0, 0, 412, 176, 4500, 285, 297, -1, -1580, 404, 14988, 595, 0, 0, 0, 0, 0
405, 150834799, 0, 0, 0, 0, 0, 0, 0, 0, 0, 412, 177, 4500, 283, 293, 0, -1536, 532, 14984, 595, 0, 0, 0, 0, 0
406, 150838667, 0, 0, 0, 0, 0, 0, 0, 0, 0, 412, 178, 4500, 286, 294, 1, -1504, 552, 14924, 595, 0, 0, 0, 0, 0
407, 150842581, 0, 0, 0, 0, 0, 0, 0, 0, 0, 412, 179, 4500, 286, 293, -1, -1532, 552, 14832, 595, 0, 0, 0, 0, 0
408, 150846403, 0, 0, 0, 0, 0, 0, 0, 0, 0, 412, 179, 4500, 285, 293, -2, -1580, 500, 14832, 595, 0, 0, 0, 0, 0
409, 150850279, 0, 0, 0, 0, 0, 0, 0, 0, 0, 412, 179, 4500, 286, 296, 0, -1568, 472, 14932, 595, 0, 0, 0, 0, 0
410, 150854136, 0, 0, 0, 0, 0, 0, 0, 0, 0, 412, 179, 4500, 284, 295, -2, -1576, 480, 14984, 595, 0, 0, 0, 0, 0
411, 150858017, 0, 0, 0, 0, 0, 0, 0, 0, 0, 411, 179, 4500, 286, 294, -1, -1676, 448, 14884, 595, 0, 0, 0, 0, 0
412, 150861873, 0, 0, 0, 0, 0, 0, 0, 0, 0, 410, 179, 4500, 286, 295, 1, -1556, 444, 14864, 595, 0, 0, 0, 0, 0
413, 150865745, 0, 0, 0, 0, 0, 0, 0, 0, 0, 410, 179, 4500, 284, 297, -2, -1616, 560, 14860, 595, 0, 0, 0, 0, 0
414, 150869610, 0, 0, 0, 0, 0, 0, 0, 0, 0, 410, 179, 4500, 285, 297, -2, -1564, 564, 14884, 595, 0, 0, 0, 0, 0
415, 150873523, 0, 0, 0, 0, 0, 0, 0, 0, 0, 410, 179, 4500, 288, 296, 1, -1584, 468, 15048, 595, 0, 0, 0, 0, 0
416, 150877346, 0, 0, 0, 0, 0, 0, 0, 0, 0, 410, 179, 4500, 284, 298, -1, -1568, 516, 14780, 595, 0, 0, 0, 0, 0
417, 150881229, 0, 0, 0, 0, 0, 0, 0, 0, 0, 410, 179, 4500, 286, 295, -1, -1640, 504, 15020, 595, 0, 0, 0, 0, 0
418, 150885080, 0, 0, 0, 0, 0, 0, 0, 0, 0, 409, 179, 4500, 285, 295, -1, -1600, 460, 14792, 595, 0, 0, 0, 0, 0
419, 150888948, 0, 0, 0, 0, 0, 0, 0, 0, 0, 410, 179, 4500, 286, 296, -2, -1580, 636, 14732, 595, 0, 0, 0, 0, 0
420, 150892813, 0, 0, 0, 0, 0, 0, 0, 0, 0, 409, 179, 4500, 286, 297, -1, -1600, 444, 14980, 595, 0, 0, 0, 0, 0
421, 150896685, 0, 0, 0, 0, 0, 0, 0, 0, 0, 408, 179, 4500, 286, 294, -1, -1664, 448, 14816, 595, 0, 0, 0, 0, 0
422, 150900568, 0, 0, 0, 0, 0, 0, 0, 0, 0, 409, 180, 4500, 286, 295, -2, -1516, 620, 14844, 595, 0, 0, 0, 0, 0
423, 150904463, 0, 0, 0, 0, 0, 0, 0, 0, 0, 409, 179, 4500, 287, 295, 0, -1728, 584, 14996, 595, 0, 0, 0, 0, 0
424, 150908280, 0, 0, 0, 0, 0, 0, 0, 0, 0, 409, 179, 4500, 286, 297, -3, -1564, 476, 14828, 595, 0, 0, 0, 0, 0
425, 150912155, 0, 0, 0, 0, 0, 0, 0, 0, 0, 409, 180, 4500, 286, 292, -2, -1484, 488, 14936, 595, 0, 0, 0, 0, 0
426, 150916022, 0, 0, 0, 0, 0, 0, 0, 0, 0, 409, 180, 4500, 286, 297, -2, -1636, 588, 15100, 595, 0, 0, 0, 0, 0
427, 150919891, 0, 0, 0, 0, 0, 0, 0, 0, 0, 409, 180, 4500, 283, 299, -3, -1624, 564, 14952, 595, 0, 0, 0, 0, 0
428, 150923793, 0, 0, 0, 0, 0, 0, 0, 0, 0, 409, 180, 4500, 287, 298, 2, -1628, 580, 14968, 595, 0, 0, 0, 0, 0
429, 150927623, 0, 0, 0, 0, 0, 0, 0, 0, 0, 408, 180, 4500, 286, 294, -1, -1620, 460, 14936, 595, 0, 0, 0, 0, 0
430, 150931499, 0, 0, 0, 0, 0, 0, 0, 0, 0, 408, 180, 4500, 286, 294, 0, -1592, 496, 14928, 595, 0, 0, 0, 0, 0
431, 150935411, 0, 0, 0, 0, 0, 0, 0, 0, 0, 408, 180, 4500, 286, 298, 1, -1568, 524, 14912, 595, 0, 0, 0, 0, 0
432, 150939225, 0, 0, 0, 0, 0, 0, 0, 0, 0, 409, 180, 4500, 286, 296, 0, -1644, 600, 14924, 595, 0, 0, 0, 0, 0
433, 150943090, 0, 0, 0, 0, 0, 0, 0, 0, 0, 409, 181, 4500, 287, 294, -1, -1516, 572, 14680, 595, 0, 0, 0, 0, 0
434, 150946963, 0, 0, 0, 0, 0, 0, 0, 0, 0, 409, 181, 4500, 284, 295, -3, -1548, 508, 14936, 595, 0, 0, 0, 0, 0
435, 150950850, 0, 0, 0, 0, 0, 0, 0, 0, 0, 410, 181, 4500, 288, 298, -2, -1660, 604, 15008, 595, 0, 0, 0, 0, 0
436, 150954693, 0, 0, 0, 0, 0, 0, 0, 0, 0, 410, 181, 4500, 290, 293, 0, -1672, 532, 14856, 595, 0, 0, 0, 0, 0
437, 150958561, 0, 0, 0, 0, 0, 0, 0, 0, 0, 410, 181, 4500, 286, 294, -1, -1600, 532, 14800, 595, 0, 0, 0, 0, 0
438, 150962429, 0, 0, 0, 0, 0, 0, 0, 0, 0, 410, 181, 4500, 285, 297, -2, -1596, 544, 14960, 595, 0, 0, 0, 0, 0
439, 150966360, 0, 0, 0, 0, 0, 0, 0, 0, 0, 410, 180, 4500, 286, 296, -3, -1688, 548, 14904, 595, 0, 0, 0, 0, 0
440, 150970166, 0, 0, 0, 0, 0, 0, 0, 0, 0, 410, 180, 4500, 286, 294, -3, -1668, 496, 15020, 595, 0, 0, 0, 0, 0
441, 150974031, 0, 0, 0, 0, 0, 0, 0, 0, 0, 411, 181, 4500, 287, 295, 1, -1528, 608, 14868, 595, 0, 0, 0, 0, 0
442, 150977911, 0, 0, 0, 0, 0, 0, 0, 0, 0, 412, 180, 4500, 287, 293, -1, -1680, 636, 14960, 595, 0, 0, 0, 0, 0
443, 150981767, 0, 0, 0, 0, 0, 0, 0, 0, 0, 412, 180, 4500, 287, 296, -1, -1644, 492, 14832, 595, 0, 0, 0, 0, 0
444, 150985637, 0, 0, 0, 0, 0, 0, 0, 0, 0, 412, 180, 4500, 285, 294, 0, -1580, 472, 14824, 595, 0, 0, 0, 0, 0
445, 150989503, 0, 0, 0, 0, 0, 0, 0, 0, 0, 412, 180, 4500, 285, 295, 0, -1624, 504, 14856, 595, 0, 0, 0, 0, 0
446, 150993370, 0, 0, 0, 0, 0, 0, 0, 0, 0, 412, 180, 4500, 285, 298, -2, -1584, 508, 14880, 595, 0, 0, 0, 0, 0
447, 150997284, 0, 0, 0, 0, 0, 0, 0, 0, 0, 412, 180, 4500, 286, 294, 2, -1632, 560, 14912, 595, 0, 0, 0, 0, 0
448, 151001109, 0, 0, 0, 0, 0, 0, 0, 0, 0, 413, 180, 4500, 284, 296, -1, -1632, 600, 14712, 595, 0, 0, 0, 0, 0
449, 151004976, 0, 0, 0, 0, 0, 0, 0, 0, 0, 413, 180, 4500, 288, 295, -1, -1556, 508, 14936, 595, 0, 0, 0, 0, 0
450, 151008843, 0, 0, 0, 0, 0, 0, 0, 0, 0, 413, 180, 4500, 282, 292, -1, -1640, 512, 14772, 595, 0, 0, 0, 0, 0
451, 151012717, 0, 0, 0, 0, 0, 0, 0, 0, 0, 413, 180, 4500, 286, 295, 1, -1604, 548, 14836, 595, 0, 0, 0, 0, 0
452, 151016576, 0, 0, 0, 0, 0, 0, 0, 0, 0, 413, 180, 4500, 286, 294, 0, -1588, 512, 14992, 595, 0, 0, 0, 0, 0
453, 151020447, 0, 0, 0, 0, 0, 0, 0, 0, 0, 413, 180, 4500, 286, 297, 0, -1580, 564, 14768, 595, 0, 0, 0, 0, 0
454, 151024322, 0, 0, 0, 0, 0, 0, 0, 0, 0, 413, 180, 4500, 285, 295, 2, -1640, 524, 14892, 595, 0, 0, 0, 0, 0
455, 151028251, 0, 0, 0, 0, 0, 0, 0, 0, 0, 413, 180, 4500, 285, 295, 0, -1588, 536, 14940, 595, 0, 0, 0, 0, 0
456, 151032048, 0, 0, 0, 0, 0, 0, 0, 0, 0, 413, 179, 4500, 286, 296, -3, -1684, 536, 14944, 595, 0, 0, 0, 0, 0
457, 151035914, 0, 0, 0, 0, 0, 0, 0, 0, 0, 413, 179, 4500, 289, 298, 0, -1552, 544, 14948, 595, 0, 0, 0, 0, 0
458, 151039783, 0, 0, 0, 0, 0, 0, 0, 0, 0, 413, 179, 4500, 288, 294, 0, -1580, 524, 14892, 595, 0, 0, 0, 0, 0
459, 151043651, 0, 0, 0, 0, 0, 0, 0, 0, 0, 413, 179, 4500, 285, 296, -2, -1608, 572, 14924, 595, 0, 0, 0, 0, 0
460, 151047517, 0, 0, 0, 0, 0, 0, 0, 0, 0, 413, 179, 4500, 285, 296, -1, -1560, 508, 14920, 595, 0, 0, 0, 0, 0
461, 151051398, 0, 0, 0, 0, 0, 0, 0, 0, 0, 413, 179, 4500, 289, 295, -1, -1600, 532, 14868, 595, 0, 0, 0, 0, 0
462, 151055253, 0, 0, 0, 0, 0, 0, 0, 0, 0, 413, 179, 4500, 286, 295, -1, -1580, 504, 14756, 595, 0, 0, 0, 0, 0
463, 151059173, 0, 0, 0, 0, 0, 0, 0, 0, 0, 413, 179, 4500, 286, 298, 0, -1608, 536, 14952, 595, 0, 0, 0, 0, 0
464, 151062993, 0, 0, 0, 0, 0, 0, 0, 0, 0, 413, 180, 4500, 285, 296, 0, -1544, 508, 14824, 595, 0, 0, 0, 0, 0
465, 151066855, 0, 0, 0, 0, 0, 0, 0, 0, 0, 413, 180, 4500, 288, 298, 1, -1672, 552, 14996, 595, 0, 0, 0, 0, 0
466, 151070747, 0, 0, 0, 0, 0, 0, 0, 0, 0, 413, 180, 4500, 287, 296, -4, -1556, 496, 14932, 595, 0, 0, 0, 0, 0
467, 151074587, 0, 0, 0, 0, 0, 0, 0, 0, 0, 413, 180, 4500, 288, 292, 2, -1560, 516, 14744, 595, 0, 0, 0, 0, 0
468, 151078455, 0, 0, 0, 0, 0, 0, 0, 0, 0, 412, 180, 4500, 284, 296, -3, -1584, 460, 14892, 595, 0, 0, 0, 0, 0
469, 151082322, 0, 0, 0, 0, 0, 0, 0, 0, 0, 412, 180, 4500, 284, 297, -3, -1552, 512, 14864, 595, 0, 0, 0, 0, 0
470, 151086189, 0, 0, 0, 0, 0, 0, 0, 0, 0, 412, 180, 4500, 285, 293, -2, -1584, 544, 14964, 595, 0, 0, 0, 0, 0
471, 151090103, 0, 0, 0, 0, 0, 0, 0, 0, 0, 412, 180, 4500, 286, 295, 0, -1616, 516, 14792, 595, 0, 0, 0, 0, 0
472, 151093926, 0, 0, 0, 0, 0, 0, 0, 0, 0, 412, 180, 4500, 287, 296, 0, -1584, 552, 14908, 595, 0, 0, 0, 0, 0
473, 151097801, 0, 0, 0, 0, 0, 0, 0, 0, 0, 412, 180, 4500, 286, 297, -2, -1608, 592, 14880, 595, 0, 0, 0, 0, 0
474, 151101700, 0, 0, 0, 0, 0, 0, 0, 0, 0, 412, 181, 4500, 285, 295, 0, -1464, 528, 14820, 595, 0, 0, 0, 0, 0
475, 151105540, 0, 0, 0, 0, 0, 0, 0, 0, 0, 413, 180, 4500, 283, 296, -3, -1696, 672, 14932, 595, 0, 0, 0, 0, 0
476, 151109395, 0, 0, 0, 0, 0, 0, 0, 0, 0, 413, 179, 4500, 287, 299, -2, -1736, 512, 14796, 595, 0, 0, 0, 0, 0
477, 151113286, 0, 0, 0, 0, 0, 0, 0, 0, 0, 413, 179, 4500, 286, 295, -1, -1628, 532, 15080, 595, 0, 0, 0, 0, 0
478, 151117131, 0, 0, 0, 0, 0, 0, 0, 0, 0, 413, 179, 4500, 283, 297, -2, -1592, 544, 14744, 595, 0, 0, 0, 0, 0
479, 151121042, 0, 0, 0, 0, 0, 0, 0, 0, 0, 412, 179, 4500, 285, 299, -2, -1660, 440, 14944, 595, 0, 0, 0, 0, 0
480, 151124864, 0, 0, 0, 0, 0, 0, 0, 0, 0, 412, 179, 4500, 288, 296, 0, -1676, 476, 15016, 595, 0, 0, 0, 0, 0
481, 151128742, 0, 0, 0, 0, 0, 0, 0, 0, 0, 412, 179, 4500, 286, 296, 1, -1568, 520, 14864, 595, 0, 0, 0, 0, 0
482, 151132610, 0, 0, 0, 0, 0, 0, 0, 0, 0, 412, 179, 4500, 289, 295, 1, -1652, 528, 14876, 595, 0, 0, 0, 0, 0
483, 151136470, 0, 0, 0, 0, 0, 0, 0, 0, 0, 413, 178, 4500, 286, 298, -2, -1712, 620, 14900, 595, 0, 0, 0, 0, 0
484, 151140335, 0, 0, 0, 0, 0, 0, 0, 0, 0, 414, 179, 4500, 284, 295, 1, -1508, 640, 14832, 595, 0, 0, 0, 0, 0
485, 151144205, 0, 0, 0, 0, 0, 0, 0, 0, 0, 414, 179, 4500, 286, 298, 0, -1640, 520, 14988, 595, 0, 0, 0, 0, 0
486, 151148071, 0, 0, 0, 0, 0, 0, 0, 0, 0, 413, 179, 4500, 288, 295, 0, -1580, 468, 14872, 595, 0, 0, 0, 0, 0
487, 151151984, 0, 0, 0, 0, 0, 0, 0, 0, 0, 413, 179, 4500, 285, 297, -1, -1556, 516, 14900, 595, 0, 0, 0, 0, 0
488, 151155815, 0, 0, 0, 0, 0, 0, 0, 0, 0, 413, 179, 4500, 287, 298, 0, -1564, 556, 14836, 595, 0, 0, 0, 0, 0
489, 151159671, 0, 0, 0, 0, 0, 0, 0, 0, 0, 412, 179, 4500, 288, 294, -4, -1668, 428, 14812, 595, 0, 0, 0, 0, 0
490, 151163538, 0, 0, 0, 0, 0, 0, 0, 0, 0, 412, 179, 4500, 284, 295, 0, -1628, 580, 14836, 595, 0, 0, 0, 0, 0
491, 151167406, 0, 0, 0, 0, 0, 0, 0, 0, 0, 412, 179, 4500, 287, 293, -1, -1552, 576, 14844, 595, 0, 0, 0, 0, 0
492, 151171280, 0, 0, 0, 0, 0, 0, 0, 0, 0, 412, 179, 4500, 288, 293, 0, -1576, 528, 14844, 595, 0, 0, 0, 0, 0
493, 151175150, 0, 0, 0, 0, 0, 0, 0, 0, 0, 412, 179, 4500, 285, 297, 1, -1580, 588, 14908, 595, 0, 0, 0, 0, 0
494, 151179021, 0, 0, 0, 0, 0, 0, 0, 0, 0, 412, 179, 4500, 286, 295, 0, -1636, 524, 14936, 595, 0, 0, 0, 0, 0
495, 151182934, 0, 0, 0, 0, 0, 0, 0, 0, 0, 412, 180, 4500, 286, 297, -2, -1512, 528, 14872, 595, 0, 0, 0, 0, 0
496, 151186757, 0, 0, 0, 0, 0, 0, 0, 0, 0, 413, 180, 4500, 286, 294, -1, -1564, 596, 15024, 595, 0, 0, 0, 0, 0
497, 151190612, 0, 0, 0, 0, 0, 0, 0, 0, 0, 413, 180, 4500, 286, 296, 2, -1616, 524, 14908, 595, 0, 0, 0, 0, 0
498, 151194480, 0, 0, 0, 0, 0, 0, 0, 0, 0, 413, 180, 4500, 286, 295, -2, -1640, 552, 14820, 595, 0, 0, 0, 0, 0
499, 151198672, 0, 0, 0, 0, 0, 0, 0, 0, 0, 413, 180, 4500, 286, 296, 0, -1660, 540, 14908, 595, 0, 0, 0, 0, 0
500, 151202228, 0, 0, 0, 0, 0, 0, 0, 0, 0, 413, 179, 4500, 285, 297, -1, -1736, 508, 14868, 595, 0, 0, 0, 0, 0
501, 151206080, 0, 0, 0, 0, 0, 0, 0, 0, 0, 414, 179, 4500, 288, 297, -2, -1592, 596, 14916, 595, 0, 0, 0, 0, 0
502, 151209949, 0, 0, 0, 0, 0, 0, 0, 0, 0, 414, 179, 4500, 287, 296, 0, -1664, 584, 14996, 595, 0, 0, 0, 0, 0
503, 151213865, 0, 0, 0, 0, 0, 0, 0, 0, 0, 414, 180, 4500, 286, 295, -3, -1532, 472, 14988, 595, 0, 0, 0, 0, 0
504, 151217753, 0, 0, 0, 0, 0, 0, 0, 0, 0, 414, 179, 4500, 288, 296, 0, -1684, 496, 14916, 595, 0, 0, 0, 0, 0
505, 151221556, 0, 0, 0, 0, 0, 0, 0, 0, 0, 414, 179, 4500, 288, 296, -1, -1660, 564, 15004, 595, 0, 0, 0, 0, 0
506, 151225430, 0, 0, 0, 0, 0, 0, 0, 0, 0, 414, 179, 4500, 287, 296, 0, -1580, 472, 14888, 595, 0, 0, 0, 0, 0
507, 151229287, 0, 0, 0, 0, 0, 0, 0, 0, 0, 414, 180, 4500, 286, 289, -1, -1536, 520, 14760, 595, 0, 0, 0, 0, 0
508, 151233166, 0, 0, 0, 0, 0, 0, 0, 0, 0, 413, 180, 4500, 288, 295, -1, -1656, 468, 14948, 595, 0, 0, 0, 0, 0
509, 151237028, 0, 0, 0, 0, 0, 0, 0, 0, 0, 413, 180, 4500, 285, 294, 0, -1612, 484, 14900, 595, 0, 0, 0, 0, 0
510, 151240894, 0, 0, 0, 0, 0, 0, 0, 0, 0, 413, 180, 4500, 287, 291, 1, -1592, 496, 14916, 595, 0, 0, 0, 0, 0
511, 151244808, 0, 0, 0, 0, 0, 0, 0, 0, 0, 414, 180, 4500, 285, 295, 0, -1616, 620, 14908, 595, 0, 0, 0, 0, 0
512, 151248680, 0, 0, 0, 0, 0, 0, 0, 0, 0, 413, 180, 4500, 286, 295, -2, -1668, 456, 14992, 595, 0, 0, 0, 0, 0
513, 151252502, 0, 0, 0, 0, 0, 0, 0, 0, 0, 413, 180, 4500, 288, 295, -1, -1576, 552, 15028, 595, 0, 0, 0, 0, 0
514, 151256369, 0, 0, 0, 0, 0, 0, 0, 0, 0, 413, 180, 4500, 286, 299, 0, -1560, 568, 14952, 595, 0, 0, 0, 0, 0
515, 151260245, 0, 0, 0, 0, 0, 0, 0, 0, 0, 414, 180, 4500, 287, 296, 3, -1636, 624, 14860, 595, 0, 0, 0, 0, 0
516, 151264108, 0, 0, 0, 0, 0, 0, 0, 0, 0, 414, 180, 4500, 287, 296, -3, -1628, 544, 14944, 595, 0, 0, 0, 0, 0
517, 151267973, 0, 0, 0, 0, 0, 0, 0, 0, 0, 414, 181, 4500, 283, 296, -1, -1424, 524, 14756, 595, 0, 0, 0, 0, 0
518, 151271841, 0, 0, 0, 0, 0, 0, 0, 0, 0, 414, 182, 4500, 287, 296, -2, -1516, 564, 14792, 595, 0, 0, 0, 0, 0
519, 151275756, 0, 0, 0, 0, 0, 0, 0, 0, 0, 414, 181, 4500, 286, 294, -1, -1692, 492, 14952, 595, 0, 0, 0, 0, 0
520, 151279576, 0, 0, 0, 0, 0, 0, 0, 0, 0, 414, 181, 4500, 284, 294, -2, -1620, 544, 14936, 595, 0, 0, 0, 0, 0
521, 151283440, 0, 0, 0, 0, 0, 0, 0, 0, 0, 415, 181, 4500, 286, 295, -2, -1608, 636, 14804, 595, 0, 0, 0, 0, 0
522, 151287312, 0, 0, 0, 0, 0, 0, 0, 0, 0, 414, 181, 4500, 286, 297, 1, -1648, 452, 14852, 595, 0, 0, 0, 0, 0
523, 151291179, 0, 0, 0, 0, 0, 0, 0, 0, 0, 414, 181, 4500, 287, 296, -1, -1600, 520, 14852, 595, 0, 0, 0, 0, 0
524, 151295048, 0, 0, 0, 0, 0, 0, 0, 0, 0, 414, 181, 4500, 284, 296, 1, -1648, 496, 15004, 595, 0, 0, 0, 0, 0
525, 151298918, 0, 0, 0, 0, 0, 0, 0, 0, 0, 414, 180, 4500, 286, 298, 0, -1692, 584, 14628, 595, 0, 0, 0, 0, 0
526, 151302781, 0, 0, 0, 0, 0, 0, 0, 0, 0, 414, 180, 4500, 285, 294, 1, -1636, 540, 14832, 595, 0, 0, 0, 0, 0
527, 151306703, 0, 0, 0, 0, 0, 0, 0, 0, 0, 414, 180, 4500, 285, 298, 0, -1624, 560, 15012, 595, 0, 0, 0, 0, 0
528, 151310517, 0, 0, 0, 0, 0, 0, 0, 0, 0, 414, 181, 4500, 285, 296, -2, -1544, 548, 14796, 595, 0, 0, 0, 0, 0
529, 151314385, 0, 0, 0, 0, 0, 0, 0, 0, 0, 414, 181, 4500, 286, 296, -2, -1556, 568, 14780, 595, 0, 0, 0, 0, 0
530, 151318255, 0, 0, 0, 0, 0, 0, 0, 0, 0, 414, 181, 4500, 283, 297, -1, -1624, 476, 14948, 595, 0, 0, 0, 0, 0
531, 151322161, 0, 0, 0, 0, 0, 0, 0, 0, 0, 413, 181, 4500, 288, 296, -1, -1604, 464, 14788, 595, 0, 0, 0, 0, 0
532, 151325989, 0, 0, 0, 0, 0, 0, 0, 0, 0, 413, 180, 4500, 286, 298, 3, -1688, 504, 14820, 595, 0, 0, 0, 0, 0
533, 151329858, 0, 0, 0, 0, 0, 0, 0, 0, 0, 413, 180, 4500, 284, 296, -1, -1640, 492, 14864, 595, 0, 0, 0, 0, 0
534, 151333732, 0, 0, 0, 0, 0, 0, 0, 0, 0, 413, 179, 4500, 287, 298, 1, -1772, 528, 14900, 595, 0, 0, 0, 0, 0
535, 151337637, 0, 0, 0, 0, 0, 0, 0, 0, 0, 413, 179, 4500, 285, 297, 0, -1664, 588, 14976, 595, 0, 0, 0, 0, 0
536, 151341467, 0, 0, 0, 0, 0, 0, 0, 0, 0, 413, 179, 4500, 286, 296, -1, -1668, 536, 14928, 595, 0, 0, 0, 0, 0
537, 151345325, 0, 0, 0, 0, 0, 0, 0, 0, 0, 413, 179, 4500, 284, 295, -1, -1576, 564, 14868, 595, 0, 0, 0, 0, 0
538, 151349207, 0, 0, 0, 0, 0, 0, 0, 0, 0, 414, 179, 4500, 287, 293, 0, -1632, 636, 14728, 595, 0, 0, 0, 0, 0
539, 151353057, 0, 0, 0, 0, 0, 0, 0, 0, 0, 414, 179, 4500, 285, 295, 1, -1660, 520, 14856, 595, 0, 0, 0, 0, 0
540, 151356926, 0, 0, 0, 0, 0, 0, 0, 0, 0, 413, 179, 4500, 289, 293, -4, -1600, 428, 14816, 595, 0, 0, 0, 0, 0
541, 151360795, 0, 0, 0, 0, 0, 0, 0, 0, 0, 413, 179, 4500, 286, 292, 2, -1560, 536, 14768, 595, 0, 0, 0, 0, 0
